     2.11           OBSERVATION DATA    G (GPS)             RINEX VERSION / TYPE
teqc  2013Mar15                         20140111 01:02:41UTCPGM / RUN BY / DATE
Linux 2.4.20-8|Pentium IV|gcc -static|Linux|486/DX+         COMMENT
   0.033      (antenna height)                              COMMENT
 +55.21279000 (latitude)                                    COMMENT
  -1.68549700 (longitude)                                   COMMENT
0144.425      (elevation)                                   COMMENT
BIT 2 OF LLI FLAGS DATA COLLECTED UNDER A/S CONDITION       COMMENT
MORP (COGO code)                                            COMMENT
MORP                                                        MARKER NAME
13299S001                                                   MARKER NUMBER
Matt King           NCL                                     OBSERVER / AGENCY
4843K3347           TRIMBLE NETR8       4.19                REC # / TYPE / VERS
221                 AOAD/M_T        NONE                    ANT # / TYPE
  3645667.8584  -107277.2886  5215053.4919                  APPROX POSITION XYZ
        0.0330        0.0000        0.0000                  ANTENNA: DELTA H/E/N
     1     1                                                WAVELENGTH FACT L1/2
     8    C1    P1    C2    P2    L1    L2    S1    S2      # / TYPES OF OBSERV
    30.0000                                                 INTERVAL
    16                                                      LEAP SECONDS
Forced Modulo Decimation to 30 seconds                      COMMENT
 SNR is mapped to RINEX snr flag value [0-9]                COMMENT
  L1 & L2: min(max(int(snr_dBHz/6), 0), 9)                  COMMENT
  2014     1    10     0     0    0.0000000     GPS         TIME OF FIRST OBS
                                                            END OF HEADER
 14  1 10  0  0  0.0000000  0  9G04G02G14G12G29G32G24G31G25
  23468828.602                                    23468835.234   123329505.207 6
  96100957.50743        41.700          19.300
  23498093.320                                    23498096.730   123483264.096 6
  96220790.91544        41.700          26.800
  21668833.102                                    21668838.445   113870430.102 7
  88730263.77445        47.800          31.300
  20735794.563                    20735800.613    20735800.434   108967483.739 8
  84909678.644 8        50.500          49.100
  22262284.148                    22262290.727    22262290.547   116989074.744 7
  91160379.055 7        44.900          42.700
  25170966.578                                                   132274460.095 5
                        33.200
  23639376.359                    23639385.867                   124225761.412 7
  96799374.447 7        42.400          43.200
  22959537.078                    22959542.895    22959542.773   120653394.123 7
  94015488.615 7        43.200          42.200
  20281314.836                    20281323.523                   106579023.029 8
  83048668.485 8        52.100          50.100
 14  1 10  0  0 30.0000000  0  9G04G02G14G12G29G32G24G31G25
  23472266.938                                    23472273.980   123347571.848 7
  96115035.41843        42.500          21.300
  23487239.586                                    23487242.820   123426224.877 6
  96176344.80144        40.900          25.400
  21676839.914                                    21676845.668   113912504.858 8
  88763049.27345        48.100          31.900
  20746027.883                    20746033.172    20746033.285   109021258.464 8
  84951581.027 8        50.900          49.100
  22243649.586                    22243655.578    22243655.691   116891148.608 7
  91084073.006 7        45.000          42.300
  25179172.922                                                   132317599.205 5
                        31.600
  23659503.000                    23659512.801                   124331529.918 6
  96881791.432 7        41.600          42.600
  22942283.266                    22942289.199    22942289.020   120562723.644 7
  93944836.300 6        43.800          41.800
  20276582.328                    20276591.250                   106554154.942 8
  83029290.755 8        52.100          50.300
 14  1 10  0  1  0.0000000  0  9G04G02G14G12G29G32G24G31G25
  23475824.461                                    23475831.152   123366264.453 7
  96129601.07243        42.300          22.000
  23476461.398                                    23476465.512   123369588.293 6
  96132212.42644        41.900          26.200
  21684952.805                                    21684958.441   113955140.595 8
  88796271.88845        48.200          32.500
  20756328.891                    20756334.414    20756334.410   109075393.159 8
  84993763.901 8        50.700          48.500
  22225074.313                    22225081.594    22225081.414   116793538.573 7
  91008013.281 7        44.500          42.900
  25187469.234                                                   132361197.187 5
                        31.500
  23679662.758                    23679672.266                   124437467.983 6
  96964340.544 7        40.900          43.200
  22925069.195                    22925075.012    22925074.891   120472263.640 7
  93874347.997 7        43.800          42.400
  20271932.695                    20271941.676                   106529722.075 8
  83010252.155 8        52.000          50.000
 14  1 10  0  1 30.0000000  0  9G04G02G14G12G29G32G24G31G25
  23479500.938                                    23479507.160   123385584.180 7
  96144655.41243        42.500          21.300
  23465760.992                                    23465764.637   123313358.135 7
  96088396.73744        42.600          24.300
  21693173.336                                    21693178.738   113998337.811 7
  88829932.00745        47.600          32.300
  20766699.305                    20766704.770    20766704.590   109129889.089 8
  85036228.261 8        50.700          48.800
  22206560.867                    22206567.621    22206567.500   116696249.008 7
  90932203.261 7        45.400          43.100
  25195852.523                                                   132405253.840 5
                        30.300
  23699853.977                    23699863.543                   124543576.122 6
  97047022.193 7        41.100          42.800
  22907895.672                    22907901.840    22907901.777   120382017.943 7
  93804026.679 7        44.200          42.800
  20267366.461                    20267375.734                   106505726.443 8
  82991554.258 8        52.300          50.700
 14  1 10  0  2  0.0000000  0  9G04G02G14G12G29G32G24G31G25
  23483296.367                                    23483303.176   123405529.229 7
  96160197.00243        42.600          22.800
  23455138.508                                    23455142.738   123257535.543 6
  96044898.65344        41.400          26.200
  21701499.508                                    21701505.555   114042094.229 7
  88864027.87545        47.300          32.100
  20777137.430                    20777143.129    20777143.125   109184742.951 8
  85078971.523 8        50.800          48.900
  22188108.594                    22188115.055    22188115.168   116599280.938 7
  90856643.754 7        45.800          42.600
  25204323.188                                                   132449766.075 5
                        31.300
  23720077.922                    23720087.254                   124649851.037 7
  97129833.789 7        42.000          42.600
  22890763.945                    22890768.766    22890768.820   120291987.282 7
  93733872.921 7        44.600          42.600
  20262883.539                    20262891.992                   106482167.050 8
  82973196.292 8        51.500          50.800
 14  1 10  0  2 30.0000000  0  9G04G02G14G12G29G32G24G31G25
  23487210.516                                    23487217.266   123426098.748 7
  96176225.17743        43.200          22.800
  23444593.516                                    23444597.277   123202122.260 6
  96001719.51244        41.100          27.900
  21709932.320                                    21709938.074   114086407.351 7
  88898557.52845        46.800          32.100
  20787643.617                    20787649.375    20787649.313   109239953.118 8
  85121992.435 8        50.700          48.400
  22169717.344                    22169724.332    22169723.918   116502635.929 7
  90781335.988 7        46.000          42.800
  25212879.617                                                   132494731.686 4
                        29.600
  23740332.711                    23740341.691                   124756290.957 6
  97212773.963 7        41.500          42.700
  22873672.953                    22873678.359    22873678.414   120202173.268 7
  93663887.984 7        44.100          42.800
  20258483.773                    20258492.344                   106459043.811 8
  82955178.179 8        51.800          50.300
 14  1 10  0  3  0.0000000  0  9G04G02G14G12G29G32G24G31G25
  23491243.977                                    23491250.258   123447292.181 7
  96192739.56643        42.700          23.400
  23434127.461                                    23434130.813   123147120.807 7
  95958861.26144        42.300          27.100
  21718470.336                                    21718475.797   114131276.147 7
  88933520.19545        47.400          32.300
  20798217.633                    20798222.863    20798222.918   109295518.563 8
  85165290.183 8        50.200          48.500
  22151388.688                    22151395.559    22151395.320   116406316.778 7
  90706282.137 7        45.000          42.800
  25221522.508                                                   132540149.039 5
                        30.500
  23760618.352                    23760627.918                   124862894.725 6
  97295841.843 7        41.200          42.900
  22856623.555                    22856629.078    22856628.957   120112577.917 7
  93594073.432 7        43.900          43.200
  20254166.188                    20254175.227                   106436357.220 8
  82937500.316 8        51.700          50.500
 14  1 10  0  3 30.0000000  0  8G04G02G14G12G29G24G31G25
  23495395.242                                    23495402.168   123469110.298 7
  96209740.70443        42.400          22.300
  23423740.352                                    23423743.176   123092534.102 7
  95916326.20244        42.400          27.300
  21727114.344                                    21727119.980   114176700.088 7
  88968915.45445        47.300          31.200
  20808858.547                    20808864.598    20808864.535   109351439.172 8
  85208864.679 8        50.400          48.700
  22133122.727                    22133128.953    22133128.949   116310326.905 7
  90631484.870 7        44.900          42.900
  23780935.625                    23780944.430                   124969661.199 6
  97379036.503 7        41.100          42.500
  22839616.109                    22839621.633    22839621.512   120023204.173 7
  93524431.559 7        44.200          42.900
  20249932.320                    20249941.066                   106414108.573 8
  82920163.708 8        52.100          50.700
 14  1 10  0  4  0.0000000  0  8G04G02G14G12G29G24G31G25
  23499665.477                                    23499672.168   123491550.370 7
  96227226.45343        42.300          22.300
  23413431.570                                    23413434.922   123038363.004 7
  95874114.98744        42.200          27.300
  21735863.273                                    21735869.145   114222675.636 7
  89004740.54845        47.200          31.600
  20819566.906                    20819572.430    20819572.250   109407711.444 8
  85252713.204 8        50.300          48.400
  22114918.711                    22114925.406    22114925.344   116214666.655 7
  90556944.435 7        45.200          43.100
  23801282.000                    23801291.977                   125076587.687 6
  97462355.829 7        41.900          42.500
  22822651.133                    22822656.656    22822656.652   119934052.487 7
  93454962.716 7        44.100          43.400
  20245781.664                    20245790.762                   106392296.306 8
  82903167.135 8        51.800          51.300
 14  1 10  0  4 30.0000000  0  8G04G02G14G12G29G24G31G25
  23504053.734                                    23504060.719   123514611.774 7
  96245196.37443        42.100          22.900
  23403202.242                                    23403205.359   122984609.174 6
  95832228.92344        41.800          26.800
  21744716.328                                    21744722.551   114269201.373 7
  89040994.35745        46.700          31.500
  20830341.898                    20830347.363    20830347.418   109464334.026 8
  85296834.687 8        50.300          48.400
  22096778.086                    22096784.723    22096784.602   116119337.958 7
  90482662.358 7        44.900          43.400
  23821660.672                    23821670.180                   125183671.999 6
  97545798.150 7        41.100          42.900
  22805728.547                    22805734.422    22805734.184   119845124.471 7
  93385668.162 7        44.400          43.000
  20241714.172                    20241723.328                   106370920.504 8
  82886510.664 8        51.900          50.800
 14  1 10  0  5  0.0000000  0  8G04G02G14G12G29G24G31G25
  23508560.336                                    23508567.613   123538294.471 6
  96263650.42743        41.100          22.300
  23393053.563                                    23393055.918   122931274.866 6
  95790669.74044        40.900          27.000
  21753674.367                                    21753680.355   114316276.080 7
  89077675.93845        47.200          31.300
  20841183.570                    20841189.152    20841188.855   109521306.292 8
  85341228.659 8        50.400          48.800
  22078701.867                    22078707.859    22078708.031   116024344.194 7
  90408641.252 7        45.800          43.500
  23842067.367                    23842077.168                   125290913.278 6
  97629362.780 7        41.100          42.600
  22788849.680                    22788855.203    22788855.434   119756423.170 7
  93316550.270 7        44.600          43.400
  20237729.641                    20237738.621                   106349982.142 8
  82870195.063 8        51.900          50.900
 14  1 10  0  5 30.0000000  0  8G04G02G14G12G29G24G31G25
  23513184.828                                    23513192.223   123562599.067 6
  96282589.06743        40.200          22.000
  23382984.883                                    23382987.766   122878364.256 7
  95749440.71744        42.800          26.400
  21762737.430                                    21762743.242   114363899.700 7
  89114785.22445        47.000          30.900
  20852091.758                    20852097.398    20852097.160   109578628.884 8
  85385895.610 8        50.200          48.800
  22060688.891                    22060695.703    22060695.582   115929688.537 7
  90334883.610 7        45.200          43.200
  23862504.992                    23862514.617                   125398311.384 6
  97713049.591 7        41.500          42.600
  22772014.250                    22772019.363    22772019.535   119667951.234 7
  93247611.102 7        44.700          43.500
  20233828.805                    20233837.727                   106329482.739 8
  82854221.502 8        52.400          51.000
 14  1 10  0  6  0.0000000  0  8G04G02G14G12G29G24G31G25
  23517927.914                                    23517935.074   123587522.764 6
  96302010.10043        40.700          21.800
  23372996.250                                    23373000.363   122825877.169 7
  95708541.72644        42.500          27.700
  21771903.500                                    21771909.605   114412068.405 7
  89152319.26245        46.300          30.800
  20863065.367                    20863071.477    20863071.297   109636297.637 8
  85430832.288 8        50.300          48.600
  22042741.211                    22042747.730    22042747.727   115835371.344 7
  90261389.713 7        45.800          43.700
  23882971.633                    23882981.199                   125505862.760 6
  97796855.837 7        40.900          42.300
  22755221.875                    22755227.809    22755227.980   119579708.828 7
  93178850.794 7        44.900          43.700
  20230010.898                    20230019.938                   106309420.474 8
  82838588.561 8        51.700          50.900
 14  1 10  0  6 30.0000000  0  8G04G02G14G12G29G24G31G25
  23522789.305                                    23522795.879   123613066.386 6
  96321914.23043        40.400          22.000
  23363089.695                                    23363092.930   122773816.878 7
  95667975.28744        42.900          28.700
  21781173.414                                    21781179.637   114460781.930 7
  89190277.83545        45.800          31.500
  20874105.602                    20874111.008    20874111.063   109694313.183 8
  85476039.208 8        50.600          48.800
  22024858.148                    22024865.078    22024864.898   115741396.700 7
  90188162.721 7        46.000          43.800
  23903466.234                    23903476.445                   125613566.976 6
  97880781.178 7        40.800          42.600
  22738474.102                    22738479.566    22738479.621   119491699.523 7
  93110272.111 7        45.200          43.800
  20226276.695                    20226285.910                   106289797.018 8
  82823297.557 8        52.300          51.000
 14  1 10  0  7  0.0000000  0  8G04G02G14G12G29G24G31G25
  23527767.195                                    23527774.004   123639227.888 6
  96342299.81843        39.800          21.800
  23353264.430                                    23353267.898   122722184.660 7
  95627742.39444        42.700          27.000
  21790545.992                                    21790552.625   114510037.545 7
  89228658.81345        46.300          30.200
  20885210.820                    20885216.813    20885216.633   109752672.500 8
  85521513.995 8        50.200          48.800
  22007040.859                    22007047.203    22007047.199   115647765.102 7
  90115203.058 7        45.100          43.300
  23923990.352                    23923999.977                   125721421.378 6
  97964823.546 7        40.500          42.200
  22721771.188                    22721776.652    22721776.648   119403924.010 7
  93041875.615 7        45.300          44.000
  20222625.680                    20222634.777                   106270611.384 8
  82808347.713 8        52.200          51.300
 14  1 10  0  7 30.0000000  0  8G04G02G14G12G29G24G31G25
  23532863.188                                    23532870.172   123666006.991 6
  96363166.63343        40.600          21.100
  23343521.055                                    23343524.523   122670983.003 7
  95587845.02944        42.100          26.900
  21800022.219                                    21800028.266   114559834.076 7
  89267461.29645        46.500          30.100
  20896381.414                    20896387.113    20896387.168   109811374.596 8
  85567255.885 8        50.400          49.300
  21989289.000                    21989295.578    21989295.633   115554479.400 7
  90042512.915 7        46.000          43.900
  23944543.070                    23944553.047                   125829424.678 6
  98048981.942 7        40.800          42.000
  22705112.898                    22705118.598    22705118.652   119316384.860 7
  92973663.297 7        44.700          44.000
  20219058.594                    20219067.809                   106251864.328 8
  82793739.621 8        51.900          51.400
 14  1 10  0  8  0.0000000  0  8G04G02G14G12G29G24G31G25
  23538076.773                                    23538083.523   123693402.500 6
  96384513.78543        41.300          21.500
  23333859.734                                    23333863.203   122620213.577 7
  95548284.46044        43.300          26.800
  21809601.336                                    21809606.563   114610169.264 7
  89306683.50445        45.700          31.900
  20907617.164                    20907623.156    20907623.152   109870418.699 8
  85613264.269 8        50.300          48.600
  21971603.430                    21971610.359    21971610.238   115461541.598 7
  89970093.856 7        46.000          44.500
  23965123.445                    23965133.715                   125937574.977 6
  98133254.881 7        40.800          42.100
  22688499.961                    22688505.602    22688505.598   119229083.661 7
  92905636.395 7        44.500          43.700
  20215574.305                    20215583.578                   106233555.572 8
  82779473.052 8        52.200          50.900
 14  1 10  0  8 30.0000000  0  8G04G02G14G12G29G24G31G25
  23543406.914                                    23543413.020   123721412.840 7
  96406340.02443        42.100          21.700
  23324281.859                                    23324284.801   122569877.641 7
  95509061.66344        42.700          26.800
  21819281.688                                    21819287.090   114661040.764 7
  89346323.61945        45.900          31.400
  20918917.477                    20918923.410    20918923.406   109929802.442 8
  85659537.314 8        50.000          48.400
  21953985.063                    21953991.465    21953991.227   115368953.383 7
  89897947.205 7        45.800          43.700
  23985731.703                    23985741.211                   126045870.133 6
  98217640.690 7        39.900          42.000
  22671932.445                    22671938.203    22671938.258   119142021.719 7
  92837795.927 7        44.600          44.600
  20212173.695                    20212182.676                   106215684.645 8
  82765547.651 8        51.700          50.400
 14  1 10  0  9  0.0000000  0  8G04G02G14G12G29G24G31G25
  23548854.773                                    23548860.996   123750040.205 7
  96428647.06343        42.400          21.700
  23314786.266                                    23314789.207   122519980.286 7
  95470180.63144        44.100          27.600
  21829064.242                                    21829070.113   114712449.923 7
  89386382.69545        46.500          30.200
  20930282.852                    20930288.199    20930288.254   109989527.307 8
  85706076.164 8        50.300          48.800
  21936433.555                    21936440.133    21936439.953   115276719.699 7
  89826076.818 7        45.900          44.100
  24006367.273                    24006376.430                   126154311.818 6
  98302140.681 7        40.600          42.000
  22655411.641                    22655417.633    22655417.453   119055204.335 7
  92770146.017 7        44.400          44.300
  20208856.992                    20208865.797                   106198254.812 8
  82751965.959 8        52.200          51.000
 14  1 10  0  9 30.0000000  0  8G04G02G14G12G29G24G31G25
  23554418.984                                    23554425.441   123779281.616 7
  96451432.58243        42.000          22.300
  23305374.914                                    23305378.031   122470521.346 7
  95431641.21844        43.900          26.900
  21838948.539                                    21838954.586   114764392.571 7
  89426857.46945        46.100          31.500
  20941712.422                    20941718.238    20941718.059   110049589.606 8
  85752877.957 8        50.200          48.100
  21918949.195                    21918955.246    21918955.770   115184840.484 7
  89754482.638 7        46.100          43.700
  24027029.703                    24027039.680                   126262895.714 6
  98386751.484 6        40.900          41.600
  22638937.609                    22638943.191    22638943.012   118968630.873 7
  92702686.185 7        44.400          44.300
  20205623.563                    20205632.660                   106181264.012 8
  82738726.374 8        52.600          50.900
 14  1 10  0 10  0.0000000  0  8G04G02G14G12G29G24G31G25
  23560099.461                                    23560106.094   123809134.926 7
  96474694.89843        42.200          22.000
  23296046.750                                    23296049.457   122421501.584 7
  95393444.02944        43.000          28.900
  21848933.633                                    21848939.973   114816866.132 7
  89467745.94645        46.500          31.300
  20953205.805                    20953211.445    20953211.383   110109987.301 8
  85799941.087 7        50.600          47.800
  21901532.727                    21901539.246    21901539.242   115093317.051 7
  89683165.689 7        46.000          43.900
  24047719.125                    24047729.219                   126371619.360 6
  98471471.166 6        40.900          41.500
  22622509.297                    22622515.523    22622515.578   118882302.279 7
  92635417.162 7        44.300          44.700
  20202473.758                    20202482.621                   106164711.353 8
  82725828.197 8        51.900          50.700
 14  1 10  0 10 30.0000000  0  8G04G02G14G12G29G24G31G25
  23565897.500                                    23565904.016   123839601.035 6
  96498434.75043        40.600          20.900
  23286802.305                                    23286805.832   122372925.007 7
  95355592.18744        43.500          27.800
  21859019.977                                    21859025.965   114869870.568 7
  89509048.08945        46.000          31.300
  20964763.117                    20964768.816    20964768.520   110170721.225 8
  85847266.224 7        50.300          47.800
  21884185.789                    21884191.430    21884191.484   115002153.720 7
  89612129.345 7        45.400          43.800
  24068435.750                    24068445.023                   126480483.284 6
  98556300.148 6        40.900          41.100
  22606129.508                    22606135.207    22606134.910   118796222.639 7
  92568342.119 7        44.200          44.600
  20199408.164                    20199416.676                   106148598.878 8
  82713273.022 8        52.700          50.800
 14  1 10  0 11  0.0000000  0  8G04G02G14G12G29G24G31G25
  23571810.781                                    23571817.238   123870677.809 6
  96522650.39943        40.600          20.600
  23277643.695                                    23277646.930   122324792.380 7
  95318086.26444        43.700          28.400
  21869207.461                                    21869213.508   114923402.587 7
  89550761.34045        45.800          31.400
  20976383.961                    20976389.543    20976389.363   110231788.191 8
  85894850.864 8        50.800          48.400
  21866906.133                    21866912.887    21866912.590   114911351.082 7
  89541374.051 7        46.100          44.300
  24089178.000                    24089187.742                   126589484.323 6
  98641235.955 6        40.600          41.000
  22589796.813                    22589802.570    22589802.273   118710392.766 7
  92501461.700 7        45.400          44.000
  20196425.039                    20196434.254                   106132925.439 8
  82701059.956 8        52.000          50.900
 14  1 10  0 11 30.0000000  0  8G04G02G14G12G29G24G31G25
  23577840.609                                    23577847.770   123902365.178 6
  96547341.85443        40.200          21.100
  23268569.070                                    23268572.305   122277106.724 7
  95280928.63444        43.700          28.600
  21879494.234                                    21879500.164   114977461.287 7
  89592884.99445        45.600          31.200
  20988067.984                    20988073.273    20988073.152   110293188.123 8
  85942694.962 8        51.200          48.300
  21849696.258                    21849702.836    21849702.891   114820912.314 7
  89470902.296 7        46.800          44.500
  24109945.984                    24109955.551                   126698621.472 6
  98726277.795 6        39.700          41.600
  22573511.602                    22573516.656    22573516.770   118624815.481 7
  92434778.107 7        43.900          43.800
  20193526.508                    20193535.723                   106117692.187 8
  82689189.890 8        52.200          51.100
 14  1 10  0 12  0.0000000  0  8G04G02G14G12G29G24G31G25
  23583985.320                                    23583994.121   123934660.689 6
  96572507.16743        38.700          19.600
  23259579.984                                    23259583.160   122229868.106 7
  95244119.33944        43.900          28.600
  21889880.219                                    21889886.793   115032043.540 7
  89635416.61245        46.800          30.700
  20999814.594                    20999820.293    20999819.996   110354918.070 8
  85990796.215 8        50.100          48.400
  21832555.078                    21832561.598    21832561.652   114730838.035 7
  89400714.557 7        46.300          44.400
  24130739.813                    24130749.555                   126807892.398 6
  98811423.910 6        40.300          41.100
  22557274.969                    22557281.078    22557280.840   118539491.412 7
  92368291.828 7        44.800          44.900
  20190711.281                    20190719.852                   106102897.736 8
  82677661.754 8        51.500          50.600
 14  1 10  0 12 30.0000000  0  8G04G02G14G12G29G24G31G25
  23590246.797                                    23590254.660   123967563.143 6
  96598145.44543        38.600          19.300
  23250676.508                                    23250679.449   122183078.622 7
  95207660.03544        43.100          29.500
  21900367.047                                    21900372.566   115087147.411 7
  89678354.68545        46.400          30.900
  21011624.164                    21011629.395    21011629.332   110416976.684 8
  86039153.575 8        50.000          48.200
  21815484.688                    21815491.266    21815491.027   114641130.262 7
  89330812.408 7        46.300          44.100
  24151558.375                    24151568.176                   126917294.874 6
  98896672.514 6        40.200          40.900
  22541086.555                    22541092.781    22541092.777   118454422.347 7
  92302004.249 7        44.300          45.000
  20187979.422                    20187988.285                   106088542.042 8
  82666475.495 8        51.100          50.800
 14  1 10  0 13  0.0000000  0  8G04G02G14G12G29G24G31G25
  23596623.898                                    23596631.117   124001072.828 6
  96624256.86843        38.100          19.900
  23241858.445                                    23241861.563   122136741.238 7
  95171553.00444        43.200          28.800
  21910951.992                                    21910958.215   115142772.214 7
  89721698.66845        46.300          30.700
  21023495.930                    21023501.512    21023501.391   110479364.090 8
  86087767.129 8        49.800          48.300
  21798483.969                    21798490.313    21798490.426   114551792.874 7
  89261198.868 7        46.200          44.300
  24172402.359                    24172411.516                   127026828.729 6
  98982023.489 6        39.500          40.500
  22524948.367                    22524953.891    22524953.887   118369611.922 7
  92235918.210 7        45.000          43.900
  20185331.211                    20185340.191                   106074626.880 8
  82655632.515 8        51.100          50.300
 14  1 10  0 13 30.0000000  0  8G04G02G14G12G29G24G31G25
  23603116.109                                    23603123.270   124035189.291 6
  96650841.10743        39.700          20.400
  23233127.102                                    23233130.219   122090858.741 7
  95135800.42444        44.100          28.800
  21921635.836                                    21921641.473   115198916.625 7
  89765447.55945        46.200          31.100
  21035429.883                    21035435.230    21035435.109   110542079.661 8
  86136636.406 7        50.300          47.800
  21781555.023                    21781561.133    21781561.129   114462828.492 7
  89191875.985 7        47.100          45.000
  24193270.570                    24193280.723                   127136492.935 6
  99067475.986 6        39.400          40.400
  22508858.641                    22508864.516    22508864.629   118285062.469 7
  92170035.528 7        44.300          44.300
  20182767.383                    20182776.246                   106061152.756 8
  82645133.202 8        51.700          51.400
 14  1 10  0 14  0.0000000  0  8G04G02G14G12G29G24G31G25
  23609723.141                                    23609730.535   124069909.098 6
  96677895.48143        39.400          21.100
  23224482.328                                    23224485.914   122045430.502 7
  95100401.81844        43.600          29.800
  21932417.984                                    21932423.680   115255576.362 7
  89809597.98745        45.100          31.100
  21047426.180                    21047431.820    21047431.758   110605119.501 8
  86185758.357 8        49.500          48.100
  21764696.547                    21764703.066    21764703.004   114374236.740 7
  89122843.465 7        46.600          44.000
  24214163.094                    24214172.660                   127246284.029 6
  99153027.340 6        38.100          41.000
  22492819.266                    22492825.375    22492825.371   118200773.822 7
  92104356.070 7        44.300          44.300
  20180286.523                    20180296.207                   106048117.403 8
  82634975.778 8        51.300          51.200
 14  1 10  0 14 30.0000000  0  8G04G02G14G12G29G24G31G25
  23616445.352                                    23616452.160   124105231.970 6
  96705419.81543        39.600          21.500
  23215924.469                                    23215928.230   122000459.701 7
  95065359.64945        43.500          30.200
  21943297.563                                    21943303.961   115312750.438 7
  89854149.19645        45.700          30.400
  21059483.563                    21059489.789    21059489.668   110668483.336 8
  86235132.765 7        50.300          47.500
  21747909.602                    21747916.121    21747915.824   114286021.058 7
  89054103.981 7        46.600          44.500
  24235080.469                    24235089.684                   127356200.951 6
  99238676.769 6        38.300          40.100
  22476829.070                    22476835.238    22476835.059   118116748.975 7
  92038882.160 7        44.400          44.700
  20177889.820                    20177898.977                   106035522.035 8
  82625161.209 8        51.400          51.200
 14  1 10  0 15  0.0000000  0  8G04G02G14G12G29G24G31G25
  23623282.109                                    23623288.508   124141157.821 6
  96733413.98543        40.200          20.400
  23207454.359                                    23207458.004   121955949.007 7
  95030676.01445        44.100          30.000
  21954275.203                                    21954280.957   115370437.924 7
  89899100.47545        45.900          30.800
  21071603.250                    21071608.715    21071608.418   110732170.621 8
  86284759.225 7        49.300          47.800
  21731195.070                    21731201.004    21731201.059   114198184.072 7
  88985659.590 7        46.500          44.600
  24256019.945                    24256030.391                   127466242.879 6
  99324423.629 6        37.900          40.600
  22460890.914                    22460896.906    22460896.844   118032990.874 7
  91973616.113 7        43.900          44.300
  20175577.211                    20175586.191                   106023367.577 8
  82615690.199 8        52.100          51.600
 14  1 10  0 15 30.0000000  0  8G04G02G14G12G29G24G31G25
  23630232.773                                    23630238.938   124177683.686 6
  96761875.68843        40.000          21.300
  23199071.359                                    23199075.531   121911898.452 7
  94996350.92044        45.000          29.400
  21965350.336                                    21965355.914   115428635.147 7
  89944448.95445        45.800          30.200
  21083783.320                    21083789.137    21083789.133   110796178.497 8
  86334635.489 7        49.300          47.700
  21714552.297                    21714558.875    21714558.930   114110726.507 7
  88917510.840 7        47.700          44.800
  24276983.164                    24276994.078                   127576406.964 6
  99410265.659 6        37.400          40.200
  22445003.547                    22445009.422    22445009.242   117949500.165 7
  91908558.422 7        45.000          43.800
  20173347.648                    20173356.629                   106011652.598 8
  82606561.642 8        52.300          51.800
 14  1 10  0 16  0.0000000  0  8G04G02G14G12G29G24G31G25
  23637297.984                                    23637303.563   124214809.710 6
  96790805.03943        40.100          20.900
  23190777.688                                    23190781.332   121868311.179 7
  94962386.82645        43.900          30.000
  21976521.344                                    21976527.918   115487341.396 7
  89990194.06244        45.500          29.100
  21096024.750                    21096030.742    21096030.563   110860507.384 8
  86384761.890 8        49.100          48.200
  21697982.164                    21697988.215    21697988.387   114023651.808 7
  88849660.439 7        46.300          44.500
  24297970.648                    24297980.332                   127686692.915 6
  99496202.669 6        38.100          39.900
  22429167.047                    22429171.984    22429171.980   117866280.024 7
  91843711.562 7        43.700          44.100
  20171202.266                    20171210.895                   106000378.490 8
  82597776.617 8        52.100          51.800
 14  1 10  0 16 30.0000000  0  8G04G02G14G12G29G24G31G25
  23644476.344                                    23644482.391   124252534.573 6
  96820201.06743        41.100          21.500
  23182571.492                                    23182575.547   121825188.704 7
  94928784.91345        42.500          30.200
  21987789.078                                    21987795.125   115546554.230 7
  90036333.92245        45.800          30.000
  21108326.719                    21108332.711    21108332.766   110925155.305 8
  86435136.897 7        50.200          47.800
  21681485.484                    21681492.121    21681492.352   113936961.583 7
  88782109.621 7        47.600          44.600
  24318980.227                    24318990.262                   127797098.625 6
  99582233.016 6        38.300          40.000
  22413382.570                    22413388.270    22413388.090   117783331.941 7
  91779076.696 7        45.200          44.700
  20169140.898                    20169149.527                   105989544.882 8
  82589334.840 8        51.400          51.600
 14  1 10  0 17  0.0000000  0  8G04G02G14G12G29G24G31G25
  23651768.383                                    23651774.781   124290855.673 7
  96850061.65043        42.000          20.400
  23174454.523                                    23174457.758   121782531.832 7
  94895545.80444        43.800          29.800
  21999152.758                                    21999158.922   115606270.677 7
  90082866.20144        45.600          29.800
  21120689.164                    21120694.863    21120694.625   110990119.424 8
  86485758.285 8        49.800          48.200
  21665062.117                    21665068.813    21665068.926   113850656.959 7
  88714859.279 7        47.900          44.500
  24340011.391                    24340022.480                   127907621.112 6
  99668354.336 6        37.900          40.000
  22397649.313                    22397655.773    22397655.652   117700657.186 7
  91714654.812 7        45.200          44.500
  20167163.000                    20167171.512                   105979150.858 8
  82581235.601 8        51.900          51.200
 14  1 10  0 17 30.0000000  0  8G04G02G14G12G29G24G31G25
  23659174.102                                    23659180.148   124329772.834 6
  96880386.73143        41.400          20.100
  23166426.008                                    23166430.121   121740343.498 7
  94862671.79744        44.200          29.400
  22010612.055                                    22010618.453   115666489.822 7
  90129790.19045        45.700          30.100
  21133111.906                    21133117.723    21133117.602   111055400.403 8
  86536626.583 7        50.000          47.700
  21648713.148                    21648719.551    21648719.430   113764741.079 7
  88647911.846 7        47.200          44.200
  24361065.961                    24361075.703                   128018260.230 6
  99754566.583 6        37.700          39.200
  22381970.242                    22381976.117    22381975.938   117618259.035 7
  91650448.463 7        45.200          43.800
  20165268.922                    20165277.258                   105969197.647 8
  82573479.850 8        51.900          50.800
 14  1 10  0 18  0.0000000  0  8G04G02G14G12G29G24G31G25
  23666693.023                                    23666698.660   124369283.935 6
  96911174.59043        41.100          19.600
  23158487.508                                    23158490.742   121698624.337 7
  94830163.37344        43.300          29.900
  22022166.273                                    22022172.496   115727208.219 7
  90177103.21245        45.600          30.200
  21145594.094                    21145600.203    21145600.141   111120995.499 8
  86587739.634 7        50.100          47.800
  21632438.055                    21632444.691    21632444.688   113679214.910 7
  88581268.084 7        47.800          44.600
  24382141.680                    24382151.949                   128129013.382 6
  99840867.625 6        37.600          38.100
  22366342.891                    22366349.117    22366348.996   117536138.281 7
  91586458.266 7        45.100          43.700
  20163458.336                    20163467.551                   105959684.085 8
  82566066.684 8        51.500          50.300
 14  1 10  0 18 30.0000000  0  8G04G02G14G12G29G24G31G25
  23674323.898                                    23674330.883   124409388.266 6
  96942424.72043        40.600          20.100
  23150638.539                                    23150641.656   121657376.888 7
  94798022.52045        42.500          30.200
  22033815.719                                    22033821.414   115788424.759 7
  90224804.38144        45.500          29.800
  21158136.336                    21158141.449    21158141.270   111186903.853 8
  86639096.789 7        50.200          47.000
  21616237.594                    21616244.348    21616244.168   113594081.274 8
  88514930.208 7        48.300          45.000
  24403238.180                    24403248.508                   128239879.177 6
  99927256.420 6        37.500          38.700
  22350769.664                    22350775.305    22350775.242   117454297.691 7
  91522686.382 7        45.400          44.700
  20161731.844                    20161740.648                   105950611.144 8
  82558996.858 8        51.500          51.200
 14  1 10  0 19  0.0000000  0  8G04G02G14G12G29G24G31G25
  23682067.016                                    23682075.055   124450084.188 6
  96974135.83543        40.400          18.600
  23142878.719                                    23142883.125   121616602.314 7
  94766250.13944        43.200          29.600
  22045559.695                                    22045564.922   115850137.248 7
  90272892.02245        45.000          30.400
  21170737.195                    21170743.480    21170743.301   111253123.796 8
  86690696.743 7        49.700          47.600
  21600111.992                    21600118.980    21600118.625   113509341.987 8
  88448899.599 7        48.100          44.800
  24424356.680                    24424367.594                   128350856.043 6
 100013731.782 6        37.400          38.700
  22335249.508                    22335254.914    22335254.852   117372739.345 7
  91459134.425 7        45.400          44.200
  20160089.070                    20160097.992                   105941978.501 8
  82552270.129 8        51.000          50.700
 14  1 10  0 19 30.0000000  0  8G04G02G14G12G29G24G31G25
  23689923.867                                    23689931.672   124491370.943 6
  97006307.34343        38.900          18.300
  23135210.039                                    23135213.684   121576303.206 7
  94734848.26044        43.900          29.600
  22057396.781                                    22057402.770   115912344.031 7
  90321364.81344        44.700          29.800
  21183397.820                    21183403.637    21183403.398   111319655.327 8
  86742539.487 7        49.500          47.500
  21584062.180                    21584069.051    21584069.223   113424999.854 7
  88383178.465 7        46.800          44.800
  24445496.555                    24445506.648                   128461943.156 5
 100100293.032 6        35.800          38.700
  22319783.063                    22319788.703    22319788.875   117291465.426 7
  91395804.098 7        44.300          43.700
  20158530.047                    20158538.559                   105933786.773 8
  82545886.961 8        51.500          50.900
 14  1 10  0 20  0.0000000  0  8G04G02G14G12G29G24G31G25
  23697893.359                                    23697900.578   124533247.045 6
  97038938.01943        38.800          19.300
  23127632.125                                    23127636.414   121536481.358 7
  94703818.25644        45.200          29.300
  22069328.008                                    22069333.820   115975042.813 7
  90370220.98545        46.000          30.200
  21196117.844                    21196123.426    21196123.188   111386496.858 8
  86794623.798 7        50.200          47.400
  21568088.688                    21568095.090    21568094.734   113341056.954 8
  88317768.428 7        48.100          45.700
  24466656.391                    24466666.543                   128573138.633 5
 100186938.709 6        35.900          38.400
  22304372.008                    22304377.297    22304377.645   117210478.445 7
  91332697.361 7        45.800          44.400
  20157055.453                    20157064.727                   105926036.108 8
  82539847.487 8        51.600          51.000
 14  1 10  0 20 30.0000000  0  8G04G02G14G12G29G24G31G25
  23705974.313                                    23705981.180   124575709.954 6
  97072026.02543        39.000          19.000
  23120145.625                                    23120149.328   121497136.962 7
  94673160.29645        43.800          30.000
  22081352.055                                    22081358.277   116038230.496 7
  90419458.11644        46.000          29.000
  21208895.250                    21208900.949    21208900.828   111453645.415 8
  86846947.341 7        50.700          47.400
  21552190.961                    21552197.656    21552197.828   113257513.710 8
  88252669.804 7        48.200          45.300
  24487836.234                    24487846.387                   128684439.448 5
 100273666.446 6        35.100          37.900
  22289015.203                    22289021.078    22289020.898   117129778.549 7
  91269814.333 7        45.800          44.200
  20155664.086                    20155672.891                   105918725.064 8
  82534150.571 8        51.900          51.100
 14  1 10  0 21  0.0000000  0  8G04G02G14G12G29G24G31G25
  23714166.219                                    23714173.555   124618759.149 6
  97105570.82943        39.600          19.600
  23112749.500                                    23112753.496   121458272.681 7
  94642876.45644        42.000          29.700
  22093469.133                                    22093474.711   116101905.462 7
  90469074.96244        45.600          28.900
  21221731.133                    21221737.359    21221737.355   111521100.724 8
  86899509.919 7        50.300          47.300
  21536369.805                    21536376.090    21536375.793   113174373.031 8
  88187884.870 7        48.000          45.600
  24509035.406                    24509046.027                   128795845.225 5
 100360476.067 6        35.900          37.300
  22273714.180                    22273719.645    22273719.816   117049369.281 7
  91207157.763 7        45.700          44.000
  20154356.953                    20154365.699                   105911854.679 8
  82528797.025 8        51.100          51.500
 14  1 10  0 21 30.0000000  0  8G04G02G14G12G29G24G31G25
  23722469.109                                    23722476.445   124662391.368 6
  97139569.93543        39.900          19.600
  23105445.445                                    23105449.617   121419888.436 7
  94612966.67844        43.200          29.800
  22105678.445                                    22105684.258   116166063.611 7
  90519068.30644        44.900          28.700
  21234625.641                    21234631.516    21234631.219   111588859.980 8
  86952309.336 7        50.700          47.000
  21520625.641                    21520631.457    21520631.512   113091635.587 8
  88123414.157 7        48.100          45.600
  24530255.648                    24530265.332                   128907352.319 5
 100447364.620 6        35.200          37.200
  22258468.117                    22258473.348    22258473.344   116969251.189 7
  91144728.078 7        45.700          43.900
  20153132.875                    20153142.031                   105905423.258 8
  82523785.527 8        51.500          51.200
 14  1 10  0 22  0.0000000  0  8G04G02G14G12G29G24G31G25
  23730883.117                                    23730890.453   124706606.719 6
  97174023.45443        40.400          20.900
  23098233.063                                    23098237.176   121381987.554 7
  94583433.52445        43.900          30.200
  22117979.047                                    22117985.270   116230704.740 7
  90569438.00044        45.600          29.300
  21247578.180                    21247584.289    21247583.992   111656923.599 8
  87005345.922 7        50.400          47.000
  21504958.461                    21504964.980    21504964.859   113009304.595 7
  88059260.150 7        47.900          45.400
  24551492.578                    24551503.902                   129018961.161 5
 100534332.445 6        35.000          37.000
  22243278.242                    22243283.824    22243283.645   116889427.366 7
  91082527.696 7        44.800          44.300
  20151992.367                    20152002.227                   105899432.315 8
  82519117.257 8        51.600          50.600
 14  1 10  0 22 30.0000000  0  8G04G02G14G12G29G24G31G25
  23739407.922                                    23739414.262   124751403.511 6
  97208930.03043        41.300          20.900
  23091113.172                                    23091116.582   121344570.981 7
  94554277.77945        42.100          31.500
  22130371.609                                    22130376.895   116295826.147 7
  90620181.93644        43.600          29.800
  21260587.008                    21260593.410    21260593.172   111725289.392 8
  87058617.965 7        49.400          47.000
  21489368.695                    21489375.332    21489375.328   112927381.962 7
  87995424.345 7        46.500          45.400
  24572751.555                    24572761.355                   129130669.384 5
 100621377.718 6        35.300          36.700
  22228144.266                    22228150.141    22228149.961   116809899.691 7
  91020558.086 7        44.300          43.900
  20150936.766                    20150945.688                   105893881.644 8
  82514792.053 8        51.500          50.900
 14  1 10  0 23  0.0000000  0  8G04G02G14G12G29G24G31G25
  23748043.102                                    23748049.969   124796781.318 6
  97244289.37943        41.700          19.900
  23084085.664                                    23084089.836   121307642.071 7
  94525502.01345        44.300          30.700
  22142854.398                                    22142860.563   116361427.156 7
  90671299.59444        43.300          28.700
  21273654.438                    21273660.313    21273660.309   111793958.074 8
  87112126.026 7        49.100          47.600
  21473857.953                    21473864.766    21473864.586   112845870.781 8
  87931909.153 7        48.500          45.800
  24594026.227                    24594037.316                   129242476.570 5
 100708500.127 6        34.900          37.300
  22213068.055                    22213073.344    22213073.164   116730671.785 7
  90958822.056 7        46.300          44.100
  20149964.656                    20149973.637                   105888772.515 8
  82510810.913 8        52.100          51.200
 14  1 10  0 23 30.0000000  0  8G04G02G14G12G29G24G31G25
  23756787.852                                    23756794.016   124842735.603 6
  97280097.90143        41.200          20.100
  23077150.945                                    23077154.590   121271199.250 7
  94497105.01545        44.200          30.800
  22155427.938                                    22155433.750   116427502.260 7
  90722786.67444        42.500          28.900
  21286778.406                    21286784.281    21286784.102   111862924.793 8
  87165866.324 7        49.000          47.200
  21458424.008                    21458431.230    21458431.168   112764770.151 8
  87868713.870 7        48.000          46.000
  24615321.391                    24615331.953                   129354378.578 5
 100795696.405 6        34.900          36.900
  22198048.984                    22198054.332    22198054.035   116651742.514 7
  90897318.740 7        46.600          44.100
  20149075.148                    20149084.656                   105884101.855 8
  82507171.434 8        51.900          51.400
 14  1 10  0 24  0.0000000  0  8G04G02G14G12G29G24G31G25
  23765641.641                                    23765648.801   124889266.685 6
  97316355.89243        40.600          19.600
  23070309.352                                    23070312.820   121235245.766 7
  94469089.33245        43.400          30.700
  22168092.102                                    22168097.855   116494050.764 7
  90774642.64144        45.700          28.300
  21299959.055                    21299965.457    21299965.277   111932189.811 8
  87219839.064 7        49.800          47.000
  21443070.820                    21443077.633    21443077.277   112684083.587 8
  87805841.235 7        48.400          45.400
  24636633.844                    24636643.879                   129466374.940 5
 100882966.197 6        35.100          36.300
  22183086.000                    22183091.758    22183091.461   116573115.639 7
  90836051.052 7        45.400          43.900
  20148270.523                    20148279.680                   105879871.174 8
  82503874.793 8        51.400          51.000
 14  1 10  0 24 30.0000000  0  8G04G02G14G12G29G24G31G25
  23774606.391                                    23774613.141   124936372.036 6
  97353061.35943        40.800          19.900
  23063560.344                                    23063563.930   121199782.295 7
  94441455.46645        43.900          30.800
  22180845.367                                    22180851.590   116561070.061 7
  90826865.45044        45.100          28.600
  21313196.555                    21313202.313    21313202.191   112001751.521 8
  87274042.992 7        49.800          47.400
  21427795.555                    21427802.074    21427802.188   112603812.367 8
  87743292.256 7        48.500          45.700
  24657963.680                    24657973.891                   129578463.761 5
 100970308.012 6        35.400          36.300
  22168182.063                    22168187.410    22168187.348   116494792.808 7
  90775020.274 7        46.300          43.800
  20147549.117                    20147557.922                   105876080.019 8
  82500920.640 8        51.900          51.500
 14  1 10  0 25  0.0000000  0  8G04G02G14G12G29G24G31G25
  23783679.125                                    23783685.465   124984051.944 6
  97390214.54143        40.400          18.600
  23056906.039                                    23056909.977   121164812.293 7
  94414206.12045        43.900          30.200
  22193688.023                                    22193693.660   116628559.449 7
  90879454.57744        44.200          28.300
  21326490.078                    21326495.895    21326495.773   112071610.221 8
  87328478.335 7        49.500          47.500
  21412600.188                    21412606.707    21412606.820   112523960.160 7
  87681069.768 7        47.500          46.000
  24679312.164                    24679321.906                   129690644.965 5
 101057721.808 6        35.400          36.100
  22153335.953                    22153341.887    22153341.766   116416777.544 7
  90714229.164 7        45.200          44.200
  20146911.766                    20146920.453                   105872729.912 8
  82498310.164 8        51.900          51.100
 14  1 10  0 25 30.0000000  0  8G04G02G14G12G29G24G31G25
  23792861.297                                    23792867.930   125032303.938 6
  97427813.49243        40.200          19.000
  23050345.008                                    23050349.063   121130336.166 7
  94387341.62444        44.200          29.700
  22206620.219                                    22206625.621   116696515.809 6
  90932407.56544        41.600          28.900
  21339840.313                    21339845.953    21339845.773   112141763.679 8
  87383143.361 7        48.700          47.000
  21397485.250                    21397491.887    21397491.707   112444528.026 8
  87619174.608 7        48.300          45.900
  24700675.391                    24700686.422                   129802915.798 5
 101145205.462 6        35.400          36.400
  22138549.094                    22138554.441    22138554.438   116339070.930 7
  90653678.557 7        46.600          44.000
  20146357.773                    20146366.402                   105869819.831 8
  82496042.565 8        51.600          51.200
 14  1 10  0 26  0.0000000  0  8G04G02G14G12G29G24G31G25
  23802151.313                                    23802158.297   125081124.250 6
  97465855.27542        39.400          17.800
  23043878.695                                    23043882.574   121096353.688 7
  94360861.77244        44.800          29.600
  22219639.625                                    22219645.320   116764934.617 7
  90985720.92144        44.600          28.600
  21353244.914                    21353250.672    21353250.258   112212208.344 8
  87438035.297 7        49.700          47.100
  21382449.055                    21382456.160    21382455.980   112365515.986 8
  87557606.801 7        48.300          45.400
  24722056.422                    24722066.867                   129915272.996 5
 101232756.421 6        34.800          36.000
  22123820.227                    22123826.277    22123826.273   116261673.138 7
  90593368.589 7        47.200          43.700
  20145887.375                    20145896.297                   105867347.880 8
  82494116.369 8        51.300          51.300
 14  1 10  0 26 30.0000000  0  8G04G02G14G12G29G24G31G25
  23811550.078                                    23811556.594   125130514.890 6
  97504341.48642        39.900          17.400
  23037507.219                                    23037510.277   121062869.753 7
  94334770.40244        45.000          29.200
  22232746.938                                    22232753.160   116833817.186 7
  91039395.63744        44.800          27.000
  21366706.258                    21366712.074    21366712.012   112282947.300 8
  87493156.561 7        49.600          47.500
  21367494.984                    21367501.152    21367501.324   112286929.428 8
  87496370.534 7        48.700          45.700
  24743454.258                    24743464.234                   130027718.106 5
 101320375.895 5        34.900          35.300
  22109152.125                    22109157.941    22109157.645   116184590.006 7
  90533303.820 7        46.300          43.400
  20145501.156                    20145510.254                   105865317.655 8
  82492534.379 8        52.300          51.200
 14  1 10  0 27  0.0000000  0  8G04G02G14G12G29G24G31G25
  23821055.938                                    23821062.863   125180470.168 6
  97543267.62342        38.700          16.900
  23031229.758                                    23031233.227   121029882.018 7
  94309065.69945        43.900          30.100
  22245942.211                                    22245948.199   116903157.203 7
  91093426.81244        42.100          26.600
  21380222.102                    21380227.918    21380227.855   112353974.469 8
  87548502.400 7        48.700          47.500
  21352620.508                    21352627.203    21352626.965   112208766.156 8
  87435464.089 7        48.400          46.300
  24764867.516                    24764878.664                   130140246.051 5
 101408059.895 5        35.200          35.900
  22094543.188                    22094548.535    22094548.531   116107819.530 7
  90473482.662 7        47.800          43.900
  20145198.094                    20145207.074                   105863725.001 8
  82491293.348 8        52.200          51.700
 14  1 10  0 27 30.0000000  0  8G04G02G14G12G29G24G31G25
  23830669.039                                    23830676.727   125230990.104 6
  97582633.85242        38.600          16.300
  23025046.906                                    23025050.609   120997393.229 7
  94283749.76345        43.600          30.300
  22259224.352                                    22259230.340   116972953.995 7
  91147813.92844        43.400          26.800
  21393793.531                    21393798.938    21393798.816   112425290.613 8
  87604073.415 7        49.800          47.300
  21337828.016                    21337834.242    21337833.945   112131029.769 8
  87374890.296 7        48.700          45.800
  24786296.797                    24786307.066                   130252856.552 5
 101495808.234 5        35.400          35.200
  22079994.734                    22079999.789    22079999.551   116031365.398 7
  90413908.019 7        46.800          44.600
  20144978.547                    20144987.176                   105862571.414 8
  82490394.451 8        52.000          51.200
 14  1 10  0 28  0.0000000  0  8G04G02G14G12G29G24G31G25
  23840390.930                                    23840397.797   125282074.780 6
  97622440.03942        39.200          16.900
  23018960.148                                    23018964.027   120965407.459 7
  94258825.80544        44.700          29.800
  22272592.680                                    22272598.609   117043206.989 7
  91202556.49744        44.100          26.000
  21407419.422                    21407425.121    21407425.000   112496895.909 8
  87659869.739 7        49.800          46.600
  21323117.461                    21323123.980    21323123.801   112053724.163 8
  87314652.162 7        48.500          45.800
  24807740.906                    24807751.469                   130365549.773 5
 101583621.023 5        34.800          35.200
  22065506.742                    22065511.973    22065511.969   115955231.785 7
  90354583.124 7        46.400          44.100
  20144843.063                    20144851.574                   105861858.956 8
  82489839.289 8        51.700          51.800
 14  1 10  0 28 30.0000000  0  8G04G02G14G12G29G24G31G25
  23850218.102                                    23850225.730   125333719.801 6
  97662682.89442        38.800          17.800
  23012969.039                                    23012972.918   120933922.843 7
  94234292.34945        43.900          31.000
  22286047.531                                    22286053.109   117113911.392 7
  91257650.82444        44.100          26.000
  21421099.727                    21421105.660    21421105.598   112568787.061 8
  87715888.817 7        48.900          46.800
  21308488.242                    21308494.703    21308494.699   111976848.592 7
  87254749.130 7        47.600          45.800
  24829201.266                    24829211.477                   130478321.570 5
 101671495.025 5        34.800          34.500
  22051079.953                    22051085.184    22051085.004   115879418.130 7
  90295507.545 7        45.300          44.300
  20144790.938                    20144799.918                   105861584.777 8
  82489625.650 8        51.700          51.300
 14  1 10  0 29  0.0000000  0  8G04G02G14G12G29G24G31G25
  23860153.109                                    23860159.332   125385924.150 6
  97703361.59842        39.900          17.800
  23007073.602                                    23007076.895   120902941.717 7
  94210151.22845        44.700          30.300
  22299587.898                                    22299593.711   117185065.253 7
  91313095.38144        44.300          26.600
  21434834.422                    21434839.945    21434839.941   112640963.218 8
  87772129.973 7        49.400          46.900
  21293941.758                    21293947.867    21293947.922   111900405.255 8
  87195182.900 7        48.300          46.100
  24850677.258                    24850687.117                   130591170.865 5
 101759429.413 5        34.700          34.900
  22036714.164                    22036719.395    22036719.332   115803926.772 7
  90236683.112 7        47.600          44.200
  20144821.961                    20144830.883                   105861749.392 8
  82489753.918 8        51.500          51.200
 14  1 10  0 29 30.0000000  0  8G04G02G14G12G29G24G31G25
  23870192.813                                    23870200.148   125438685.979 6
  97744474.69343        40.100          19.900
  23001273.711                                    23001277.531   120872464.952 7
  94186403.11144        44.800          29.800
  22313213.336                                    22313219.090   117256666.432 7
  91368888.50744        43.900          27.800
  21448622.359                    21448628.820    21448628.641   112713423.066 8
  87828592.184 7        48.800          47.000
  21279477.328                    21279484.492    21279484.313   111824396.208 8
  87135955.078 7        48.200          45.900
  24872165.469                    24872175.504                   130704096.133 5
 101847423.013 5        35.400          35.500
  22022410.406                    22022416.047    22022416.043   115728760.010 7
  90178111.609 7        46.600          44.600
  20144936.484                    20144945.934                   105862352.728 8
  82490224.059 8        52.000          51.600
 14  1 10  0 30  0.0000000  0  8G04G02G14G12G29G24G31G25
  23880338.859                                    23880346.195   125492003.622 6
  97786020.85543        40.400          18.300
  22995570.930                                    22995574.223   120842494.546 7
  94163049.56445        45.100          30.200
  22326922.617                                    22326928.254   117328712.334 7
  91425028.14344        44.200          26.500
  21462465.367                    21462470.832    21462470.887   112786164.918 8
  87885274.145 7        48.500          47.200
  21265096.289                    21265103.395    21265103.332   111748823.437 8
  87077067.218 7        48.500          46.100
  24893668.883                    24893679.211                   130817096.045 5
 101935474.765 5        34.800          35.300
  22008169.055                    22008174.051    22008173.988   115653920.145 7
  90119794.826 7        47.000          44.500
  20145135.453                    20145144.551                   105863394.886 8
  82491036.131 8        52.100          51.300
 14  1 10  0 30 30.0000000  0  8G04G02G14G12G29G24G31G25
  23890591.063                                    23890596.641   125545872.846 6
  97827996.87343        39.900          18.300
  22989963.469                                    22989967.055   120813029.395 7
  94140089.72145        45.100          30.200
  22340716.133                                    22340722.473   117401198.089 7
  91481510.54344        44.000          26.400
  21476360.617                    21476366.492    21476366.254   112859185.402 7
  87942173.215 7        47.900          47.200
  21250798.844                    21250804.602    21250804.480   111673686.371 7
  87018518.869 7        47.500          45.500
  24915185.477                    24915195.688                   130930166.469 5
 102023581.448 5        34.900          35.700
  21993989.539                    21993994.828    21993994.766   115579406.995 7
  90061732.628 7        47.700          43.700
  20145416.445                    20145425.309                   105864873.270 8
  82492188.119 8        52.300          51.000
 14  1 10  0 31  0.0000000  0  8G04G02G14G12G29G24G31G25
  23900946.813                                    23900953.211   125600294.746 6
  97870403.52543        41.300          18.300
  22984453.398                                    22984457.277   120784073.869 7
  94117526.98345        44.500          30.500
  22354594.156                                    22354600.145   117474124.670 7
  91538336.42144        43.200          27.100
  21490309.703                    21490315.285    21490315.223   112932487.027 8
  87999291.357 7        48.500          46.500
  21236584.250                    21236590.594    21236590.531   111598989.894 8
  86960313.828 7        48.400          46.300
  24936716.336                    24936726.254                   131043308.856 5
 102111744.193 5        35.400          35.500
  21979873.336                    21979878.273    21979878.445   115505225.452 7
  90003928.826 7        46.900          44.600
  20145781.383                    20145790.363                   105866790.808 8
  82493682.306 8        51.700          51.400
 14  1 10  0 31 30.0000000  0  8G04G02G14G12G29G24G31G25
  23911407.352                                    23911414.277   125655267.117 6
  97913239.10043        40.900          19.600
  22979041.156                                    22979044.215   120755628.639 7
  94095361.88145        45.200          30.400
  22368555.070                                    22368560.648   117547488.839 7
  91595503.29244        43.700          27.300
  21504311.406                    21504317.867    21504317.512   113006067.478 8
  88056626.764 7        48.600          46.600
  21222453.719                    21222460.531    21222460.234   111524735.117 8
  86902452.976 7        48.300          46.300
  24958259.367                    24958269.813                   131156520.976 5
 102199961.289 5        34.300          35.600
  21965820.328                    21965826.203    21965825.965   115431377.266 7
  89946384.786 7        46.600          44.500
  20146229.719                    20146238.992                   105869146.934 8
  82495518.242 8        51.900          51.100
 14  1 10  0 32  0.0000000  0  8G04G02G14G12G29G24G31G25
  23921972.641                                    23921979.332   125710787.866 6
  97956502.00743        39.900          18.300
  22973725.195                                    22973728.840   120727694.687 7
  94073595.18045        44.500          30.200
  22382598.641                                    22382604.570   117621287.961 7
  91653009.07944        43.300          26.600
  21518366.289                    21518372.574    21518372.395   113079924.757 8
  88114177.887 7        48.500          46.500
  21208407.867                    21208414.855    21208414.969   111450923.675 8
  86844937.580 7        48.400          46.000
  24979815.109                    24979826.375                   131269800.657 5
 102288231.054 5        34.400          35.200
  21951831.445                    21951837.496    21951837.551   115357863.961 7
  89889101.686 7        47.300          44.800
  20146761.367                    20146771.109                   105871941.128 8
  82497695.538 8        52.700          51.300
 14  1 10  0 32 30.0000000  0  8G04G02G14G12G29G24G31G25
  23932641.383                                    23932649.012   125766854.913 6
  98000190.61442        39.700          17.400
  22968507.086                                    22968509.793   120700273.505 7
  94052228.03845        43.900          30.400
  22396723.461                                    22396729.801   117695519.489 7
  91710851.82044        42.700          25.900
  21532472.898                    21532478.773    21532478.770   113154058.273 8
  88171944.262 7        48.800          46.100
  21194446.945                    21194453.406    21194453.344   111377557.241 8
  86787768.932 7        48.500          45.900
  25001385.555                    25001395.941                   131383146.602 5
 102376552.442 5        34.700          34.800
  21937906.516                    21937912.391    21937912.152   115284687.893 7
  89832081.373 7        47.000          44.500
  20147376.523                    20147385.621                   105875173.351 8
  82500214.149 8        52.800          51.500
 14  1 10  0 33  0.0000000  0  8G04G02G14G12G29G24G31G25
  23943413.797                                    23943421.309   125823464.533 6
  98044301.98543        39.200          18.300
  22963386.438                                    22963389.965   120673364.629 7
  94031260.10244        44.200          29.400
  22410931.297                                    22410937.813   117770179.212 7
  91769028.21044        42.000          26.800
  21546632.148                    21546637.965    21546637.902   113228464.524 8
  88229923.151 7        48.900          46.200
  21180570.617                    21180577.020    21180577.016   111304635.659 8
  86730946.932 7        48.300          46.600
  25022965.609                    25022976.348                   131496555.528 5
 102464922.905 5        34.800          34.200
  21924045.484                    21924051.477    21924051.238   115211849.201 7
  89775323.953 7        47.100          44.900
  20148074.609                    20148083.707                   105878841.713 8
  82503072.613 8        52.700          51.100
 14  1 10  0 33 30.0000000  0  8G04G02G14G12G29G24G31G25
  23954289.766                                    23954297.043   125880617.226 6
  98088836.54242        38.900          16.900
  22958363.813                                    22958367.398   120646971.167 7
  94010693.77145        44.900          30.400
  22425219.633                                    22425226.090   117845266.479 7
  91827537.75144        42.600          26.300
  21560843.344                    21560849.160    21560849.039   113303144.493 8
  88288115.326 7        49.100          46.600
  21166779.203                    21166785.254    21166785.250   111232163.159 7
  86674474.860 7        47.900          46.300
  25044558.898                    25044570.105                   131610027.600 5
 102553342.584 5        34.500          35.100
  21910250.141                    21910255.313    21910255.250   115139352.369 7
  89718832.919 7        46.600          45.400
  20148856.156                    20148865.195                   105882948.227 8
  82506272.495 8        52.400          51.000
 14  1 10  0 34  0.0000000  0  8G04G02G14G12G29G24G31G25
  23965268.867                                    23965275.617   125938308.820 6
  98133790.95542        37.900          16.900
  22953439.063                                    22953442.941   120621092.206 7
  93990528.35744        44.700          29.900
  22439588.969                                    22439595.543   117920776.897 7
  91886377.02444        43.000          24.700
  21575105.617                    21575111.492    21575111.488   113378094.371 8
  88346517.823 7        49.300          46.300
  21153073.516                    21153080.094    21153079.914   111160139.019 8
  86618352.168 7        48.600          46.800
  25066165.203                    25066175.063                   131723559.490 5
 102641808.855 5        34.300          35.200
  21896519.555                    21896524.434    21896524.781   115067196.983 7
  89662607.940 7        46.800          45.100
  20149720.703                    20149729.273                   105887490.471 8
  82509811.901 8        51.700          51.100
 14  1 10  0 34 30.0000000  0  8G04G02G14G12G29G24G31G25
  23976348.492                                    23976356.590   125996539.368 6
  98179165.40442        38.400          15.600
  22948613.141                                    22948616.434   120595731.319 7
  93970766.63945        46.000          31.100
  22454038.680                                    22454044.785   117996710.081 7
  91945545.69644        42.000          25.100
  21589420.117                    21589425.641    21589425.813   113453316.182 8
  88405132.207 7        48.600          45.800
  21139453.828                    21139460.816    21139460.402   111088567.541 8
  86562582.187 7        49.100          46.400
  25087779.953                    25087790.340                   131837151.576 5
 102730322.072 5        34.300          34.900
  21882854.148                    21882860.141    21882859.844   114995387.416 7
  89606652.437 7        47.000          45.000
  20150667.789                    20150677.121                   105892470.574 8
  82513692.499 8        52.700          51.700
 14  1 10  0 35  0.0000000  0  8G04G02G14G12G29G24G31G25
  23987532.719                                    23987540.582   126055307.145 6
  98224958.48242        38.000          15.600
  22943886.469                                    22943889.586   120570889.741 7
  93951409.57444        45.800          29.300
  22468568.117                                    22468574.809   118073063.771 7
  92005042.06644        42.900          24.500
  21603785.922                    21603791.563    21603791.676   113528808.310 8
  88463957.235 7        48.700          46.000
  21125920.820                    21125927.340    21125927.219   111017450.214 8
  86507166.097 7        49.100          46.300
  25109406.945                    25109418.387                   131950802.265 5
 102818880.997 5        33.500          35.400
  21869256.070                    21869261.711    21869261.473   114923926.045 7
  89550968.251 7        47.900          45.400
  20151699.156                    20151708.664                   105897888.522 8
  82517914.274 8        52.200          51.600
 14  1 10  0 35 30.0000000  0  8G04G02G14G12G29G24G31G25
  23998817.922                                    23998824.906   126114608.760 6
  98271167.48742        38.300          17.400
  22939257.125                                    22939261.473   120546567.086 7
  93932456.87045        45.700          30.300
  22483177.219                                    22483183.617   118149833.875 7
  92064862.89244        42.200          25.800
  21618202.445                    21618208.379    21618208.258   113604567.455 8
  88522990.328 7        48.900          46.400
  21112474.063                    21112480.992    21112480.988   110946787.715 8
  86452104.423 7        49.100          46.100
  25131043.125                    25131054.918                   132064508.507 5
 102907483.185 5        33.400          34.900
  21855723.680                    21855729.145    21855729.199   114852813.669 7
  89495556.007 7        47.700          45.100
  20152813.289                    20152822.387                   105903742.689 8
  82522475.968 8        52.300          51.400
 14  1 10  0 36  0.0000000  0  8G04G02G14G12G29G24G31G25
  24010203.023                                    24010210.418   126174443.002 6
  98317791.50342        38.100          16.300
  22934728.156                                    22934731.684   120522765.627 7
  93913910.29144        45.300          29.600
  22497865.000                                    22497870.930   118227018.627 7
  92125006.82844        42.300          25.400
  21632669.633                    21632675.273    21632675.152   113680593.795 8
  88582231.628 7        48.700          46.400
  21099114.523                    21099120.691    21099120.746   110876582.191 8
  86397398.832 7        49.200          46.200
  25152693.031                    25152703.945                   132178269.568 5
 102996128.077 5        32.400          35.000
  21842258.344                    21842262.930    21842263.277   114782052.816 8
  89440417.683 7        48.500          45.000
  20154010.313                    20154019.762                   105910033.751 8
  82527378.092 8        52.500          50.700
 14  1 10  0 36 30.0000000  0  8G04G02G14G12G29G24G31G25
  24021689.953                                    24021697.172   126234805.386 6
  98364827.09742        38.600          16.900
  22930297.625                                    22930301.152   120499483.566 7
  93895768.43544        45.600          29.700
  22512630.859                                    22512636.496   118304612.993 6
  92185469.95144        41.600          25.200
  21647186.914                    21647192.555    21647192.434   113756883.016 8
  88641677.761 7        49.300          45.800
  21085841.852                    21085848.078    21085847.957   110806832.808 8
  86343048.669 7        50.000          46.900
  25174350.320                    25174361.293                   132292081.474 5
 103084812.652 5        32.900          34.800
  21828859.836                    21828865.184    21828865.121   114711643.066 8
  89385552.937 7        48.800          45.400
  20155289.898                    20155299.113                   105916758.949 8
  82532618.511 8        52.500          51.700
 14  1 10  0 37  0.0000000  0  8G04G02G14G12G29G24G31G25
  24033277.047                                    24033284.324   126295695.679 6
  98412274.12442        38.800          15.600
  22925966.992                                    22925970.813   120476724.299 7
  93878033.94645        46.400          30.500
  22527474.016                                    22527480.531   118382616.427 6
  92246251.82444        38.800          24.700
  21661754.711                    21661760.293    21661760.406   113833436.637 8
  88701329.930 7        48.000          46.500
  21072656.094                    21072662.438    21072662.668   110737542.967 8
  86289056.594 7        49.800          46.900
  25196017.383                    25196028.883                   132405944.388 5
 103173536.956 5        31.500          34.300
  21815528.867                    21815534.391    21815534.445   114641589.045 8
  89330965.393 7        48.300          45.400
  20156652.734                    20156662.008                   105923919.984 8
  82538198.537 8        52.400          51.900
 14  1 10  0 37 30.0000000  0  8G04G02G14G12G29G24G31G25
  24044964.469                                    24044971.336   126357111.575 6
  98460130.63942        38.700          17.400
  22921735.914                                    22921738.738   120454488.743 7
  93860707.55545        45.700          31.200
  22542394.773                                    22542401.113   118461025.968 6
  92307350.15943        41.300          22.300
  21676372.461                    21676378.688    21676378.508   113910252.658 8
  88761186.557 7        49.000          47.000
  21059558.445                    21059564.320    21059564.375   110668714.409 8
  86235423.965 7        49.600          46.100
  25217694.094                    25217705.535                   132519856.315 5
 103262299.450 5        30.700          35.400
  21802265.773                    21802271.121    21802271.352   114571891.652 7
  89276655.733 7        47.500          45.800
  20158098.094                    20158107.133                   105931516.439 8
  82544117.851 8        52.900          51.200
 14  1 10  0 38  0.0000000  0  8G04G02G14G12G29G24G31G25
  24056751.172                                    24056758.215   126419052.757 6
  98508396.51342        39.000          16.900
  22917604.750                                    22917607.867   120432779.016 7
  93843790.89145        45.600          30.700
  22557393.672                                    22557399.602   118539840.528 7
  92368764.07344        42.400          24.200
  21691039.719                    21691045.125    21691045.121   113987330.933 8
  88821247.543 7        48.400          46.100
  21046549.578                    21046555.629    21046555.566   110600350.359 8
  86182153.297 7        48.900          46.800
  25239380.391                    25239391.129                   132633817.031 5
 103351099.977 5        31.500          33.700
  21789071.492                    21789076.723    21789076.660   114502554.964 7
  89222627.143 7        46.200          45.200
  20159627.117                    20159635.805                   105939549.760 8
  82550377.586 8        52.200          51.000
 14  1 10  0 38 30.0000000  0  8G04G02G14G12G29G24G31G25
  24068637.000                                    24068644.043   126481513.729 6
  98557067.39242        38.800          13.900
  22913573.484                                    22913576.426   120411593.210 7
  93827282.47645        45.500          30.900
  22572467.344                                    22572472.570   118619054.377 6
  92430489.11844        39.600          24.700
  21705756.391                    21705762.090    21705762.203   114064667.555 8
  88881509.835 7        48.800          46.300
  21033628.266                    21033634.609    21033634.605   110532449.119 8
  86129243.253 7        50.900          46.700
  25261072.953                    25261086.504                   132747822.226 5
 103439935.208 5        30.500          33.600
  21775945.789                    21775951.313    21775951.191   114433577.955 8
  89168878.823 7        48.800          46.000
  20161238.297                    20161246.691                   105948016.430 8
  82556974.992 8        52.300          51.600
 14  1 10  0 39  0.0000000  0  8G04G02G14G12G29G24G31G25
  24080621.844                                    24080628.828   126544491.948 6
  98606141.28142        39.200          15.600
  22909640.977                                    22909644.387   120390932.002 7
  93811182.84745        46.500          31.300
  22587615.922                                    22587622.555   118698664.632 6
  92492523.06344        41.100          24.500
  21720522.258                    21720527.781    21720527.660   114142260.998 8
  88941972.244 7        48.700          45.900
  21020795.344                    21020802.156    21020801.918   110465012.025 8
  86076694.882 7        51.200          47.000
  25282777.758                    25282787.910                   132861869.832 4
 103528803.480 5        29.600          33.200
  21762888.648                    21762894.289    21762894.285   114364962.273 8
  89115412.060 7        48.400          45.800
  20162931.750                    20162940.379                   105956915.983 8
  82563909.713 8        53.000          51.500
 14  1 10  0 39 30.0000000  0  8G04G02G14G12G29G24G31G25
  24092704.461                                    24092711.914   126607988.123 6
  98655618.78442        37.900          16.300
  22905810.352                                    22905813.879   120370799.403 7
  93795495.11545        45.800          31.600
  22602841.117                                    22602847.516   118778671.163 6
  92554865.79043        39.400          23.900
  21735337.031                    21735342.672    21735342.551   114220113.009 8
  89002636.133 7        48.200          45.800
  21008051.531                    21008057.934    21008057.930   110398043.681 8
  86024511.766 7        50.200          47.300
  25304488.305                    25304499.219                   132975960.943 5
 103617705.653 5        31.200          34.100
  21749900.969                    21749906.961    21749906.840   114296712.829 8
  89062230.672 7        48.800          45.900
  20164707.938                    20164716.742                   105966251.056 8
  82571183.798 8        52.800          51.400
 14  1 10  0 40  0.0000000  0  8G04G02G14G12G29G24G31G25
  24104885.656                                    24104892.465   126671999.297 6
  98705497.52642        37.300          15.600
  22902079.711                                    22902083.590   120351195.229 7
  93780219.14245        45.800          31.800
  22618140.234                                    22618146.457   118859070.717 6
  92617514.77544        41.200          24.500
  21750200.438                    21750205.844    21750205.957   114298220.745 8
  89063499.289 7        48.700          45.500
  20995397.039                    20995403.734    20995403.555   110331544.164 8
  85972693.972 7        50.700          46.900
  25326205.141                    25326217.637                   133090092.68615
 103706639.52715        30.100          34.300
  21736983.461                    21736988.691    21736988.688   114228830.512 8
  89009335.357 7        49.000          45.800
  20166567.211                    20166576.250                   105976020.249 8
  82578796.158 8        53.000          50.800
 14  1 10  0 40 30.0000000  0  8G04G02G14G12G29G24G31G25
  24117163.289                                    24117171.563   126736525.080 6
  98755777.36842        36.400          16.300
  22898449.906                                    22898453.492   120332122.274 7
  93765357.11845        45.800          30.900
  22633515.063                                    22633520.699   118939862.249 6
  92680469.17044        41.500          24.900
  21765112.055                    21765118.398    21765118.277   114376585.084 8
  89124562.398 7        48.800          45.600
  20982832.453                    20982838.973    20982838.910   110265517.327 8
  85921244.505 7        50.300          46.500
  25347934.703                    25347944.094                   133204265.85915
 103795605.65915        30.100          33.700
  21724136.531                    21724142.406    21724142.285   114161319.366 8
  88956729.270 7        48.500          45.800
  20168508.875                    20168517.973                   105986225.275 8
  82586748.131 8        52.300          50.100
 14  1 10  0 41  0.0000000  0  8G04G02G14G12G29G24G31G25
  24129540.180                                    24129547.516   126801559.998 6
  98806453.93142        36.000          15.600
  22894921.914                                    22894924.797   120313578.472 7
  93750907.41845        46.000          32.500
  22648961.797                                    22648968.723   119021039.980 6
  92743724.53544        40.400          24.600
  21780072.406                    21780078.223    21780077.926   114455201.616 8
  89185822.014 7        48.700          45.700
  20970357.922                    20970364.148    20970364.145   110199961.326 8
  85870161.914 7        50.200          47.000
  25369665.711                    25369677.094                   133318474.65115
 103884599.57815        30.700          33.200
  21711359.820                    21711365.227    21711365.398   114094178.446 8
  88904411.668 7        48.100          45.600
  20170533.359                    20170541.988                   105996862.508 8
  82595036.886 8        52.800          51.100
 14  1 10  0 41 30.0000000  0  8G04G02G14G12G29G24G31G25
  24142011.422                                    24142021.043   126867103.944 5
  98857527.16742        35.400          13.900
  22891493.844                                    22891497.957   120295566.609 7
  93736872.20445        45.100          31.500
  22664483.344                                    22664489.098   119102603.130 6
  92807280.20844        40.600          24.700
  21795081.258                    21795086.664    21795086.777   114534070.230 8
  89247278.065 7        49.200          45.800
  20957973.156                    20957979.734    20957979.789   110134879.515 8
  85819448.828 7        49.100          47.200
  25391406.055                    25391417.027                   133432720.302 4
 103973622.224 5        29.400          32.200
  21698654.664                    21698660.246    21698660.359   114027411.589 7
  88852385.547 7        46.800          46.400
  20172640.133                    20172648.996                   106007933.839 8
  82603663.896 8        52.800          50.700
 14  1 10  0 42  0.0000000  0  7G04G02G14G12G29G31G25
  24154580.617                                                   126933156.958 5
                        34.800
  22888168.039                                    22888171.508   120278089.660 7
  93723253.81045        44.300          31.500
  22680077.398                                    22680083.328   119184551.466 6
  92871136.01243        40.100          22.500
  21810137.414                    21810143.172    21810143.109   114613193.470 8
  89308932.530 7        49.400          45.400
  20945679.484                    20945685.242    20945685.414   110070275.924 8
  85769108.381 7        50.300          46.900
  21686021.031                    21686026.789    21686026.727   113961023.260 8
  88800654.377 7        48.900          45.800
  20174829.938                    20174838.742                   106019441.296 8
  82612630.750 8        51.700          51.100
 14  1 10  0 42 30.0000000  0  7G04G02G14G12G29G31G25
  24167246.805                                                   126999711.765 5
                        35.700
  22884943.281                                    22884946.691   120261143.735 7
  93710049.21745        44.300          31.300
  22695743.719                                    22695750.293   119266876.974 6
  92935285.73743        41.400          22.600
  21825241.406                    21825247.633    21825247.453   114692564.613 8
  89370780.166 7        49.800          45.300
  20933476.141                    20933482.719    20933482.598   110006146.981 8
  85719137.781 7        50.700          47.000
  21673459.516                    21673464.863    21673465.035   113895009.972 8
  88749215.443 7        49.100          46.200
  20177101.555                    20177110.770                   106031379.485 8
  82621933.230 8        52.200          50.700
 14  1 10  0 43  0.0000000  0  7G04G02G14G12G29G31G25
  24180006.547                                                   127066768.131 6
                        36.300
  22881819.977                                    22881823.855   120244731.561 7
  93697260.51545        44.000          31.400
  22711481.727                                    22711487.891   119349579.016 6
  92999728.85943        40.600          23.200
  21840392.430                    21840398.305    21840398.008   114772183.990 8
  89432821.227 7        49.600          46.200
  20921363.555                    20921370.074    20921370.070   109942495.931 8
  85669539.579 7        50.400          47.000
  21660969.406                    21660975.516    21660975.102   113829376.067 8
  88698072.134 7        49.200          45.400
  20179455.578                    20179464.617                   106043750.142 8
  82631572.701 8        51.800          50.500
 14  1 10  0 43 30.0000000  0  7G04G02G14G12G29G31G25
  24192862.398                                                   127134322.182 6
                        37.300
  22878798.250                                    22878802.129   120228852.279 7
  93684887.06445        44.800          30.500
  22727289.883                                    22727295.578   119432653.378 6
  93064462.10243        40.600          22.000
  21855590.625                    21855595.621    21855595.500   114852048.373 8
  89495053.206 7        49.500          45.000
  20909342.430                    20909348.422    20909348.418   109879322.930 8
  85620313.871 7        50.500          46.700
  21648552.617                    21648557.730    21648557.434   113764121.996 8
  88647224.810 7        49.500          46.000
  20181891.727                    20181900.590                   106056551.386 8
  82641547.696 8        52.500          50.700
 14  1 10  0 44  0.0000000  0  7G04G02G14G12G29G31G25
  24205812.648                                                   127202373.466 6
                        37.000
  22875878.625                                    22875881.918   120213508.886 7
  93672931.18545        44.500          30.700
  22743168.836                                    22743175.176   119516099.073 6
  93129484.70043        40.300          22.800
  21870834.742                    21870840.500    21870840.555   114932159.127 8
  89557477.168 7        49.500          45.300
  20897412.305                    20897418.707    20897418.703   109816631.062 7
  85571463.080 7        47.500          47.100
  21636208.086                    21636213.492    21636213.371   113699251.620 7
  88596676.466 7        45.800          46.100
  20184409.625                    20184418.430                   106069784.764 8
  82651859.415 8        52.000          50.900
 14  1 10  0 44 30.0000000  0  7G04G02G14G12G29G31G25
  24218855.375                                                   127270917.436 6
                        37.000
  22873059.992                                    22873063.578   120198699.390 7
  93661391.33145        43.500          30.900
  22759117.688                                    22759124.203   119599911.042 6
  93194792.69043        40.300          22.800
  21886125.430                    21886131.363    21886131.184   115012512.673 8
  89620090.314 7        48.500          45.500
  20885573.984                    20885580.270    20885580.266   109754419.609 8
  85522986.632 7        48.200          47.300
  21623936.398                    21623942.156    21623941.918   113634764.517 7
  88546426.773 7        45.900          46.100
  20187009.453                    20187018.961                   106083447.615 8
  82662505.795 8        51.800          51.400
 14  1 10  0 45  0.0000000  0  7G04G02G14G12G29G31G25
  24231992.719                                                   127339953.608 6
                        37.600
  22870344.789                                    22870348.141   120184426.811 7
  93650269.84045        43.900          30.900
  22775135.977                                    22775143.020   119684088.600 6
  93260385.55743        39.400          22.800
  21901462.805                    21901468.797    21901468.617   115093109.668 8
  89682893.159 7        48.800          45.700
  20873827.539                    20873833.883    20873833.820   109692691.993 7
  85474887.202 7        46.700          46.600
  21611738.961                    21611743.957    21611744.012   113570664.847 7
  88496478.974 7        46.000          46.300
  20189691.836                    20189700.992                   106097541.631 8
  82673488.140 8        52.400          50.900
 14  1 10  0 45 30.0000000  0  7G04G02G14G12G29G31G25
  24245223.828                                                   127409479.566 6
                        37.500
  22867730.266                                    22867734.379   120170691.859 7
  93639567.28645        43.500          30.100
  22791224.000                                    22791230.691   119768628.801 6
  93326261.00643        40.300          22.600
  21916845.516                    21916851.156    21916851.152   115173947.847 8
  89745883.939 7        48.700          45.000
  20862173.266                    20862179.551    20862179.430   109631449.333 8
  85427165.655 7        48.600          47.000
  21599615.898                    21599620.660    21599620.656   113506954.618 7
  88446834.637 7        47.400          46.400
  20192455.586                    20192464.449                   106112066.393 8
  82684806.138 8        52.200          51.300
 14  1 10  0 46  0.0000000  0  7G04G02G14G12G29G31G25
  24258546.672                                                   127479493.057 6
                        36.500
  22865219.953                                    22865223.246   120157495.048 7
  93629284.07144        44.100          29.800
  22807380.359                                    22807386.172   119853528.936 6
  93392416.92043        40.000          22.200
  21932274.594                    21932280.176    21932280.113   115255026.762 8
  89809062.318 7        48.800          45.300
  20850611.820                    20850618.047    20850618.043   109570693.027 7
  85379823.087 7        47.800          47.200
  21587565.875                    21587571.691    21587571.629   113443635.601 7
  88397495.143 7        45.600          46.300
  20195301.492                    20195310.355                   106127021.494 8
  82696459.460 8        52.500          51.500
 14  1 10  0 46 30.0000000  0  7G04G02G14G12G29G31G25
  24271961.953                                                   127549992.197 6
                        36.600
  22862811.008                                    22862814.418   120144837.791 7
  93619421.28344        43.200          29.400
  22823604.359                                    22823610.172   119938786.854 6
  93458851.61343        41.200          22.900
  21947748.688                    21947755.383    21947754.969   115336346.112 8
  89872428.038 7        48.700          45.600
  20839143.172                    20839150.160    20839150.098   109510424.942 8
  85332860.953 7        50.200          47.000
  21575591.609                    21575597.250    21575597.129   113380710.237 8
  88348462.390 7        49.200          46.600
  20198229.367                    20198238.172                   106142407.246 8
  82708448.358 8        52.300          51.600
 14  1 10  0 47  0.0000000  0  7G04G02G14G12G29G31G25
  24285469.164                                                   127620972.373 5
                        35.900
  22860503.883                                    22860508.055   120132718.289 7
  93609977.52745        43.600          30.100
  22839895.195                                    22839901.125   120024397.367 6
  93525561.04943        41.400          22.500
  21963268.516                    21963274.156    21963273.977   115417901.469 8
  89935977.658 7        48.400          45.100
  20827767.227                    20827773.512    20827773.098   109450644.170 8
  85286278.547 7        50.000          47.200
  21563692.516                    21563697.805    21563697.566   113318178.575 8
  88299736.425 7        48.500          46.800
  20201238.719                    20201247.699                   106158220.859 8
  82720770.654 8        52.100          51.200
 14  1 10  0 47 30.0000000  0  7G04G02G14G12G29G31G25
  24299067.273                                                   127692431.720 5
                        35.900
  22858300.453                                    22858303.805   120121137.559 7
  93600953.59145        42.700          30.600
  22856252.883                                    22856259.574   120110357.866 6
  93592543.16943        40.200          22.600
  21978832.664                    21978838.832    21978838.945   115499692.521 8
  89999710.941 7        48.400          45.900
  20816484.680                    20816490.789    20816490.844   109391352.811 8
  85240077.494 7        48.600          47.300
  21551868.156                    21551873.855    21551873.676   113256042.711 7
  88251318.863 7        47.200          46.500
  20204329.359                    20204338.398                   106174462.412 8
  82733426.412 8        52.300          51.000
 14  1 10  0 48  0.0000000  0  7G04G02G14G12G29G31G25
  24312756.297                                                   127764370.466 5
                        34.500
  22856200.266                                    22856203.266   120110099.228 7
  93592352.30045        42.000          30.100
  22872677.641                                    22872683.922   120196668.582 6
  93659798.21543        40.700          22.300
  21994442.195                    21994448.539    21994448.477   115581720.951 8
  90063629.201 7        48.500          45.600
  20805295.406                    20805301.984    20805301.980   109332554.703 8
  85194260.794 7        50.400          47.500
  21540120.148                    21540125.613    21540125.727   113194307.507 8
  88203213.502 7        49.200          46.600
  20207502.172                    20207510.918                   106191134.429 8
  82746417.592 8        51.900          51.200
 14  1 10  0 48 30.0000000  0  7G04G02G14G12G29G31G25
  24326535.523                                                   127836784.294 5
                        33.800
  22854202.758                                    22854206.051   120099601.878 7
  93584172.56244        43.600          29.900
  22889167.930                                    22889174.152   120283324.861 6
  93727322.55043        41.000          22.500
  22010096.375                    22010102.895    22010102.891   115663983.074 7
  90127729.552 7        47.900          45.000
  20794200.367                    20794206.828    20794206.766   109274249.115 8
  85148827.879 7        50.300          47.000
  21528448.445                    21528454.496    21528454.434   113132972.968 8
  88155420.354 7        49.100          46.800
  20210755.977                    20210764.723                   106208234.576 8
  82759742.378 8        52.000          51.000
 14  1 10  0 49  0.0000000  0  7G04G02G14G12G29G31G25
  24340406.672                                                   127909671.038 5
                        33.400
  22852308.172                                    22852311.523   120089646.838 7
  93576415.39145        44.200          30.100
  22905723.383                                    22905729.195   120370324.318 6
  93795114.27743        41.000          23.800
  22025794.008                    22025800.176    22025800.172   115746478.169 7
  90192011.437 7        47.900          45.500
  20783199.586                    20783205.871    20783205.633   109216437.858 8
  85103780.153 7        50.800          47.900
  21516854.094                    21516859.559    21516859.145   113072041.588 8
  88107941.349 7        48.900          46.300
  20214091.367                    20214100.582                   106225762.962 8
  82773400.863 8        52.500          51.500
 14  1 10  0 49 30.0000000  0  7G04G02G14G12G29G31G25
  24354365.211                                                   127983027.719 5
                        32.800
  22850517.391                                    22850520.449   120080233.856 7
  93569080.61244        42.900          29.900
  22922342.781                                    22922349.531   120457663.174 6
  93863170.48443        41.200          22.500
  22041537.023                    22041542.723    22041542.602   115829204.666 8
  90256473.640 7        48.400          45.200
  20772292.820                    20772298.402    20772298.574   109159121.645 8
  85059118.184 7        50.600          47.100
  21505336.188                    21505341.301    21505341.180   113011514.790 8
  88060777.610 7        49.100          47.100
  20217508.438                    20217517.594                   106243718.561 8
  82787392.240 8        52.100          52.000
 14  1 10  0 50  0.0000000  0  7G04G02G14G12G29G31G25
  24368414.203                                                   128056850.751 5
                        33.200
  22848828.359                                    22848831.828   120071361.958 7
  93562167.45344        44.000          29.600
  22939027.367                                    22939033.473   120545337.210 6
  93931487.85643        40.800          22.800
  22057322.492                    22057328.660    22057328.715   115912159.756 8
  90321113.964 7        48.400          44.800
  20761479.586                    20761485.754    20761485.926   109102300.494 8
  85014841.968 8        50.200          48.500
  21493895.180                    21493900.996    21493900.992   112951393.131 8
  88013929.559 7        49.500          46.800
  20221006.391                    20221014.902                   106262099.572 8
  82801715.110 8        51.500          51.200
 14  1 10  0 50 30.0000000  0  7G04G02G14G12G29G31G25
  24382548.883                                                   128131138.204 5
                        33.800
  22847243.711                                    22847246.945   120063032.373 7
  93555676.86645        43.000          30.400
  22955774.484                                    22955780.941   120633344.688 6
  94000065.05943        41.100          22.800
  22073151.797                    22073158.023    22073157.844   115995342.971 7
  90385932.045 7        47.400          45.000
  20750761.656                    20750767.766    20750767.527   109045976.234 8
  84970952.945 7        50.600          47.500
  21482531.453                    21482537.738    21482537.324   112891679.099 8
  87967399.144 7        49.100          46.800
  20224585.109                    20224594.383                   106280906.275 8
  82816369.685 8        50.900          51.400
 14  1 10  0 51  0.0000000  0  7G04G02G14G12G29G31G25
  24396774.594                                                   128205888.555 5
                        34.100
  22845762.305                                    22845765.656   120055247.061 7
  93549610.39244        44.100          29.800
  22972583.906                                    22972591.066   120721683.426 6
  94068900.38443        41.300          22.500
  22089024.438                    22089029.785    22089029.664   116078754.442 7
  90450927.989 7        47.900          44.600
  20740138.289                    20740144.867    20740144.863   108990150.823 8
  84927452.639 7        48.000          47.900
  21471247.164                    21471252.805    21471252.918   112832375.645 7
  87921188.658 7        46.100          46.600
  20228244.953                    20228253.641                   106300139.304 8
  82831356.458 8        51.500          51.000
 14  1 10  0 51 30.0000000  0  7G04G02G14G12G29G31G25
  24411088.352                                                   128281099.920 5
                        34.800
  22844384.211                                    22844387.797   120048006.129 7
  93543968.11444        42.800          29.700
  22989457.602                                    22989464.234   120810350.955 6
  94137991.87743        41.100          22.300
  22104939.961                    22104946.480    22104946.301   116162392.795 8
  90516100.724 7        48.000          44.500
  20729610.320                    20729616.898    20729616.660   108934826.068 8
  84884342.445 7        51.000          47.900
  21460040.211                    21460046.496    21460046.375   112773485.134 8
  87875299.943 7        49.200          46.500
  20231985.836                    20231995.109                   106319798.512 8
  82846675.317 8        51.300          51.100
 14  1 10  0 52  0.0000000  0  7G04G02G14G12G29G31G25
  24425486.273                                                   128356768.525 5
                        34.600
  22843110.328                                    22843112.566   120041309.687 7
  93538750.12545        45.300          30.400
  23006393.039                                    23006399.203   120899343.983 6
  94207337.02343        40.400          22.500
  22120899.180                    22120904.645    22120904.406   116246256.224 7
  90581448.842 7        47.000          44.900
  20719177.953                    20719184.473    20719184.352   108880002.367 8
  84841622.680 7        49.800          47.500
  21448912.656                    21448918.531    21448918.586   112715008.998 7
  87829734.117 7        47.300          46.700
  20235808.008                    20235816.402                   106339882.806 8
  82862325.416 8        51.400          51.100
 14  1 10  0 52 30.0000000  0  7G04G02G14G12G29G31G25
  24439972.977                                                   128432891.918 6
                        36.000
  22841938.922                                    22841942.566   120035157.780 7
  93533956.43345        44.000          31.000
  23023389.195                                    23023394.715   120988658.822 6
  94276932.95043        41.100          22.000
  22136900.359                    22136906.059    22136905.820   116330342.631 7
  90646970.695 7        47.400          44.300
  20708840.930                    20708847.391    20708847.094   108825680.477 8
  84799293.943 7        51.100          47.900
  21437864.148                    21437869.672    21437869.727   112656948.228 8
  87784491.963 7        48.800          46.700
  20239710.375                    20239719.414                   106360391.359 8
  82878306.104 8        51.300          51.100
 14  1 10  0 53  0.0000000  0  7G04G02G14G12G29G31G25
  24454543.813                                                   128509468.596 5
                        35.500
  22840872.477                                    22840875.418   120029552.189 7
  93529588.44345        44.300          30.700
  23040445.656                                    23040452.055   121078294.118 6
  94346778.55343        40.600          22.200
  22152943.914                    22152949.555    22152949.082   116414652.583 7
  90712666.750 7        47.300          44.300
  20698599.281                    20698606.094    20698605.797   108771862.511 8
  84757357.870 8        49.800          48.400
  21426895.109                    21426901.102    21426900.805   112599306.411 8
  87739576.249 7        48.600          47.300
  20243694.180                    20243703.160                   106381325.088 8
  82894618.099 8        51.500          51.100
 14  1 10  0 53 30.0000000  0  7G04G02G14G12G29G31G25
  24469202.555                                                   128586495.218 5
                        35.900
  22839909.797                                    22839913.207   120024492.259 7
  93525645.65345        44.700          30.000
  23057563.219                                    23057569.090   121168246.011 6
  94416870.87243        41.100          22.300
  22169030.008                    22169035.473    22169035.645   116499184.111 7
  90778535.468 7        46.700          44.200
  20688454.078                    20688460.363    20688460.184   108718549.381 8
  84715815.184 7        51.700          47.900
  21416005.930                    21416011.863    21416011.625   112542084.357 8
  87694987.638 7        49.600          46.700
  20247758.414                    20247767.102                   106402682.600 8
  82911260.317 8        51.200          51.000
 14  1 10  0 54  0.0000000  0  7G04G02G14G12G29G31G25
  24483946.438                                                   128663969.922 6
                        36.000
  22839051.711                                    22839054.125   120019978.624 7
  93522128.54245        43.800          31.500
  23074740.664                                    23074746.535   121258511.859 6
  94487207.83143        41.400          23.000
  22185157.438                    22185163.371    22185163.250   116583936.110 7
  90844575.962 7        47.500          43.300
  20678405.430                    20678412.066    20678411.945   108665742.294 8
  84674666.815 8        51.100          48.400
  21405197.914                    21405203.203    21405203.258   112485284.327 8
  87650727.871 7        49.600          46.800
  20251903.203                    20251912.066                   106424463.658 8
  82928232.567 8        51.500          51.300
 14  1 10  0 54 30.0000000  0  7G04G02G14G12G29G31G25
  24498773.484                                                   128741888.748 5
                        35.200
  22838296.156                                    22838299.801   120016011.419 7
  93519037.22045        45.100          31.900
  23091976.516                                    23091982.738   121349088.288 6
  94557786.78443        41.000          22.600
  22201326.617                    22201332.551    22201332.313   116668906.288 7
  90910786.469 7        46.400          43.200
  20668452.758                    20668459.102    20668459.098   108613441.959 8
  84633913.312 8        51.000          48.300
  21394469.664                    21394475.246    21394475.125   112428908.161 8
  87606798.386 7        49.500          47.000
  20256128.484                    20256137.230                   106446667.539 8
  82945534.294 8        51.400          51.700
 14  1 10  0 55  0.0000000  0  7G04G02G14G12G29G31G25
  24513685.281                                                   128820249.294 5
                        33.700
  22837644.992                                    22837648.109   120012589.935 7
  93516371.14045        44.500          30.600
  23109270.789                                    23109276.836   121439971.643 6
  94628604.91043        41.400          22.600
  22217537.703                    22217543.813    22217543.516   116754093.259 7
  90977165.904 7        45.900          44.900
  20658596.695                    20658603.039    20658603.094   108561648.330 8
  84593554.652 8        51.200          48.300
  21383822.414                    21383828.113    21383828.461   112372956.505 8
  87563199.692 7        49.600          47.500
  20260433.828                    20260442.750                   106469292.734 8
  82963164.311 8        51.500          51.400
 14  1 10  0 55 30.0000000  0  7G04G02G14G12G29G31G25
  24528680.266                                                   128899051.401 5
                        33.700
  22837098.547                                    22837101.723   120009717.615 7
  93514132.97945        44.100          31.200
  23126624.055                                    23126629.750   121531162.336 6
  94699662.53343        40.600          21.500
  22233789.836                    22233795.301    22233795.414   116839498.890 7
  91043715.726 7        45.900          43.900
  20648838.422                    20648844.297    20648844.293   108510365.695 8
  84553594.160 8        51.200          48.300
  21373257.023                    21373262.488    21373262.426   112317434.328 8
  87519935.658 7        50.300          47.700
  20264819.992                    20264828.855                   106492342.025 8
  82981124.803 8        51.200          51.600
 14  1 10  0 56  0.0000000  0  7G04G02G14G12G29G31G25
  24543759.164                                                   128978289.599 5
                        33.100
  22836655.797                                    22836659.324   120007391.421 7
  93512320.36645        45.000          31.100
  23144034.188                                    23144040.703   121622653.765 6
  94770954.51243        40.200          22.600
  22250082.219                    22250087.977    22250088.090   116925118.661 7
  91110432.416 7        45.600          43.600
  20639176.258                    20639183.363    20639183.066   108459591.905 8
  84514030.179 8        50.900          48.200
  21362773.016                    21362778.949    21362778.828   112262340.351 8
  87477005.283 7        50.400          47.000
  20269286.156                    20269294.902                   106515811.657 8
  82999412.824 8        51.200          51.500
 14  1 10  0 56 30.0000000  0  7G04G02G14G12G29G31G25
  24558920.594                                                   129057962.140 5
                        31.600
  22836317.359                                    22836320.652   120005612.649 7
  93510934.30945        44.800          30.900
  23161501.320                                    23161508.070   121714444.075 6
  94842479.36343        40.800          21.800
  22266416.336                    22266421.625    22266421.621   117010952.047 7
  91177315.560 7        46.300          43.800
  20629611.750                    20629618.094    20629617.797   108409328.803 8
  84474864.131 8        50.800          48.100
  21352370.938                    21352376.754    21352376.574   112207677.169 8
  87434410.591 7        49.900          47.500
  20273832.227                    20273841.266                   106539702.054 8
  83018028.719 8        51.300          51.200
 14  1 10  0 57  0.0000000  0  7G04G02G14G12G29G31G25
  24574163.547                                                   129138066.172 5
                        31.300
  22836082.719                                    22836086.363   120004381.586 7
  93509975.04745        44.500          30.700
  23179024.953                                    23179031.645   121806530.413 6
  94914234.93343        40.900          21.800
  22282790.172                    22282795.227    22282795.164   117096997.920 7
  91244364.284 7        46.700          43.700
  20620144.164                    20620149.980    20620150.035   108359577.545 8
  84436096.924 8        50.800          48.100
  21342050.969                    21342056.082    21342056.430   112153447.046 8
  87392153.351 7        50.000          47.800
  20278458.328                    20278467.426                   106564012.691 8
  83036972.069 8        50.800          51.400
 14  1 10  0 57 30.0000000  0  7G04G02G14G12G29G31G25
  24589489.172                                                   129218600.155 5
                        31.300
  22835953.305                                    22835956.480   120003699.394 7
  93509443.47345        45.100          31.400
  23196604.406                                    23196610.980   121898910.755 6
  94986219.55843        40.800          21.700
  22299203.836                    22299210.473    22299210.527   117183256.063 7
  91311578.411 7        45.900          43.700
  20610774.383                    20610780.668    20610780.605   108310340.062 8
  84397730.055 8        50.500          48.500
  21331814.492                    21331820.602    21331820.246   112099652.603 8
  87350235.601 7        50.400          47.200
  20283164.727                    20283173.766                   106588743.984 8
  83056243.204 8        50.600          50.500
 14  1 10  0 58  0.0000000  0  7G04G02G14G12G29G31G25
  24604894.906                                                   129299560.297 5
                        30.500
  22835927.313                                    22835930.664   120003565.084 7
  93509338.82345        44.600          30.600
  23214238.992                                    23214245.625   121991580.983 6
  95058430.12043        40.600          21.500
  22315658.820                    22315664.988    22315664.867   117269724.162 7
  91378956.140 7        46.500          44.400
  20601502.523                    20601509.336    20601508.980   108261616.300 8
  84359763.500 8        50.300          48.600
  21321660.602                    21321665.832    21321665.711   112046294.558 8
  87308657.907 7        49.400          47.300
  20287950.547                    20287959.293                   106613894.419 8
  83075840.944 8        51.200          50.900
 14  1 10  0 58 30.0000000  0  7G04G02G14G12G29G31G25
  24620381.375                                                   129380945.006 4
                        29.600
  22836006.781                                    22836009.957   120003979.890 7
  93509662.05645        44.700          31.400
  23231928.109                                    23231934.566   122084539.119 6
  95130864.98243        40.900          21.700
  22332153.211                    22332158.734    22332158.730   117356401.727 7
  91446497.075 7        46.300          43.900
  20592328.953                    20592335.590    20592335.469   108213408.249 8
  84322198.786 8        50.800          48.000
  21311590.781                    21311596.363    21311596.477   111993375.619 8
  87267422.367 7        50.100          47.300
  20292816.297                    20292824.867                   106639464.445 8
  83095765.645 8        51.900          50.700
 14  1 10  0 59  0.0000000  0  7G04G02G14G12G29G31G25
  24635948.992                                                   129462749.885 4
                        29.100
  22836189.305                                    22836193.125   120004942.131 7
  93510411.85245        45.100          30.200
  23249671.703                                    23249678.160   122177780.529 6
  95203520.58143        39.700          22.000
  22348686.367                    22348692.359    22348692.238   117443286.121 7
  91514199.178 7        46.600          43.900
  20583253.180                    20583259.934    20583259.871   108165714.987 8
  84285035.210 8        50.700          48.400
  21301604.148                    21301609.906    21301609.902   111940895.837 8
  87226529.030 7        49.600          47.200
  20297761.688                    20297770.551                   106665451.723 8
  83116015.465 8        51.600          51.000
 14  1 10  0 59 30.0000000  0  7G04G02G14G12G29G31G25
  24651596.797                                                   129544975.168 4
                        29.100
  22836477.109                                    22836480.988   120006454.922 7
  93511590.65745        44.700          30.000
  23267467.656                                    23267475.227   122271305.349 6
  95276397.03043        40.900          21.800
  22365260.305                    22365265.770    22365265.648   117530378.834 7
  91582063.613 7        45.800          44.100
  20574275.859                    20574282.320    20574282.199   108118540.394 8
  84248275.796 8        51.200          48.600
  21291701.656                    21291707.355    21291707.410   111888860.136 8
  87185981.727 7        50.100          47.000
  20302786.359                    20302795.574                   106691858.771 8
  83136592.388 8        51.300          51.300
 14  1 10  1  0  0.0000000  4  5
MORP (COGO code)                                            COMMENT
   0.033      (antenna height)                              COMMENT
 +55.21279000 (latitude)                                    COMMENT
  -1.68549700 (longitude)                                   COMMENT
0144.425      (elevation)                                   COMMENT
 14  1 10  1  0  0.0000000  0  7G04G02G14G12G29G31G25
  24667323.391                                                   129627615.175 4
                        29.900
  22836869.164                                    22836872.867   120008515.331 7
  93513196.17044        44.800          29.900
  23285318.578                                    23285324.684   122365107.341 6
  95349489.48643        40.800          20.900
  22381871.508                    22381877.559    22381877.496   117617675.706 7
  91650087.125 7        47.200          44.600
  20565397.258                    20565404.129    20565404.008   108071882.183 8
  84211918.753 8        50.500          48.300
  21281883.938                    21281890.105    21281889.984   111837267.437 8
  87145779.624 7        49.800          47.600
  20307891.047                    20307899.910                   106718681.886 8
  83157493.513 8        51.800          50.300
 14  1 10  1  0 30.0000000  0  7G04G02G14G12G29G31G25
  24683127.422                                                   129710668.722 4
                        29.100
  22837365.547                                    22837369.484   120011124.807 7
  93515229.53245        45.400          30.600
  23303220.836                                    23303227.176   122459185.005 6
  95422796.70043        40.600          21.500
  22398522.906                    22398529.016    22398528.953   117705176.843 7
  91718269.810 7        47.000          44.300
  20556617.523                    20556624.102    20556624.215   108025742.810 8
  84175965.997 8        51.200          48.600
  21272151.453                    21272157.563    21272157.441   111786120.744 8
  87105925.058 7        51.200          47.200
  20313074.445                    20313083.309                   106745922.004 8
  83178719.580 8        52.300          51.100
 14  1 10  1  1  0.0000000  0  7G04G02G14G12G29G31G25
  24699009.773                                                   129794131.461 4
                        28.600
  22837966.875                                    22837970.461   120014281.884 7
  93517689.58445        45.000          30.300
  23321174.789                                    23321181.480   122553533.934 6
  95496315.29243        39.900          20.900
  22415212.055                    22415217.754    22415217.809   117792879.509 7
  91786609.532 7        46.500          44.300
  20547935.906                    20547942.250    20547941.953   107980121.913 8
  84140417.253 8        51.600          48.100
  21262503.258                    21262509.133    21262508.953   111735420.302 8
  87066418.215 7        50.900          47.100
  20318336.828                    20318346.570                   106773577.257 8
  83200269.123 8        52.500          51.100
 14  1 10  1  1 30.0000000  0  7G04G02G14G12G29G31G25
  24714969.789                                                   129878003.66214
                        27.600
  22838672.156                                    22838675.918   120017989.130 7
  93520578.36245        45.500          30.800
  23339180.078                                    23339186.535   122648153.585 6
  95570044.83743        41.300          20.400
  22431939.992                    22431946.453    22431946.215   117880785.421 7
  91855107.631 7        46.600          44.000
  20539354.281                    20539360.215    20539360.035   107935022.721 8
  84105275.032 8        51.400          48.500
  21252941.672                    21252947.137    21252947.016   111685170.444 8
  87027262.479 7        50.500          47.600
  20323679.273                    20323688.313                   106801649.466 8
  83222143.569 8        51.900          50.800
 14  1 10  1  2  0.0000000  0  7G04G02G14G12G29G31G25
  24731006.727                                                   129962279.86814
                        24.600
  22839481.945                                    22839484.945   120022244.631 7
  93523894.34145        45.500          30.000
  23357237.445                                    23357243.492   122743039.072 6
  95643981.57943        41.700          21.500
  22448705.797                    22448711.906    22448711.551   117968891.014 7
  91923761.317 7        45.600          44.700
  20530871.016                    20530877.594    20530877.297   107890443.896 8
  84070538.291 8        51.200          49.000
  21243464.789                    21243470.781    21243470.602   111635371.229 8
  86988457.899 7        50.600          47.500
  20329099.781                    20329108.879                   106830136.089 8
  83244340.926 8        51.600          50.800
 14  1 10  1  2 30.0000000  0  6G02G14G12G29G31G25
  22840396.188                                    22840399.656   120027051.146 7
  93527639.66744        45.500          29.500
  23375343.070                                    23375350.348   122838189.877 6
  95718125.03243        41.600          20.900
  22465509.922                    22465516.383    22465515.793   118057197.382 7
  91992571.464 7        45.600          44.100
  20522487.336                    20522494.090    20522493.910   107846388.938 8
  84036209.760 8        51.100          48.500
  21234074.680                    21234080.262    21234080.258   111586026.732 8
  86950007.640 7        50.000          47.300
  20334600.664                    20334608.590                   106859039.117 8
  83266862.762 8        51.800          51.000
 14  1 10  1  3  0.0000000  0  6G02G14G12G29G31G25
  22841415.477                                    22841418.711   120032404.533 7
  93531811.15445        45.500          30.800
  23393499.148                                    23393505.488   122933599.120 6
  95792469.88543        40.500          20.100
  22482351.578                    22482357.453    22482357.508   118145700.064 7
  92061534.583 7        46.000          44.100
  20514203.320                    20514210.191    20514209.895   107802854.909 8
  84002287.144 8        51.000          48.800
  21224771.008                    21224776.473    21224776.352   111537134.708 8
  86911909.955 7        50.100          46.700
  20340178.250                    20340186.527                   106888354.043 8
  83289705.561 8        51.500          50.000
 14  1 10  1  3 30.0000000  0  6G02G14G12G29G31G25
  22842538.984                                    22842542.102   120038308.304 7
  93536411.49645        45.900          30.200
  23411704.828                                    23411710.465   123029267.166 6
  95867016.36743        41.100          20.900
  22499231.320                    22499236.492    22499236.605   118234401.071 7
  92130652.236 7        45.600          43.200
  20506019.164                    20506025.918    20506025.855   107759845.919 8
  83968773.645 8        51.500          48.600
  21215554.172                    21215559.461    21215559.457   111488700.443 8
  86874168.966 7        50.300          47.100
  20345835.711                    20345844.633                   106918083.738 8
  83312871.545 8        51.800          50.500
 14  1 10  1  4  0.0000000  0  6G02G14G12G29G31G25
  22843766.617                                    22843769.383   120044759.397 7
  93541438.33145        45.500          30.900
  23429957.453                                    23429963.734   123125188.489 6
  95941760.22843        40.900          20.900
  22516147.063                    22516153.465    22516152.816   118323296.342 7
  92199921.266 7        46.100          43.200
  20497934.164                    20497940.625    20497940.738   107717359.844 8
  83935667.620 8        51.500          48.600
  21206424.344                    21206429.164    21206429.336   111440723.016 8
  86836783.962 7        50.200          47.200
  20351571.289                    20351580.328                   106948224.812 8
  83336358.096 8        52.300          50.600
 14  1 10  1  4 30.0000000  0  6G02G14G12G29G31G25
  22845098.727                                    22845101.668   120051758.806 7
  93546892.42545        46.100          30.000
  23448258.289                                    23448264.688   123221360.877 6
  96016699.70543        41.300          20.600
  22533099.883                    22533106.109    22533105.930   118412385.229 7
  92269341.167 7        45.400          44.000
  20489948.820                    20489955.340    20489955.336   107675398.599 8
  83902970.553 8        51.500          48.900
  21197381.922                    21197387.855    21197387.734   111393204.851 8
  86799756.825 8        50.200          48.000
  20357385.688                    20357395.020                   106978777.756 8
  83360165.583 8        51.400          51.000
 14  1 10  1  5  0.0000000  0  6G02G14G12G29G31G25
  22846535.039                                    22846538.449   120059308.730 7
  93552775.48645        45.700          30.200
  23466606.586                                    23466613.629   123317783.440 6
  96091834.13643        40.600          20.600
  22550090.664                    22550096.129    22550096.242   118501669.390 7
  92338913.229 7        45.600          43.400
  20482064.977                    20482070.969    20482070.848   107633964.969 8
  83870684.617 8        51.400          48.700
  21188427.547                    21188432.953    21188433.008   111346149.871 8
  86763090.602 7        50.500          47.500
  20363278.414                    20363286.984                   107009744.137 8
  83384295.227 8        50.900          50.700
 14  1 10  1  5 30.0000000  0  6G02G14G12G29G31G25
  22848075.859                                    22848079.094   120067405.146 7
  93559084.38945        46.500          30.200
  23485001.781                                    23485008.531   123414449.628 6
  96167158.37043        40.600          19.900
  22567116.336                    22567122.680    22567122.617   118591143.431 7
  92408633.256 7        45.100          43.900
  20474279.695                    20474286.566    20474286.270   107593056.145 8
  83838807.617 8        51.500          48.500
  21179561.094                    21179566.793    21179566.906   111299556.314 8
  86726783.934 7        49.900          47.500
  20369248.750                    20369257.320                   107041119.568 8
  83408743.617 8        51.100          50.700
 14  1 10  1  6  0.0000000  0  6G02G14G12G29G31G25
  22849721.016                                    22849724.191   120076050.940 7
  93565821.37145        46.100          30.600
  23503443.352                                    23503449.926   123511359.168 6
  96242672.27143        40.800          20.100
  22584180.289                    22584185.578    22584185.457   118680809.381 7
  92478502.821 7        45.800          43.500
  20466596.195                    20466602.422    20466602.184   107552675.595 8
  83807342.259 8        50.900          48.500
  21170783.555                    21170789.430    21170789.309   111253428.849 8
  86690840.463 7        50.600          47.900
  20375297.563                    20375307.012                   107072906.302 8
  83433512.498 8        50.700          50.800
 14  1 10  1  6 30.0000000  0  6G02G14G12G29G31G25
  22851470.398                                    22851474.102   120085245.561 7
  93572986.02245        45.300          30.600
  23521930.492                                    23521937.184   123608508.719 6
  96318373.19943        40.300          19.600
  22601278.547                    22601283.953    22601283.773   118770665.336 7
  92548520.444 7        45.200          43.700
  20459012.383                    20459018.492    20459018.488   107512823.631 8
  83776288.787 8        51.300          49.000
  21162094.539                    21162100.824    21162100.703   111207768.584 8
  86655261.033 7        50.800          47.900
  20381424.594                    20381433.516                   107105103.407 8
  83458601.154 8        51.200          50.400
 14  1 10  1  7  0.0000000  0  6G02G14G12G29G31G25
  22853324.938                                    22853327.820   120094988.068 7
  93580577.58545        45.200          30.700
  23540462.359                                    23540468.465   123705894.549 6
  96394258.20743        40.000          19.000
  22618413.641                    22618419.398    22618419.453   118860709.605 7
  92618684.791 7        45.600          43.800
  20451528.828                    20451535.465    20451535.285   107473500.095 8
  83745647.082 8        50.700          49.200
  21153494.531                    21153500.172    21153500.168   111162576.292 8
  86620046.264 7        50.500          47.600
  20387628.836                    20387638.109                   107137709.471 8
  83484008.473 8        51.300          50.400
 14  1 10  1  7 30.0000000  0  6G02G14G12G29G31G25
  22855283.023                                    22855286.141   120105278.995 7
  93588596.49045        45.700          30.600
  23559039.266                                    23559045.898   123803514.544 6
  96470325.69343        39.700          19.900
  22635584.031                    22635590.258    22635590.020   118950941.625 7
  92688995.439 7        45.400          43.600
  20444147.039                    20444153.266    20444153.145   107434706.692 8
  83715418.458 8        50.900          49.500
  21144984.719                    21144990.066    21144989.945   111117854.725 8
  86585198.295 7        50.800          47.400
  20393911.672                    20393920.828                   107170724.885 8
  83509734.770 8        51.000          50.100
 14  1 10  1  8  0.0000000  0  6G02G14G12G29G31G25
  22857345.641                                    22857348.582   120116118.785 7
  93597043.08845        45.400          30.800
  23577659.688                                    23577666.438   123901366.233 6
  96546573.67243        39.900          18.600
  22652790.492                    22652796.426    22652796.246   119041360.995 7
  92759452.078 7        45.100          43.600
  20436866.039                    20436872.266    20436872.145   107396444.722 8
  83685603.944 8        51.200          48.800
  21136564.172                    21136569.871    21136569.867   111073606.273 8
  86550718.979 7        51.000          47.100
  20400272.477                    20400280.754                   107204149.491 8
  83535779.916 8        52.100          50.600
 14  1 10  1  8 30.0000000  0  6G02G14G12G29G31G25
  22859512.352                                    22859515.469   120127504.333 7
  93605914.94745        45.300          30.300
  23596323.305                                    23596329.703   123999443.868 6
  96622997.71143        39.800          19.000
  22670031.109                    22670037.336    22670037.391   119131963.751 7
  92830051.615 7        45.000          44.100
  20429685.375                    20429691.895    20429692.008   107358711.879 8
  83656201.737 8        51.700          49.000
  21128233.586                    21128239.402    21128239.457   111029829.639 8
  86516607.318 7        50.800          47.600
  20406710.086                    20406719.066                   107237979.813 8
  83562141.196 8        51.200          50.500
 14  1 10  1  9  0.0000000  0  6G02G14G12G29G31G25
  22861782.883                                    22861786.000   120139436.121 7
  93615212.44345        46.000          30.200
  23615029.328                                    23615036.078   124097745.389 6
  96699596.23443        38.800          19.600
  22687307.188                    22687313.531    22687313.645   119222749.377 7
  92900793.667 7        45.300          43.700
  20422606.359                    20422612.703    20422612.758   107321509.506 8
  83627212.883 8        51.000          49.300
  21119993.969                    21119999.316    21119999.195   110986527.678 8
  86482865.531 7        50.900          47.400
  20413225.047                    20413233.969                   107272216.252 8
  83588818.941 8        51.400          50.300
 14  1 10  1  9 30.0000000  0  6G02G14G12G29G31G25
  22864157.219                                    22864160.746   120151914.873 7
  93624936.15145        45.000          30.400
  23633777.297                                    23633783.930   124196268.517 6
  96776367.41643        38.400          18.300
  22704618.023                    22704624.191    22704624.012   119313717.978 7
  92971678.296 7        45.800          43.600
  20415628.320                    20415635.309    20415635.188   107284839.325 8
  83598638.723 8        50.700          49.500
  21111844.516                    21111850.215    21111850.387   110943702.243 8
  86449495.064 7        50.700          47.900
  20419817.563                    20419825.781                   107306858.953 8
  83615813.247 8        51.700          50.200
 14  1 10  1 10  0.0000000  0  6G02G14G12G29G31G25
  22866636.141                                    22866639.902   120164942.019 7
  93635087.16945        45.000          30.700
  23652568.125                                    23652574.523   124295011.472 6
  96853309.90243        38.800          18.300
  22721963.781                    22721970.066    22721969.594   119404869.716 7
  93042705.618 7        44.500          43.800
  20408751.727                    20408758.480    20408758.418   107248703.420 8
  83570480.876 8        50.700          49.900
  21103786.430                    21103792.363    21103792.242   110901356.840 8
  86416498.641 7        50.700          47.700
  20426487.055                    20426495.918                   107341908.860 8
  83643124.864 8        52.100          50.700
 14  1 10  1 10 30.0000000  0  6G02G14G12G29G31G25
  22869218.547                                    22869221.781   120178513.406 7
  93645662.28544        45.000          29.500
  23671398.828                                    23671405.813   124393968.408 6
  96930419.15442        38.400          17.400
  22739343.789                    22739349.664    22739349.309   119496199.779 7
  93113871.886 7        45.600          43.300
  20401976.117                    20401982.637    20401982.398   107213098.317 8
  83542736.651 8        50.800          49.600
  21095819.367                    21095824.832    21095824.828   110859489.576 8
  86383874.805 7        50.300          47.700
  20433233.336                    20433242.316                   107377361.629 8
  83670750.391 8        52.100          50.200
 14  1 10  1 11  0.0000000  0  6G02G14G12G29G31G25
  22871905.344                                    22871908.695   120192630.737 7
  93656662.80045        44.400          30.500
  23690270.047                                    23690276.621   124493137.184 6
  97007693.46243        38.400          19.300
  22756757.391                    22756763.031    22756762.910   119587708.484 7
  93185177.355 7        46.000          43.400
  20395302.180                    20395308.406    20395308.168   107178026.641 8
  83515408.075 8        51.300          49.800
  21087943.820                    21087949.637    21087949.574   110818103.644 8
  86351626.021 7        50.900          47.900
  20440056.797                    20440065.777                   107413218.339 8
  83698690.684 8        52.000          50.100
 14  1 10  1 11 30.0000000  0  6G02G14G12G29G31G25
  22874695.445                                    22874699.090   120207294.876 7
  93668089.40745        45.100          30.500
  23709181.164                                    23709187.797   124592516.755 6
  97085132.01442        37.700          17.800
  22774204.625                    22774210.676    22774210.613   119679396.480 7
  93256622.521 7        45.900          43.300
  20388730.133                    20388737.004    20388736.941   107143490.835 8
  83488497.068 8        51.000          49.800
  21080160.109                    21080166.219    21080166.098   110777202.490 8
  86319754.994 8        51.100          48.300
  20446957.164                    20446965.617                   107449480.065 8
  83726946.564 8        51.800          50.500
 14  1 10  1 12  0.0000000  0  6G02G14G12G29G31G25
  22877590.086                                    22877593.145   120222503.760 7
  93679940.48145        45.300          30.700
  23728132.352                                    23728139.043   124692102.318 6
  97162731.06443        37.800          18.600
  22791685.516                    22791691.918    22791691.680   119771261.063 7
  93328205.293 7        45.700          43.400
  20382260.047                    20382266.039    20382266.035   107109489.344 8
  83462002.399 8        51.200          49.300
  21072469.516                    21072474.453    21072474.449   110736785.602 8
  86288261.320 7        50.700          47.500
  20453934.016                    20453942.938                   107486144.312 8
  83755516.105 8        52.000          50.600
 14  1 10  1 12 30.0000000  0  6G02G14G12G29G31G25
  22880588.055                                    22880591.816   120238257.496 7
  93692216.12445        44.800          31.200
  23747121.063                                    23747128.105   124791891.690 6
  97240488.96142        37.300          17.400
  22809200.367                    22809206.594    22809206.590   119863301.480 7
  93399925.079 7        45.300          43.300
  20375892.063                    20375898.230    20375898.402   107076023.183 8
  83435924.878 8        51.600          49.600
  21064870.953                    21064877.121    21064876.766   110696855.161 8
  86257146.690 8        51.400          48.000
  20460987.906                    20460996.945                   107523210.961 8
  83784399.207 8        51.700          50.500
 14  1 10  1 13  0.0000000  0  6G02G14G12G29G31G25
  22883688.719                                    22883692.715   120254555.429 7
  93704915.81245        44.900          30.000
  23766148.781                                    23766156.176   124891881.338 6
  97318402.87742        36.300          16.900
  22826748.094                    22826754.320    22826754.258   119955515.781 7
  93471780.349 7        45.300          43.700
  20369625.266                    20369631.551    20369631.430   107043092.522 8
  83410264.628 8        50.900          49.100
  21057365.461                    21057370.809    21057370.980   110657412.603 8
  86226412.228 8        50.600          48.300
  20468117.734                    20468126.598                   107560678.955 8
  83813595.041 8        52.100          50.400
 14  1 10  1 13 30.0000000  0  6G02G14G12G29G31G25
  22886894.406                                    22886897.582   120271397.772 7
  93718039.70945        44.700          30.900
  23785212.734                                    23785220.363   124992068.814 6
  97396470.99642        37.800          16.900
  22844329.063                    22844335.465    22844335.168   120047903.780 7
  93543770.956 7        45.400          44.100
  20363461.313                    20363467.598    20363467.535   107010698.594 8
  83385022.609 8        51.100          49.200
  21049952.969                    21049958.375    21049958.371   110618460.257 8
  86196059.752 8        50.700          48.200
  20475324.086                    20475332.480                   107598548.484 8
  83843103.762 8        51.700          50.800
 14  1 10  1 14  0.0000000  0  6G02G14G12G29G31G25
  22890202.000                                    22890205.879   120288781.636 7
  93731585.57145        44.600          30.500
  23804315.727                                    23804322.945   125092448.592 6
  97474688.92442        36.100          17.400
  22861942.422                    22861948.531    22861948.586   120140462.473 7
  93615894.580 7        45.100          43.600
  20357398.383                    20357404.844    20357404.547   106978839.368 8
  83360197.247 8        51.600          49.600
  21042633.836                    21042639.418    21042639.355   110579997.075 8
  86166088.438 7        50.600          47.900
  20482605.695                    20482615.203                   107636816.396 8
  83872922.909 8        51.500          50.500
 14  1 10  1 14 30.0000000  0  6G02G14G12G29G31G25
  22893613.633                                    22893617.629   120306709.652 7
  93745555.46545        44.500          31.200
  23823453.906                                    23823461.301   125193020.818 6
  97553056.80342        37.700          17.400
  22879588.047                    22879594.742    22879594.563   120233193.420 7
  93688152.425 7        45.000          43.400
  20351437.938                    20351444.223    20351444.277   106947518.139 8
  83335791.090 8        51.700          49.600
  21035408.148                    21035413.613    21035413.668   110542027.485 8
  86136501.743 7        50.600          47.400
  20489964.648                    20489973.805                   107675484.897 8
  83903054.204 8        51.600          50.600
 14  1 10  1 15  0.0000000  0  6G02G14G12G29G31G25
  22897128.570                                    22897132.156   120325179.571 7
  93759947.60645        45.100          31.200
  23842628.203                                    23842635.070   125293781.237 6
  97631571.33542        37.300          16.900
  22897267.070                    22897273.590    22897273.527   120326093.950 7
  93760542.420 7        44.300          43.500
  20345579.945                    20345586.172    20345585.992   106916733.735 8
  83311803.250 8        51.300          50.000
  21028277.125                    21028282.121    21028282.293   110504551.538 8
  86107299.702 8        50.800          48.000
  20497398.766                    20497407.805                   107714551.849 8
  83933495.974 8        52.100          50.000
 14  1 10  1 15 30.0000000  0  6G02G14G12G29G31G25
  22900746.266                                    22900750.262   120344192.467 7
  93774762.84745        45.100          30.700
  23861837.211                                    23861844.547   125394727.759 6
  97710230.90642        36.900          16.900
  22914977.758                    22914983.750    22914983.688   120419163.642 7
  93833064.228 7        44.400          43.000
  20339824.328                    20339830.730    20339830.785   106886488.479 8
  83288235.520 8        51.300          49.800
  21021239.852                    21021245.668    21021245.605   110467572.186 8
  86078484.626 7        50.900          47.800
  20504908.703                    20504917.918                   107754017.885 8
  83964248.728 8        51.500          50.400
 14  1 10  1 16  0.0000000  0  6G02G14G12G29G31G25
  22904467.750                                    22904471.160   120363746.242 7
  93789999.55645        45.000          31.000
  23881082.125                                    23881088.875   125495855.952 6
  97789031.99742        37.100          16.300
  22932719.758                    22932726.512    22932726.332   120512400.605 7
  93905716.377 7        43.700          43.600
  20334171.164                    20334177.273    20334177.387   106856780.623 8
  83265086.548 8        50.600          49.300
  21014297.563                    21014303.320    21014303.199   110431089.466 8
  86050056.530 8        50.900          48.300
  20512494.422                    20512503.402                   107793880.796 8
  83995310.729 8        52.000          51.200
 14  1 10  1 16 30.0000000  0  6G02G14G12G29G31G25
  22908291.953                                    22908295.129   120383841.217 7
  93805657.97645        45.300          31.200
  23900360.703                                    23900366.809   125597163.942 6
  97867973.23342        38.600          17.800
  22950494.859                    22950500.559    22950500.730   120605804.584 7
  93978498.667 7        43.400          43.300
  20328620.906                    20328627.426    20328627.246   106827611.843 8
  83242357.629 8        50.900          49.800
  21007449.828                    21007455.469    21007455.465   110395105.745 8
  86022017.261 8        50.800          48.600
  20520156.172                    20520165.035                   107834140.966 8
  84026682.290 8        51.900          50.600
 14  1 10  1 17  0.0000000  0  6G02G14G12G29G31G25
  22912217.641                                    22912221.168   120404473.998 7
  93821735.46345        45.000          30.400
  23919672.070                                    23919678.703   125698645.916 6
  97947050.04242        38.900          17.400
  22968299.523                    22968305.516    22968305.395   120699371.670 7
  94051408.054 7        43.500          42.900
  20323172.047                    20323178.449    20323178.211   106798979.765 8
  83220046.925 8        50.800          50.000
  21000697.477                    21000702.707    21000702.645   110359619.834 8
  85994365.906 8        50.600          48.400
  20527892.164                    20527901.145                   107874794.945 8
  84058360.710 8        52.100          50.200
 14  1 10  1 17 30.0000000  0  6G02G14G12G29G31G25
  22916246.844                                    22916250.313   120425647.537 7
  93838234.33245        45.500          30.500
  23939016.516                                    23939022.914   125800302.301 6
  98026262.73842        38.700          16.900
  22986136.031                    22986142.375    22986142.371   120793103.929 7
  94124446.150 7        43.800          42.500
  20317826.617                    20317832.844    20317832.898   106770888.138 8
  83198157.341 8        51.000          50.300
  20994040.266                    20994045.672    20994045.844   110324636.645 8
  85967106.271 8        50.800          48.100
  20535703.711                    20535712.633                   107915845.391 8
  84090348.074 8        52.000          50.700
 14  1 10  1 18  0.0000000  0  6G02G14G12G29G31G25
  22920379.391                                    22920381.980   120447360.436 7
  93855153.47545        46.100          31.300
  23958393.195                                    23958400.766   125902129.572 6
  98105608.62642        37.700          16.300
  23004003.742                    23004009.910    23004009.848   120886999.821 7
  94197611.748 7        44.600          42.700
  20312583.484                    20312589.535    20312589.707   106743336.478 8
  83176688.520 8        51.100          50.200
  20987479.219                    20987484.625    20987484.738   110290157.094 8
  85940239.087 8        50.300          48.100
  20543590.484                    20543599.465                   107957291.009 8
  84122643.361 8        52.200          50.400
 14  1 10  1 18 30.0000000  0  6G02G14G12G29G31G25
  22924612.555                                    22924615.848   120469608.415 7
  93872489.56345        45.200          31.200
  23977801.570                                    23977808.789   126004120.394 6
  98185081.90642        39.400          16.300
  23021901.875                    23021907.867    23021907.805   120981053.734 7
  94270900.485 7        44.500          42.500
  20307442.461                    20307448.570    20307448.391   106716321.143 8
  83155637.611 8        50.800          50.200
  20981012.820                    20981018.461    20981018.516   110256178.520 8
  85913762.278 8        50.900          48.200
  20551551.633                    20551560.613                   107999127.054 8
  84155242.873 8        51.600          50.200
 14  1 10  1 19  0.0000000  0  6G02G14G12G29G31G25
  22928948.867                                    22928952.043   120492396.365 7
  93890246.40845        45.400          30.600
  23997241.852                                    23997249.129   126106277.638 6
  98264684.87242        38.900          16.300
  23039830.523                    23039836.633    23039836.512   121075270.955 7
  94344316.485 7        45.200          42.500
  20302404.859                    20302411.379    20302411.375   106689848.185 8
  83135009.334 8        51.400          50.400
  20974643.680                    20974649.027    20974649.023   110222708.216 8
  85887681.516 8        50.200          48.200
  20559588.063                    20559597.043                   108041358.565 8
  84188150.542 8        51.600          50.600
 14  1 10  1 19 30.0000000  0  6G02G14G12G29G31G25
  22933387.445                                    22933390.152   120515719.678 7
  93908420.42445        44.900          31.500
  24016712.805                                    24016719.086   126208594.869 6
  98344412.53242        38.600          16.300
  23057789.477                    23057796.113    23057795.992   121169646.528 7
  94417855.875 6        45.200          41.800
  20297469.938                    20297476.457    20297476.102   106663914.110 8
  83114800.969 8        52.100          49.800
  20968370.508                    20968375.797    20968375.910   110189743.433 8
  85861994.674 8        50.000          48.000
  20567698.664                    20567707.469                   108083980.976 8
  84221362.814 8        51.200          49.700
 14  1 10  1 20  0.0000000  0  6G02G14G12G29G31G25
  22937927.883                                    22937930.941   120539581.384 7
  93927013.96245        45.800          31.200
  24036212.258                                    24036219.418   126311072.018 6
  98424264.74642        38.000          17.400
  23075779.422                    23075785.531    23075785.410   121264182.299 7
  94491520.098 6        44.900          41.400
  20292638.648                    20292644.289    20292644.227   106638522.589 8
  83095015.369 8        51.300          50.100
  20962195.086                    20962201.195    20962201.191   110157289.440 8
  85836705.851 7        50.200          47.900
  20575884.703                    20575893.508                   108126997.116 8
  84254881.882 8        52.100          50.300
 14  1 10  1 20 30.0000000  0  6G02G14G12G29G31G25
  22942570.469                                    22942573.703   120563976.981 7
  93946023.52044        45.600          29.700
  24055742.656                                    24055749.992   126413702.692 6
  98504236.64342        37.600          16.300
  23093798.367                    23093804.887    23093804.648   121358873.772 7
  94565305.631 6        44.800          41.400
  20287908.656                    20287914.707    20287914.762   106613670.123 8
  83075649.817 8        51.500          50.700
  20956115.922                    20956121.445    20956121.441   110125343.912 8
  85811813.235 8        50.100          48.100
  20584144.258                    20584153.063                   108170402.500 8
  84288704.252 8        52.200          50.000
 14  1 10  1 21  0.0000000  0  6G02G14G12G29G31G25
  22947314.391                                    22947317.684   120588907.514 7
  93965449.91045        45.600          30.400
  24075301.797                                    24075308.781   126516485.121 6
  98584326.79742        38.400          16.300
  23111847.859                    23111853.793    23111853.906   121453721.181 7
  94639212.692 7        44.200          42.100
  20283282.234                    20283288.402    20283288.516   106589358.399 8
  83056705.623 8        51.300          50.200
  20950133.859                    20950140.262    20950140.082   110093909.559 8
  85787318.931 8        50.000          48.100
  20592478.453                    20592486.789                   108214197.885 8
  84322830.522 8        52.000          50.700
 14  1 10  1 21 30.0000000  0  6G02G14G12G29G31G25
  22952160.078                                    22952163.371   120614372.269 7
  93985292.57945        45.000          30.200
  24094888.875                                    24094896.211   126619417.142 6
  98664533.50942        36.400          15.600
  23129925.563                    23129931.789    23129931.551   121548724.509 7
  94713241.224 6        43.400          41.200
  20278759.063                    20278765.465    20278765.227   106565588.216 8
  83038183.402 8        51.200          50.400
  20944249.977                    20944255.324    20944255.379   110062988.339 8
  85763224.474 8        50.700          48.000
  20600886.406                    20600895.445                   108258383.110 8
  84357260.570 8        51.700          49.800
 14  1 10  1 22  0.0000000  0  6G02G14G12G29G31G25
  22957107.055                                    22957110.465   120640368.483 7
  94005549.38045        45.000          30.700
  24114503.695                                    24114511.734   126722493.404 6
  98744852.68642        36.500          16.900
  23148033.992                    23148039.340    23148039.570   121643880.127 7
  94787388.429 6        43.600          41.100
  20274338.469                    20274344.930    20274344.867   106542357.569 8
  83020081.608 8        51.100          51.000
  20938463.555                    20938468.961    20938468.957   110032579.670 8
  85739529.410 7        50.200          47.800
  20609367.930                    20609376.910                   108302955.268 8
  84391992.111 8        51.500          49.700
 14  1 10  1 22 30.0000000  0  6G02G14G12G29G31G25
  22962155.141                                    22962158.609   120666897.732 7
  94026221.51744        44.500          29.400
  24134145.578                                    24134153.793   126825713.340 5
  98825283.74242        35.900          15.600
  23166170.852                    23166176.727    23166175.902   121739189.052 7
  94861655.094 6        43.800          41.400
  20270021.016                    20270027.477    20270027.355   106519668.932 8
  83002402.146 8        51.100          50.500
  20932775.297                    20932780.762    20932780.875   110002686.614 8
  85716236.121 8        50.800          48.300
  20617923.750                    20617932.906                   108347915.805 8
  84427026.295 8        51.700          49.300
 14  1 10  1 23  0.0000000  0  6G02G14G12G29G31G25
  22967305.305                                    22967308.949   120693959.541 7
  94047308.64344        44.600          29.300
  24153814.516                                    24153822.320   126929074.449 5
  98905824.80042        35.800          15.600
  23184336.258                    23184341.723    23184341.602   121834650.665 7
  94936040.734 6        42.800          41.000
  20265806.586                    20265812.695    20265812.809   106497523.002 8
  82985145.581 8        51.700          50.500
  20927185.109                    20927190.457    20927190.395   109973311.133 8
  85693346.135 8        50.400          48.300
  20626553.039                    20626562.723                   108393264.395 8
  84462362.850 8        51.100          49.600
 14  1 10  1 23 30.0000000  0  6G02G14G12G29G31G25
  22972556.180                                    22972558.945   120721552.624 7
  94068809.76745        44.300          30.200
  24173510.016                                    24173517.996   127032572.987 5
  98986472.94342        35.700          14.800
  23202530.664                    23202536.656    23202536.184   121930263.197 7
  95010543.972 6        43.400          41.300
  20261695.734                    20261701.785    20261701.840   106475919.185 8
  82968311.441 8        52.200          50.500
  20921693.688                    20921699.328    20921699.324   109944454.379 8
  85670860.351 8        50.600          48.000
  20635256.547                    20635265.293                   108438999.800 8
  84498000.825 8        52.000          50.200
 14  1 10  1 24  0.0000000  0  6G02G14G12G29G31G25
  22977907.000                                    22977910.527   120749674.507 7
  94090722.92045        43.900          30.200
  24193230.875                                    24193238.387   127136204.559 6
  99067224.81342        36.100          14.800
  23220753.430                    23220759.246    23220759.008   122026024.070 7
  95085162.805 6        42.600          40.700
  20257687.156                    20257693.852    20257693.672   106454855.815 8
  82951898.428 8        51.500          50.800
  20916301.250                    20916307.066    20916306.945   109916115.735 8
  85648778.294 8        50.400          48.200
  20644033.227                    20644042.383                   108485119.629 8
  84533938.354 8        51.500          50.100
 14  1 10  1 24 30.0000000  0  6G02G14G12G29G31G25
  22983359.664                                    22983363.016   120778326.933 7
  94113049.48244        43.400          29.900
  24212977.109                                    24212984.094   127239968.659 5
  99148079.97042        35.000          13.900
  23239004.289                    23239010.867    23239010.629   122121934.958 7
  95159898.536 6        42.800          41.100
  20253782.734                    20253789.020    20253789.016   106434336.020 8
  82935908.979 8        51.200          50.700
  20911008.102                    20911013.859    20911013.680   109888299.537 8
  85627103.339 8        49.800          48.000
  20652882.844                    20652891.766                   108531626.004 8
  84570177.080 8        51.800          50.300
 14  1 10  1 25  0.0000000  0  6G02G14G12G29G31G25
  22988912.219                                    22988915.629   120807505.952 7
  94135786.38545        43.900          30.000
  24232745.641                                    24232754.441   127343859.189 5
  99229033.56842        35.200          13.900
  23257283.250                    23257289.359    23257289.531   122217991.454 7
  95234747.719 6        42.300          41.300
  20249980.289                    20249986.750    20249986.688   106414356.082 8
  82920340.202 8        51.700          50.900
  20905813.320                    20905819.020    20905818.898   109861003.325 8
  85605833.558 8        50.700          48.300
  20661805.383                    20661814.656                   108578514.715 8
  84606713.737 8        51.100          50.100
 14  1 10  1 25 30.0000000  0  7G02G14G12G29G21G31G25
  22994564.930                                    22994568.750   120837212.517 7
  94158934.35344        43.600          29.900
  24252539.656                                    24252547.578   127447875.182 5
  99310084.90542        33.700          12.600
  23275590.609                    23275596.309    23275596.188   122314194.975 7
  95309711.453 6        42.900          40.800
  20246281.625                    20246288.027    20246288.082   106394918.932 8
  82905194.371 8        51.900          50.600
  25365878.945                                                   133298550.276 5
                        31.600
  20900718.953                    20900724.066    20900724.180   109834230.535 8
  85584971.649 8        50.200          48.500
  20670801.055                    20670810.621                   108625786.965 8
  84643549.256 8        51.700          49.600
 14  1 10  1 26  0.0000000  0  7G02G14G12G29G21G31G25
  23000318.305                                    23000321.832   120867445.594 7
  94182492.59944        44.700          29.700
  24272356.234                                    24272364.273   127552013.385 5
  99391231.64142        34.700          13.900
  23293924.531                    23293930.523    23293930.578   122410543.625 7
  95384788.288 6        42.200          40.600
  20242686.219                    20242692.738    20242692.500   106376024.061 8
  82890471.097 8        51.800          50.700
  25347025.023                                                   133199472.166 5
                        32.800
  20895723.906                    20895729.254    20895729.367   109807982.271 8
  85564518.453 7        49.700          47.900
  20679869.578                    20679879.086                   108673441.782 8
  84680682.870 8        51.500          49.500
 14  1 10  1 26 30.0000000  0  7G02G14G12G29G21G31G25
  23006171.305                                    23006174.773   120898204.038 7
  94206460.21845        44.300          30.200
  24292196.531                                    24292204.980   127656270.617 5
  99472470.94642        33.900          14.800
  23312286.742                    23312292.910    23312292.496   122507036.400 7
  95459977.412 6        42.200          41.200
  20239193.750                    20239200.504    20239200.383   106357671.385 8
  82876170.314 8        52.100          50.800
  25328168.297                                                   133100378.427 5
                        32.300
  20890829.180                    20890834.703    20890834.641   109782259.892 8
  85544475.040 8        51.000          48.100
  20689010.320                    20689019.066                   108721478.412 8
  84718114.008 8        51.700          49.900
 14  1 10  1 27  0.0000000  0  7G02G14G12G29G21G31G25
  23012124.617                                    23012127.969   120929487.296 7
  94230836.78245        43.200          30.400
  24312057.969                                    24312065.656   127760644.048 5
  99553800.86542        34.600          14.800
  23330676.375                    23330682.719    23330682.598   122603672.135 7
  95535277.942 6        42.800          41.500
  20235804.508                    20235810.969    20235810.906   106339860.906 8
  82862292.023 8        52.000          50.400
  25309308.273                                                   133001271.142 5
                        32.400
  20886034.844                    20886040.543    20886040.363   109757064.310 8
  85524842.122 8        50.000          48.700
  20698224.367                    20698232.879                   108769896.055 8
  84755842.034 8        51.400          49.600
 14  1 10  1 27 30.0000000  0  7G02G14G12G29G21G31G25
  23018176.125                                    23018180.355   120961293.283 7
  94255620.66844        43.100          29.800
  24331939.898                                                   127865129.714 5
                        35.100
  23349092.172                    23349098.574    23349098.453   122700448.814 7
  95610688.297 6        42.000          41.200
  20232518.242                    20232524.469    20232524.406   106322591.231 8
  82848835.130 8        52.100          50.200
  25290447.367                                                   132902151.956 5
                        31.800
  20881340.297                    20881345.938    20881345.875   109732395.725 8
  85505619.843 8        49.900          48.200
  20707510.000                    20707518.922                   108818692.799 8
  84793865.468 8        51.400          49.900
 14  1 10  1 28  0.0000000  0  7G02G14G12G29G21G31G25
  23024329.453                                    23024332.395   120993620.608 7
  94280810.78245        43.800          30.900
  24351843.594                                                   127969724.551 5
                        34.800
  23367534.836                    23367540.945    23367540.883   122797365.448 7
  95686207.703 6        43.200          41.300
  20229334.680                    20229341.023    20229341.020   106305862.519 8
  82835799.772 8        51.900          50.500
  25271581.875                                                   132803022.755 5
                        32.300
  20876746.289                    20876752.398    20876752.043   109708255.322 8
  85486809.140 8        50.700          48.800
  20716867.609                    20716876.355                   108867867.805 8
  84832183.652 8        51.400          49.500
 14  1 10  1 28 30.0000000  0  7G02G14G12G29G21G31G25
  23030579.563                                    23030583.266   121026470.066 7
  94306407.75845        44.500          30.200
  24371769.109                                                   128074427.412 5
                        35.100
  23386003.539                    23386010.469    23386010.055   122894422.609 7
  95761836.604 6        42.500          41.100
  20226254.836                    20226261.063    20226261.000   106289676.614 8
  82823187.383 8        52.100          50.500
  25252718.930                                                   132703887.488 5
                        33.700
  20872253.836                    20872259.711    20872259.590   109684645.989 8
  85468412.256 8        50.700          48.700
  20726297.625                    20726307.074                   108917421.985 8
  84870797.297 8        51.900          49.600
 14  1 10  1 29  0.0000000  0  7G02G14G12G29G21G31G25
  23036929.484                                    23036933.070   121059838.564 7
  94332409.18245        44.600          30.400
  24391711.148                                                   128179232.766 5
                        34.800
  23404499.719                    23404506.063    23404505.883   122991616.659 7
  95837572.194 6        42.700          41.400
  20223277.414                    20223284.109    20223284.105   106274030.806 8
  82810995.843 8        52.100          50.700
  25233853.688                                                   132604745.900 5
                        33.800
  20867862.297                    20867867.996    20867867.934   109661566.662 8
  85450428.366 8        50.700          48.300
  20735798.961                    20735807.824                   108967352.309 8
  84909704.039 8        51.400          49.700
 14  1 10  1 29 30.0000000  0  7G02G14G12G29G21G31G25
  23043377.781                                    23043381.895   121093727.349 7
  94358816.02645        43.900          30.600
  24411675.414                                                   128284140.304 5
                        35.000
  23423021.180                    23423027.875    23423028.105   123088949.146 7
  95913415.676 6        43.000          41.100
  20220403.383                    20220409.961    20220409.781   106258927.732 8
  82799227.219 8        51.900          50.800
  25214985.500                                                   132505602.956 5
                        33.400
  20863572.031                    20863577.320    20863577.199   109639020.789 8
  85432860.152 8        50.200          49.000
  20745371.961                    20745381.176                   109017660.390 8
  84948905.139 8        51.800          49.500
 14  1 10  1 30  0.0000000  0  7G02G14G12G29G21G31G25
  23049925.594                                    23049929.063   121128134.179 7
  94385626.53845        44.900          31.900
  24431657.305                                                   128389146.053 5
                        35.200
  23441569.156                    23441576.086    23441576.082   123186417.661 7
  95989365.136 6        42.100          41.500
  20217632.234                    20217639.105    20217638.926   106244366.432 8
  82787880.754 8        51.900          50.500
  25196118.742                                                   132406460.09515
                        33.900
  20859382.977                    20859388.266    20859387.969   109617008.277 8
  85415707.539 8        50.400          48.800
  20755016.961                    20755026.176                   109068344.284 8
  84988399.077 8        51.100          49.600
 14  1 10  1 30 30.0000000  0  7G02G14G12G29G21G31G25
  23056571.367                                    23056574.836   121163055.626 7
  94412838.04245        44.400          30.100
  24451657.305                                                   128494244.434 5
                        34.300
  23460142.391                    23460148.383    23460148.672   123284019.021 7
  96065418.110 6        42.600          41.700
  20214964.320                    20214970.723    20214970.543   106230343.975 8
  82776954.161 8        52.200          49.800
  25177253.930                                                   132307315.707 5
                        34.600
  20855295.727                    20855300.664    20855300.777   109595528.195 8
  85398969.816 8        50.900          48.700
  20764732.563                    20764741.836                   109119400.612 8
  85028183.218 8        51.500          49.500
 14  1 10  1 31  0.0000000  0  7G02G14G12G29G21G31G25
  23063314.211                                    23063317.680   121198492.077 7
  94440450.86945        44.900          30.900
  24471673.219                                                   128599434.313 5
                        33.700
  23478741.375                    23478747.484    23478747.539   123381753.751 6
  96141575.022 6        41.600          41.600
  20212398.609                    20212404.602    20212404.422   106216861.903 8
  82766448.655 8        52.100          50.300
  25158387.688                                                   132208174.900 5
                        34.300
  20851309.727                    20851315.133    20851315.129   109574582.997 8
  85382648.879 8        50.800          48.800
  20774519.328                    20774528.602                   109170830.253 8
  85068258.262 8        51.900          49.800
 14  1 10  1 31 30.0000000  0  7G02G14G12G29G21G31G25
  23070156.508                                    23070159.918   121234446.694 7
  94468467.44945        44.600          30.700
  24491708.742                                                   128704716.540 5
                        33.400
  23497364.547                    23497371.066    23497371.004   123479624.954 6
  96217838.276 6        40.800          41.200
  20209936.844                    20209943.070    20209943.066   106203924.453 8
  82756367.524 8        51.500          50.300
  25139523.555                                                   132109044.559 5
                        34.200
  20847426.688                    20847432.445    20847432.148   109554177.893 8
  85366748.801 8        51.300          49.000
  20784377.461                    20784386.676                   109222636.751 8
  85108626.959 8        50.900          49.800
 14  1 10  1 32  0.0000000  0  7G02G14G12G29G21G31G25
  23077095.320                                    23077099.492   121270913.666 7
  94496883.26945        45.100          30.000
  24511761.094                                                   128810083.539 5
                        33.100
  23516014.250                    23516020.418    23516020.063   123577626.817 6
  96294203.342 6        41.100          40.900
  20207577.406                    20207583.926    20207583.922   106191526.397 8
  82746706.704 8        51.500          50.400
  25120661.852                                                   132009921.662 5
                        34.600
  20843645.695                    20843651.219    20843651.156   109534309.173 8
  85351266.680 8        51.600          48.100
  20794306.805                    20794315.492                   109274814.237 8
  85149284.733 8        51.100          49.100
 14  1 10  1 32 30.0000000  0  7G02G14G12G29G21G31G25
  23084132.781                                    23084136.660   121307893.065 7
  94525698.38345        44.900          31.200
  24531826.234                                                   128915533.547 5
                        33.600
  23534688.070                    23534694.473    23534694.176   123675758.916 6
  96370669.871 6        41.700          41.000
  20205320.906                    20205327.250    20205327.305   106179668.688 8
  82737466.936 8        51.600          50.800
  25101799.914                                                   131910809.432 5
                        33.700
  20839967.414                    20839973.172    20839972.934   109514979.013 8
  85336204.219 8        50.500          48.900
  20804306.695                    20804315.441                   109327363.106 8
  85190231.901 8        51.400          49.600
 14  1 10  1 33  0.0000000  0  7G02G14G12G29G21G31G25
  23091266.367                                    23091270.305   121345383.466 7
  94554911.68144        45.000          29.700
  24551908.305                                                   129021063.439 5
                        33.500
  23553387.008                    23553393.059    23553392.762   123774020.757 6
  96447237.508 6        41.700          40.900
  20203167.266                    20203173.492    20203173.605   106168351.028 8
  82728647.984 8        51.800          50.400
  25082943.469                                                   131811709.601 5
                        34.000
  20836391.367                    20836396.891    20836396.887   109496188.251 8
  85321562.066 8        51.700          48.800
  20814377.016                    20814385.469                   109380282.395 8
  85231467.703 8        50.600          49.500
 14  1 10  1 33 30.0000000  0  7G02G14G12G29G21G31G25
  23098498.055                                    23098501.172   121383384.575 7
  94584522.93345        44.300          30.400
  24572005.219                                                   129126671.144 5
                        32.900
  23572109.008                    23572115.410    23572115.289   123872411.730 7
  96523905.776 6        42.200          40.600
  20201116.094                    20201122.730    20201122.785   106157573.959 8
  82720250.267 8        52.300          51.000
  25064087.375                                                   131712626.045 5
                        35.000
  20832918.242                    20832924.527    20832924.582   109477939.033 8
  85307341.893 8        51.500          48.700
  20824517.375                    20824526.414                   109433572.028 8
  85272992.089 8        50.400          49.300
 14  1 10  1 34  0.0000000  0  7G02G14G12G29G21G31G25
  23105826.484                                    23105830.129   121421893.311 7
  94614529.74045        45.200          30.900
  24592113.703                                                   129232352.066 5
                        32.000
  23590857.211                    23590863.613    23590863.668   123970928.770 7
  96600672.272 6        42.500          40.900
  20199168.359                    20199174.645    20199174.348   106147335.632 8
  82712272.347 8        51.600          51.200
  25045235.633                                                   131613559.267 5
                        35.100
  20829548.727                    20829554.602    20829554.598   109460230.551 8
  85293543.074 8        51.600          48.900
  20834728.367                    20834737.230                   109487229.513 8
  85314803.115 8        50.000          49.100
 14  1 10  1 34 30.0000000  0  7G02G14G12G29G21G31G25
  23113251.109                                    23113254.285   121460910.337 7
  94644932.61245        45.000          30.500
  24612238.289                                                   129338105.123 5
                        32.400
  23609628.359                    23609634.527    23609634.641   124069573.463 7
  96677538.240 6        43.400          40.500
  20197322.633                    20197329.094    20197329.031   106137638.166 8
  82704715.890 8        51.400          51.200
  25026387.953                                                   131514513.833 5
                        35.500
  20826282.461                    20826288.512    20826288.332   109443065.473 8
  85280167.692 8        50.800          49.200
  20845009.023                    20845018.238                   109541255.894 8
  85356901.589 8        49.700          49.700
 14  1 10  1 35  0.0000000  0  7G02G14G12G29G21G31G25
  23120772.195                                    23120775.195   121500433.054 7
  94675729.52645        44.300          30.400
  24632375.609                                                   129443925.764 5
                        31.900
  23628424.164                    23628429.805    23628429.684   124168342.894 7
  96754501.410 6        43.300          40.100
  20195579.984                    20195586.504    20195586.617   106128479.129 8
  82697578.975 8        51.600          51.000
  25007544.656                                    25007551.172   131415489.431 5
 102401733.94942        35.700          16.300
  20823119.688                    20823125.094    20823125.031   109426443.237 8
  85267215.295 8        51.300          48.800
  20855359.695                    20855368.559                   109595648.755 8
  85399285.638 8        49.400          49.500
 14  1 10  1 35 30.0000000  0  7G02G14G12G29G21G31G25
  23128389.438                                    23128392.320   121540461.167 7
  94706920.25845        44.200          30.000
  24652524.914                                                   129549812.548 5
                        31.500
  23647243.203                    23647248.316    23647248.547   124267237.160 7
  96831561.858 6        43.900          39.800
  20193939.688                    20193946.383    20193946.145   106119859.867 8
  82690862.673 8        51.700          51.100
  24988706.094                                    24988712.668   131316490.366 5
 102324591.79742        35.200          16.900
  20820059.828                    20820065.410    20820065.406   109410366.426 8
  85254687.906 8        51.200          48.700
  20865779.945                    20865789.746                   109650408.635 8
  85441955.667 8        49.700          49.300
 14  1 10  1 36  0.0000000  0  7G02G14G12G29G21G31G25
  23136101.789                                    23136105.609   121580993.691 7
  94738504.04445        44.700          30.200
  24672686.766                                                   129655762.157 5
                        32.200
  23666085.555                    23666091.371    23666091.133   124366255.087 7
  96908718.673 6        43.400          40.200
  20192402.102                    20192408.738    20192408.617   106111779.681 8
  82684566.428 8        51.400          50.700
  24969871.977                                    24969879.254   131217518.395 6
 102247470.84142        36.300          15.600
  20817104.547                    20817110.422    20817110.242   109394835.432 8
  85242585.836 8        50.800          48.800
  20876270.234                    20876279.156                   109705534.266 8
  85484910.705 8        49.700          49.100
 14  1 10  1 36 30.0000000  0  7G02G14G12G29G21G31G25
  23143910.211                                    23143913.914   121622026.780 7
  94770477.88245        44.100          30.500
  24692858.609                                                   129761769.307 5
                        32.000
  23684950.820                    23684956.637    23684956.750   124465393.053 7
  96985969.018 6        43.300          40.000
  20190966.484                    20190972.711    20190972.766   106104235.902 8
  82678688.156 8        51.400          51.000
  24951044.438                                    24951051.129   131118573.205 6
 102170370.78442        36.200          15.600
  20814252.789                    20814258.430    20814258.309   109379848.481 8
  85230907.691 8        51.200          48.900
  20886829.109                    20886838.500                   109761022.280 8
  85528148.113 8        49.400          49.700
 14  1 10  1 37  0.0000000  0  7G02G14G12G29G21G31G25
  23151814.336                                    23151818.156   121663562.633 7
  94802843.47044        45.000          29.800
  24713043.578                                                   129867834.652 5
                        32.900
  23703839.703                    23703845.695    23703845.398   124564653.755 7
  97063314.996 6        42.700          39.800
  20189634.008                    20189640.703    20189640.523   106097231.975 8
  82673230.559 8        51.300          50.700
  24932220.430                                    24932228.469   131019660.960 6
 102093296.35742        36.700          16.300
  20811505.320                    20811511.254    20811511.074   109365410.466 8
  85219657.286 8        51.300          48.400
  20897457.695                    20897466.793                   109816875.559 8
  85571670.143 8        48.500          49.500
 14  1 10  1 37 30.0000000  0  7G02G14G12G29G21G31G25
  23159813.758                                    23159817.109   121705597.702 7
  94835598.07945        44.900          30.000
  24733237.969                                                   129973953.13115
                        32.900
  23722750.648                    23722756.406    23722756.461   124664033.639 7
  97140753.850 6        42.600          39.400
  20188403.398                    20188409.801    20188409.738   106090764.800 8
  82668191.204 8        50.800          50.900
  24913404.344                                    24913412.148   130920781.259 5
 102016247.27942        35.700          14.800
  20808862.367                    20808868.066    20808867.945   109351519.939 8
  85208833.496 8        51.100          48.600
  20908155.422                    20908164.051                   109873090.836 8
  85615474.255 8        48.400          49.400
 14  1 10  1 38  0.0000000  0  7G02G14G12G29G21G31G25
  23167907.047                                    23167910.516   121748131.890 7
  94868741.60045        44.300          30.400
  24753440.422                                                   130080123.021 5
                        31.300
  23741685.008                    23741690.590    23741690.820   124763533.126 7
  97218285.896 6        43.800          39.800
  20187274.773                    20187281.352    20187281.289   106084835.938 8
  82663571.311 8        51.300          51.300
  24894595.969                                    24894602.191   130821938.325 6
 101939226.84542        36.800          16.900
  20806323.422                    20806329.004    20806329.000   109338179.109 8
  85198438.049 8        51.100          48.900
  20918921.828                    20918930.926                   109929668.725 8
  85659560.917 8        48.900          49.600
 14  1 10  1 38 30.0000000  0  7G02G14G12G29G21G31G25
  23176095.852                                    23176099.848   121791164.786 7
  94902273.71944        45.100          28.200
  24773650.461                                                   130186342.32214
                        29.400
  23760641.258                    23760648.129    23760647.891   124863152.194 7
  97295911.122 6        42.400          39.400
  20186249.102                    20186255.504    20186255.383   106079445.445 8
  82659370.936 8        52.300          51.200
  24875794.031                                    24875801.309   130723134.899 5
 101862237.23742        35.700          16.900
  20803889.969                    20803895.434    20803895.137   109325389.367 8
  85188472.014 8        51.200          48.700
  20929756.797                    20929765.250                   109986609.090 8
  85703930.019 8        49.800          49.300
 14  1 10  1 39  0.0000000  0  8G02G14G12G23G29G21G31G25
  23184379.633                                    23184382.457   121834693.014 7
  94936191.81844        45.100          29.200
  24793872.219                                                   130292606.17714
                        28.900
  23779620.594                    23779626.352    23779626.289   124962887.899 7
  97373627.236 6        42.800          38.900
  24821723.813                                                   130439014.341 5
                        31.600
  20185325.180                    20185331.172    20185331.051   106074590.547 8
  82655587.896 8        51.700          51.400
  24856999.711                                    24857006.637   130624371.684 6
 101785278.96642        36.300          17.400
  20801560.227                    20801565.574    20801565.512   109313150.061 8
  85178934.894 8        50.900          48.300
  20940660.914                    20940669.426                   110043909.126 8
  85748579.398 8        49.400          49.100
 14  1 10  1 39 30.0000000  0  8G02G14G12G23G29G21G31G25
  23192756.125                                    23192759.711   121878715.095 7
  94970494.73344        44.500          29.000
  24814103.672                                                   130398911.754 4
                        29.100
  23798622.203                    23798628.078    23798627.957   125062739.004 7
  97451433.275 6        42.600          38.900
  24809723.109                                                   130375952.983 5
                        31.500
  20184503.500                    20184509.668    20184509.723   106070271.768 8
  82652222.619 8        51.800          51.000
  24838213.836                                    24838220.469   130525650.582 6
 101708353.51042        36.100          16.900
  20799336.266                    20799341.672    20799341.551   109301461.498 8
  85169826.919 8        50.900          48.500
  20951632.891                    20951641.578                   110101567.867 8
  85793508.277 8        49.900          49.100
 14  1 10  1 40  0.0000000  0  8G02G14G12G23G29G21G31G25
  23201227.633                                    23201230.926   121923230.980 7
  95005182.43544        45.200          29.800
  24834341.438                                                   130505256.873 5
                        30.100
  23817644.508                    23817651.145    23817651.023   125162705.065 7
  97529328.891 6        42.800          38.700
  24797810.875                                                   130313351.87715
                        32.800
  20183783.969                    20183790.020    20183789.957   106066489.155 8
  82649275.129 8        51.100          50.800
  24819436.258                                    24819443.535   130426975.046 6
 101631463.54642        37.300          15.600
  20797217.430                    20797222.543    20797222.480   109290325.494 8
  85161149.510 8        51.300          48.700
  20962673.086                    20962682.477                   110159585.250 8
  85838716.624 8        49.600          49.800
 14  1 10  1 40 30.0000000  0  8G02G14G12G23G29G21G31G25
  23209792.195                                    23209796.191   121968239.463 7
  95040253.98345        45.100          30.200
  24854584.727                                                   130611639.619 5
                        31.000
  23836689.203                    23836695.313    23836695.191   125262785.970 7
  97607313.998 6        42.500          38.200
  24785987.039                                                   130251214.203 5
                        33.400
  20183165.945                    20183172.523    20183172.402   106063242.908 8
  82646745.586 8        50.600          51.400
  24800668.227                                    24800674.684   130328347.975 6
 101554611.38842        36.700          15.600
  20795203.516                    20795209.156    20795209.211   109279743.812 8
  85152904.048 8        51.300          49.500
  20973782.000                    20973790.688                   110217961.212 8
  85884204.382 8        49.800          49.300
 14  1 10  1 41  0.0000000  0  8G02G14G12G23G29G21G31G25
  23218450.031                                    23218453.500   122013735.132 7
  95075705.15344        44.500          29.100
  24874833.914                                                   130718053.064 5
                        30.500
  23855754.617                    23855761.371    23855760.898   125362976.466 7
  97685384.486 6        43.300          38.700
  24774250.203                                                   130189538.212 5
                        32.900
  20182649.250                    20182655.652    20182655.414   106060528.669 8
  82644630.595 8        50.900          50.900
  24781908.750                                    24781915.266   130229767.765 6
 101477795.71042        37.100          16.300
  20793294.961                    20793300.309    20793300.363   109269712.727 8
  85145087.622 8        51.400          48.300
  20984957.742                    20984966.488                   110276690.795 8
  85929967.684 8        49.300          48.800
 14  1 10  1 41 30.0000000  0  8G02G14G12G23G29G21G31G25
  23227201.242                                    23227204.652   122059722.732 7
  95111539.64744        45.400          29.900
  24895090.727                                                   130824499.99615
                        31.000
  23874842.336                    23874848.680    23874848.441   125463281.972 7
  97763544.608 6        42.800          38.400
  24762603.305                                                   130128331.765 5
                        33.700
  20182235.086                    20182241.371    20182241.426   106058351.998 8
  82642934.489 8        51.200          51.300
  24763160.250                                    24763166.766   130131242.272 6
 101401022.68342        37.500          16.900
  20791492.102                    20791497.625    20791497.563   109260239.358 8
  85137705.772 8        51.600          48.200
  20996202.000                    20996210.863                   110335779.065 8
  85976010.489 8        48.700          48.700
 14  1 10  1 42  0.0000000  0  8G02G14G12G23G29G21G31G25
  23236044.102                                    23236047.277   122106194.037 7
  95147751.05944        46.000          29.600
  24915352.188                                                   130930969.656 5
                        31.600
  23893950.500                    23893956.082    23893956.313   125563694.796 7
  97841788.372 6        42.100          37.900
  24751043.516                                                   130067590.017 5
                        33.600
  20181921.539                    20181928.410    20181928.230   106056705.207 8
  82641651.279 8        51.200          51.400
  24744421.633                                    24744427.797   130032767.579 6
 101324289.23442        37.900          17.400
  20789794.172                    20789799.637    20789799.516   109251317.600 8
  85130753.754 8        51.400          48.700
  21007512.773                    21007521.695                   110395218.242 8
  86022326.729 8        49.900          48.900
 14  1 10  1 42 30.0000000  0  8G02G14G12G23G29G21G31G25
  23244980.438                                    23244983.730   122153151.007 7
  95184340.89844        45.900          29.100
  24935617.195                                                   131037465.394 5
                        32.000
  23913079.422                    23913085.590    23913084.766   125664217.122 6
  97920117.448 6        41.800          38.900
  24739575.227                                                   130007318.647 5
                        33.200
  20181710.000                    20181716.578    20181716.457   106055591.758 8
  82640783.653 8        52.200          51.000
  24725692.789                                    24725699.363   129934349.121 6
 101247599.59142        37.100          17.400
  20788202.000                    20788207.816    20788207.578   109242951.418 8
  85124234.648 8        52.000          48.600
  21018891.023                    21018899.945                   110455010.993 8
  86068918.473 8        49.900          49.100
 14  1 10  1 43  0.0000000  0  8G02G14G12G23G29G21G31G25
  23254008.008                                    23254011.184   122200593.694 7
  95221309.23244        45.700          29.200
  24955888.883                                                   131143984.464 5
                        30.100
  23932229.094                    23932234.910    23932235.141   125764849.357 7
  97998532.157 6        42.300          37.500
  24728195.445                                                   129947521.308 5
                        33.300
  20181599.477                    20181605.820    20181605.758   106055012.523 8
  82640332.301 8        52.200          51.100
  24706975.117                                    24706982.043   129835990.823 6
 101170956.85342        36.400          16.300
  20786716.516                    20786721.980    20786721.977   109235143.156 8
  85118150.288 8        51.200          48.700
  21030336.539                    21030345.578                   110515157.960 8
  86115786.234 8        50.000          48.700
 14  1 10  1 43 30.0000000  0  8G02G14G12G23G29G21G31G25
  23263127.578                                    23263131.105   122248517.306 7
  95258652.29744        45.800          29.800
  24976158.961                                                   131250521.24614
                        29.100
  23951398.984                    23951404.742    23951404.445   125865587.350 6
  98077029.284 6        41.900          38.300
  24716905.719                                                   129888196.679 5
                        33.800
  20181590.070                    20181596.414    20181596.410   106054963.642 8
  82640294.215 8        52.300          51.300
  24688270.266                                    24688276.137   129737691.610 6
 101094360.10842        36.700          17.400
  20785336.305                    20785341.184    20785341.121   109227890.404 8
  85112498.796 8        51.200          49.100
  21041848.734                    21041857.949                   110575655.046 8
  86162926.820 8        50.200          48.900
 14  1 10  1 44  0.0000000  0  8G02G14G12G23G29G21G31G25
  23272339.688                                    23272342.570   122296923.600 7
  95296371.49244        45.400          29.400
  24996435.094                                                   131357074.808 4
                        28.300
  23970588.680                    23970594.262    23970594.316   125966433.148 6
  98155610.407 6        41.700          37.900
  24705706.867                                                   129829349.866 5
                        34.200
  20181682.648                    20181688.934    20181688.988   106055447.543 8
  82640671.283 8        52.100          51.400
  24669576.648                                    24669583.047   129639457.273 6
 101017813.94142        36.300          17.400
  20784062.523                    20784067.988    20784067.984   109221196.726 8
  85107282.938 8        51.000          48.800
  21053427.789                    21053436.887                   110636504.220 8
  86210341.755 8        50.000          49.000
 14  1 10  1 44 30.0000000  0  8G02G14G12G23G29G21G31G25
  23281641.984                                    23281645.570   122345810.439 7
  95334465.13544        45.800          29.300
  25016714.789                                                   131463643.208 4
                        29.400
  23989799.703                    23989805.402    23989805.633   126067385.113 6
  98234274.245 6        41.300          37.100
  24694601.531                                                   129770982.445 5
                        34.100
  20181875.656                    20181882.059    20181881.879   106056463.557 8
  82641462.977 8        51.900          51.600
  24650895.063                                    24650901.637   129541289.323 6
 100941319.48242        36.800          16.900
  20782895.500                    20782900.672    20782900.668   109215062.400 8
  85102502.942 8        51.800          48.500
  21065073.727                    21065082.941                   110697704.317 8
  86258030.144 8        49.800          48.400
 14  1 10  1 45  0.0000000  0  8G02G14G12G23G29G21G31G25
  23291035.281                                    23291038.867   122395175.177 7
  95372931.15344        45.600          29.200
  25036997.156                                                   131570221.696 5
                        30.100
  24009030.313                    24009036.715    24009036.652   126168441.120 6
  98313019.162 6        40.500          37.300
  24683585.742                                                   129713095.419 5
                        35.500
  20182169.758                    20182176.570    20182176.625   106058009.686 8
  82642667.755 8        51.800          51.400
  24632227.266                                    24632233.723   129443188.557 6
 100864877.40042        36.300          17.400
  20781834.156                    20781839.855    20781839.617   109209486.731 8
  85098158.261 8        50.900          48.800
  21076785.992                    21076794.680                   110759253.017 8
  86305990.169 8        49.300          48.600
 14  1 10  1 45 30.0000000  0  8G02G14G12G23G29G21G31G25
  23300519.844                                    23300523.371   122445016.515 7
  95411768.55344        45.200          29.800
  25057280.625                                                   131676807.893 4
                        29.100
  24028279.719                    24028285.945    24028286.059   126269600.053 6
  98391844.286 6        40.800          37.000
  24672661.594                                                   129655690.762 5
                        35.900
  20182565.250                    20182571.359    20182571.238   106060085.524 8
  82644285.294 8        52.100          51.300
  24613573.273                                    24613579.203   129345158.080 6
 100788490.15343        36.600          18.300
  20780879.883                    20780885.348    20780884.992   109204470.339 8
  85094249.389 8        51.900          48.600
  21088564.672                    21088574.063                   110821149.605 8
  86354221.274 8        50.300          49.000
 14  1 10  1 46  0.0000000  0  8G02G14G12G23G29G21G31G25
  23310094.609                                    23310098.488   122495332.290 7
  95450975.64344        45.300          29.600
  25077563.250                                                   131783398.242 4
                        28.000
  24047549.445                    24047555.145    24047555.141   126370860.602 6
  98470748.589 6        39.900          38.100
  24661830.813                                                   129598769.670 5
                        35.600
  20183060.945                    20183067.406    20183067.168   106062690.052 8
  82646314.798 8        51.300          51.300
  24594932.461                                    24594938.449   129247199.680 6
 100712158.94342        37.700          16.300
  20780031.547                    20780037.246    20780036.949   109200013.495 8
  85090776.524 8        51.900          48.700
  21100409.383                    21100418.715                   110883392.670 8
  86402722.359 8        49.400          48.700
 14  1 10  1 46 30.0000000  0  8G02G14G12G23G29G21G31G25
  23319759.898                                    23319763.660   122546121.051 7
  95490551.30444        45.400          29.000
  25097847.117                                                   131889990.286 4
                        27.600
  24066837.250                    24066843.828    24066843.531   126472222.484 6
  98549731.848 6        40.600          37.300
  24651091.109                                                   129542334.443 5
                        35.800
  20183656.945                    20183662.586    20183662.465   106065822.204 8
  82648755.434 8        51.300          51.200
  24576305.359                                    24576311.230   129149315.523 6
 100635885.65942        38.700          17.400
  20779290.016                    20779295.422    20779295.359   109196117.012 8
  85087740.300 8        50.600          48.700
  21112319.625                    21112328.254                   110945981.481 8
  86451492.855 8        49.500          48.500
 14  1 10  1 47  0.0000000  0  7G02G12G23G29G21G31G25
  23329513.773                                    23329517.535   122597380.919 7
  95530494.04844        45.100          28.800
  24086145.086                    24086151.020    24086151.133   126573683.809 6
  98628792.592 6        39.200          37.600
  24640444.711                                                   129486386.926 6
                        36.200
  20184353.484                    20184359.652    20184359.590   106069482.261 8
  82651607.424 8        51.900          51.400
  24557692.523                                    24557698.980   129051507.734 6
 100559671.85543        38.700          18.300
  20778655.406                    20778660.461    20778660.398   109192781.143 8
  85085140.919 8        50.900          49.200
  21124295.391                    21124304.664                   111008914.713 8
  86500531.731 8        49.000          48.800
 14  1 10  1 47 30.0000000  0  7G02G12G23G29G21G31G25
  23339357.680                                    23339361.441   122649110.154 7
  95570802.54944        45.200          28.700
  24105470.648                    24105477.754    24105477.398   126675243.533 6
  98707930.022 6        40.000          37.100
  24629890.563                                                   129430928.733 5
                        33.900
  20185149.906                    20185156.133    20185156.012   106073668.852 8
  82654869.702 8        52.300          51.300
  24539095.234                                    24539101.691   128953778.366 6
 100483519.15542        39.000          16.300
  20778127.266                    20778132.848    20778132.844   109190005.856 8
  85082978.356 8        51.500          48.800
  21136336.484                    21136345.523                   111072191.394 8
  86549838.229 8        49.400          48.700
 14  1 10  1 48  0.0000000  0  7G02G12G23G29G21G31G25
  23349290.992                                    23349294.227   122701309.395 7
  95611477.27644        44.300          28.500
  24124816.484                    24124823.004    24124822.824   126776902.866 6
  98787145.069 6        39.600          38.000
  24619431.281                                                   129375963.965 5
                        33.700
  20186046.703                    20186053.398    20186053.336   106078383.316 8
  82658543.309 8        52.000          51.600
  24520514.656                                    24520520.234   128856132.112 6
 100407431.22042        38.700          14.800
  20777706.289                    20777711.754    20777711.633   109187794.058 8
  85081254.879 8        51.000          49.000
  21148443.094                    21148452.484                   111135812.563 8
  86599413.165 8        48.800          48.300
 14  1 10  1 48 30.0000000  0  7G02G12G23G29G21G31G25
  23359313.047                                    23359317.160   122753976.602 7
  95652516.64744        44.600          28.600
  24144180.164                    24144186.449    24144186.211   126878660.299 6
  98866436.550 6        39.700          37.700
  24609066.570                                                   129321493.725 5
                        34.600
  20187044.352                    20187050.578    20187050.516   106083624.144 8
  82662627.074 8        52.400          51.200
  24501949.188                                    24501954.766   128758570.906 6
 100331409.52042        39.200          17.400
  20777392.859                    20777398.266    20777398.203   109186145.996 8
  85079970.677 8        50.000          48.800
  21160614.898                    21160624.465                   111199776.981 8
  86649255.564 8        49.500          48.300
 14  1 10  1 49  0.0000000  0  7G02G12G23G29G21G31G25
  23369423.789                                    23369427.258   122807107.159 7
  95693917.08144        44.700          28.800
  24163561.891                    24163568.176    24163568.406   126980511.945 6
  98945801.444 6        39.700          36.900
  24598795.359                                                   129267517.170 5
                        34.100
  20188141.320                    20188147.840    20188147.895   106089388.717 8
  82667118.948 8        51.800          50.800
  24483399.086                                    24483405.602   128661094.103 6
 100255453.61342        38.200          16.900
  20777185.539                    20777191.238    20777191.059   109185059.131 8
  85079123.764 8        51.300          48.600
  21172852.148                    21172860.895                   111264080.814 8
  86699362.436 8        48.800          48.300
 14  1 10  1 49 30.0000000  0  7G02G12G23G29G21G31G25
  23379622.180                                    23379625.941   122860701.888 7
  95735679.19944        44.800          26.900
  24182961.781                    24182968.711    24182968.766   127082459.262 6
  99025240.896 6        39.900          37.000
  24588618.477                                                   129214038.879 5
                        34.300
  20189338.180                    20189344.758    20189344.754   106095678.378 8
  82672019.984 8        51.800          50.500
  24464866.664                                    24464873.414   128563706.237 6
 100179567.04542        39.000          17.400
  20777086.328                    20777091.969    20777091.789   109184536.277 8
  85078716.347 8        51.000          48.500
  21185153.211                    21185162.484                   111328725.545 8
  86749734.948 7        48.600          47.500
 14  1 10  1 50  0.0000000  0  7G02G12G23G29G21G31G25
  23389908.719                                    23389912.598   122914757.984 7
  95777800.82844        44.600          28.500
  24202379.195                    24202386.066    24202386.063   127184500.163 6
  99104753.273 6        40.000          37.900
  24578535.422                                                   129161059.580 5
                        33.400
  20190634.703                    20190641.164    20190641.043   106102490.901 8
  82677328.449 8        51.500          51.200
  24446351.969                                    24446358.602   128466408.743 6
 100103750.86642        38.900          17.800
  20777094.008                    20777099.473    20777099.410   109184576.995 8
  85078748.069 8        50.800          48.800
  21197519.305                    21197528.051                   111393709.167 8
  86800371.529 7        48.000          47.700
 14  1 10  1 50 30.0000000  0  7G02G12G23G29G21G31G25
  23400283.547                                    23400287.016   122969275.506 7
  95820282.00644        44.200          28.400
  24221815.461                    24221821.336    24221821.449   127286635.231 6
  99184339.037 6        39.400          37.500
  24568550.422                                                   129108582.816 5
                        34.300
  20192030.797                    20192037.375    20192037.078   106109827.140 8
  82683044.998 8        51.300          51.200
  24427855.195                                    24427860.773   128369205.464 6
 100028008.11042        38.300          17.800
  20777209.305                    20777214.770    20777214.824   109185183.235 8
  85079220.464 8        51.200          48.600
  21209949.914                    21209958.719                   111459032.336 8
  86851272.697 8        49.000          48.300
 14  1 10  1 51  0.0000000  0  7G02G12G23G29G21G31G25
  23410744.484                                    23410748.012   123024249.276 7
  95863118.71744        44.400          29.300
  24241268.195                    24241275.066    24241275.121   127388860.375 6
  99263994.977 6        39.100          37.900
  24558660.023                                                   129056606.800 5
                        34.600
  20193525.727                    20193531.895    20193531.891   106117683.960 8
  82689167.195 8        51.200          50.500
  24409375.320                                    24409381.953   128272095.522 6
  99952338.08142        39.000          17.400
  20777431.797                    20777437.320    20777437.316   109186351.733 8
  85080130.983 8        50.800          48.400
  21222444.500                    21222454.125                   111524690.571 7
  86902434.948 8        47.500          48.200
 14  1 10  1 51 30.0000000  0  7G02G12G23G29G21G31G25
  23421292.438                                    23421295.906   123079680.594 7
  95906311.94444        44.500          27.700
  24260737.727                    24260744.715    24260744.711   127491176.993 6
  99343722.181 6        38.400          37.000
  24548865.281                                                   129005135.962 5
                        34.300
  20195120.109                    20195125.984    20195125.980   106126062.922 8
  82695696.260 8        51.900          50.800
  24390914.789                                    24390921.070   128175083.994 6
  99876744.73843        38.700          18.600
  20777761.359                    20777767.176    20777766.996   109188085.922 8
  85081482.293 8        51.000          48.200
  21235003.008                    21235011.871                   111590685.719 8
  86953859.728 8        48.500          48.200
 14  1 10  1 52  0.0000000  0  7G02G12G23G29G21G31G25
  23431927.414                                    23431930.590   123135566.209 7
  95949859.16844        44.600          27.900
  24280226.219                    24280232.621    24280232.676   127593583.077 6
  99423519.094 6        37.600          37.100
  24539167.539                                                   128954170.854 5
                        34.000
  20196813.516                    20196820.211    20196820.031   106134961.688 8
  82702630.362 8        50.800          51.400
  24372473.664                                    24372479.535   128078171.806 6
  99801228.81342        39.500          16.900
  20778199.266                    20778204.848    20778204.961   109190384.821 8
  85083273.642 8        50.700          48.600
  21247624.938                    21247634.328                   111657015.543 7
  87005545.295 8        46.700          48.200
 14  1 10  1 52 30.0000000  0  7G02G12G23G29G21G31G25
  23442648.242                                    23442651.770   123191903.631 7
  95993758.45144        44.300          29.300
  24299728.477                    24299737.281    24299736.516   127696076.788 6
  99503384.298 6        37.500          37.500
  24529565.523                                    24529568.523   128903712.878 5
 100444473.99842        34.900          15.600
  20198605.695                    20198611.688    20198611.801   106144378.931 8
  82709968.469 8        51.700          51.200
  24354050.352                                    24354056.633   127981360.667 6
  99725791.57543        39.400          18.300
  20778743.828                    20778749.234    20778749.172   109193248.404 8
  85085504.999 8        50.100          49.100
  21260310.164                    21260319.730                   111723678.456 7
  87057490.407 7        47.500          47.900
 14  1 10  1 53  0.0000000  0  7G02G12G23G29G21G31G25
  23453454.711                                    23453457.652   123248692.849 7
  96038009.79544        45.100          28.300
  24319250.055                    24319256.809    24319256.863   127798658.737 6
  99583318.263 6        37.100          36.900
  24520060.172                                    24520064.344   128853765.153 5
 100405553.72142        32.900          14.800
  20200496.273                    20200502.910    20200502.730   106154315.451 8
  82717711.220 8        51.500          50.700
  24335647.578                                    24335653.859   127884654.525 6
  99650436.15643        39.900          19.300
  20779396.594                    20779402.352    20779402.289   109196678.084 8
  85088177.476 7        50.300          47.800
  21273059.438                    21273068.711                   111790675.118 7
  87109695.589 8        47.700          48.000
 14  1 10  1 53 30.0000000  0  7G02G12G23G29G21G31G25
  23464346.711                                    23464350.004   123305931.746 7
  96082611.52844        44.600          28.400
  24338787.102                    24338794.441    24338794.320   127901327.742 6
  99663320.067 6        36.200          37.000
  24510651.820                                    24510657.281   128804329.067 5
 100367032.15542        34.100          16.300
  20202485.961                    20202492.305    20202492.242   106164769.485 8
  82725857.219 8        52.100          51.000
  24317265.844                                    24317271.656   127788055.401 6
  99575164.16743        39.400          18.300
  20780156.875                    20780162.926    20780162.688   109200673.820 8
  85091291.036 8        50.000          48.500
  21285871.469                    21285881.035                   111858004.099 8
  87162159.713 8        48.000          48.100
 14  1 10  1 54  0.0000000  0  7G02G12G23G29G21G31G25
  23475324.281                                    23475328.043   123363619.787 7
  96127563.24544        44.500          27.600
  24358341.102                    24358346.625    24358346.855   128004083.570 6
  99743389.504 6        37.100          36.900
  24501343.195                                    24501347.777   128755407.172 5
 100328911.30142        35.000          16.300
  20204573.719                    20204580.297    20204580.059   106175742.079 8
  82734407.302 8        52.000          51.000
  24298904.039                                    24298910.086   127691566.400 6
  99499977.98443        40.400          19.000
  20781025.258                    20781030.664    20781030.250   109205236.916 8
  85094846.692 8        48.700          48.900
  21298747.383                    21298756.188                   111925665.348 7
  87214882.758 8        47.300          48.000
 14  1 10  1 54 30.0000000  0  7G02G12G23G29G21G31G25
  23486387.070                                    23486389.953   123421753.201 7
  96172862.01444        44.900          28.000
  24377911.492                    24377918.305    24377917.832   128106923.379 6
  99823524.375 6        37.200          37.200
  24492131.016                                    24492136.535   128706999.466 5
 100291191.11142        34.000          15.600
  20206759.656                    20206765.824    20206765.762   106187230.408 8
  82743359.247 8        51.800          50.500
  24280564.242                                    24280569.996   127595187.951 6
  99424877.90543        40.100          18.600
  20782001.109                    20782007.512    20782007.156   109210366.018 8
  85098843.388 8        50.500          48.700
  21311685.063                    21311694.746                   111993656.183 8
  87267862.614 7        48.400          47.100
 14  1 10  1 55  0.0000000  0  7G02G12G23G29G21G31G25
  23497534.359                                    23497537.535   123480330.741 7
  96218506.84544        44.700          27.800
  24397497.281                    24397503.449    24397503.504   128209846.809 6
  99903724.415 6        38.700          36.800
  24483018.305                                    24483023.004   128659107.863 5
 100253872.86442        35.700          14.800
  20209043.898                    20209050.477    20209050.414   106199233.806 8
  82752712.548 8        52.100          51.100
  24262245.227                                    24262251.508   127498923.016 6
  99349866.29843        39.900          19.600
  20783084.805                    20783090.914    20783090.969   109216061.581 8
  85103281.484 8        50.200          48.300
  21324686.328                    21324695.426                   112061975.858 7
  87321098.715 8        47.900          48.100
 14  1 10  1 55 30.0000000  0  7G02G12G23G29G21G31G25
  23508764.813                                    23508768.223   123539350.623 7
  96264496.37644        44.600          27.000
  24417098.039                    24417105.438    24417105.609   128312853.284 6
  99983989.156 6        38.000          36.500
  24474004.570                                    24474008.215   128611734.237 5
 100216958.37142        35.800          15.600
  20211425.891                    20211432.234    20211432.289   106211751.487 8
  82762466.585 8        51.800          51.300
  24243949.031                                    24243954.902   127402773.994 6
  99274945.01643        40.100          19.300
  20784277.258                    20784282.840    20784282.895   109222324.714 8
  85108161.847 8        50.700          48.300
  21337749.672                    21337758.477                   112130623.903 8
  87374590.685 8        48.600          48.100
 14  1 10  1 56  0.0000000  0  7G02G12G23G29G21G31G25
  23520079.656                                    23520082.949   123598811.063 7
  96310829.17744        44.100          27.800
  24436716.289                    24436722.281    24436722.512   128415941.591 6
 100064317.666 6        37.600          36.500
  24465088.531                                    24465092.293   128564880.543 6
 100180449.05042        36.700          15.600
  20213905.742                    20213912.496    20213912.316   106224782.762 8
  82772620.823 8        52.100          51.500
  24225673.844                                    24225680.418   127306743.073 6
  99200115.74042        39.900          17.800
  20785577.000                    20785582.699    20785582.402   109229154.847 8
  85113484.028 8        50.500          49.000
  21350874.922                    21350884.313                   112199599.157 8
  87428337.633 8        48.300          48.000
 14  1 10  1 56 30.0000000  0  7G02G12G23G29G21G31G25
  23531478.336                                    23531481.922   123658709.240 7
  96357503.07944        44.900          26.700
  24456347.461                    24456353.570    24456353.684   128519109.435 6
 100144708.156 6        36.800          36.200
  24456271.242                                    24456274.770   128518547.026 6
 100144345.01442        36.900          16.300
  20216483.125                    20216489.703    20216489.582   106238325.914 8
  82783173.931 8        52.500          50.900
  24207423.195                                    24207428.773   127210831.593 6
  99125379.57143        40.300          19.000
  20786983.898                    20786989.832    20786989.828   109236550.949 8
  85119247.224 8        51.300          48.600
  21364062.867                    21364071.496                   112268899.305 8
  87482337.738 8        48.500          48.000
 14  1 10  1 57  0.0000000  0  7G02G12G23G29G21G31G25
  23542959.516                                    23542963.219   123719044.592 7
  96404517.64644        44.800          28.100
  24475995.648                    24476001.816    24476001.930   128622357.388 5
 100225161.061 6        35.300          36.000
  24447553.227                                    24447557.691   128472737.042 6
 100108648.90642        36.900          15.600
  20219157.648                    20219163.816    20219163.754   106252381.059 8
  82794125.998 8        52.600          50.800
  24189195.711                                    24189200.879   127115043.178 6
  99050739.27043        39.900          21.100
  20788499.711                    20788505.293    20788505.289   109244514.727 8
  85125452.760 8        51.100          48.600
  21377311.828                    21377321.160                   112338524.847 8
  87536591.393 8        48.300          48.100
 14  1 10  1 57 30.0000000  0  7G02G12G23G29G21G31G25
  23554524.555                                    23554527.496   123779816.707 7
  96451872.54144        43.900          27.300
  24495658.469                    24495664.988    24495665.102   128725686.064 6
 100305676.867 5        36.500          35.800
  24438935.156                                    24438940.148   128427453.153 6
 100073362.80742        37.600          15.600
  20221929.531                    20221935.816    20221935.813   106266948.298 8
  82805477.093 8        52.200          51.600
  24170991.195                                    24170997.008   127019381.805 6
  98976197.94843        39.200          19.000
  20790124.008                    20790129.414    20790129.234   109253047.835 8
  85132101.929 8        50.600          48.500
  21390623.148                    21390631.777                   112408476.235 7
  87591098.959 7        47.900          47.800
 14  1 10  1 58  0.0000000  0  7G02G12G23G29G21G31G25
  23566171.305                                    23566174.188   123841020.603 7
  96499563.88544        44.200          27.100
  24515335.766                    24515341.992    24515342.516   128829091.322 5
 100386252.357 6        35.300          36.200
  24430417.320                                    24430422.781   128382694.002 6
 100038485.48242        36.900          14.800
  20224798.711                    20224804.938    20224805.051   106282024.230 8
  82817224.568 8        52.400          50.900
  24152812.086                                    24152818.074   126923846.668 6
  98901755.03043        39.900          19.000
  20791855.406                    20791860.520    20791860.516   109262147.716 8
  85139192.745 8        51.200          49.000
  21403995.953                    21404004.523                   112478749.519 8
  87645857.356 8        48.900          48.000
 14  1 10  1 58 30.0000000  0  7G02G12G23G29G21G31G25
  23577900.125                                    23577904.063   123902656.932 7
  96547592.19444        44.300          27.000
  24535027.539                    24535034.117    24535034.465   128932574.246 5
 100466888.343 6        35.000          36.000
  24422000.914                                    24422005.906   128338463.394 6
 100004020.10542        36.300          16.300
  20227764.523                    20227771.219    20227771.098   106297609.899 8
  82829369.244 8        52.800          51.000
  24134656.430                                    24134662.594   126828442.023 6
  98827413.74243        38.900          19.600
  20793695.266                    20793700.555    20793700.375   109271816.409 8
  85146726.790 8        51.000          49.000
  21417429.727                    21417438.766                   112549345.821 8
  87700867.445 7        48.400          47.600
 14  1 10  1 59  0.0000000  0  7G02G12G23G29G21G31G25
  23589710.227                                    23589713.461   123964721.193 7
  96595953.94744        44.200          27.100
  24554732.844                    24554741.121    24554740.883   129036131.510 5
 100547582.258 5        35.700          35.900
  24413685.484                                    24413689.949   128294760.549 6
  99969965.87942        36.800          15.600
  20230826.734                    20230832.902    20230832.898   106313702.343 8
  82841908.812 8        52.400          50.900
  24116525.781                                    24116532.648   126733168.085 6
  98753174.34343        39.800          19.300
  20795642.914                    20795648.613    20795648.375   109282051.375 8
  85154702.090 8        51.200          48.500
  21430924.586                    21430933.801                   112620261.787 8
  87756126.625 7        49.000          47.700
 14  1 10  1 59 30.0000000  0  7G02G12G23G29G21G31G25
  23601602.422                                    23601606.066   124027212.948 7
  96644648.82044        43.800          26.400
  24574454.367                    24574461.473    24574461.703   129139763.835 5
 100628334.670 5        35.200          35.700
  24405470.594                                    24405474.473   128251587.946 6
  99936324.91742        37.300          17.400
  20233985.313                    20233991.480    20233991.535   106330301.278 8
  82854843.047 8        51.900          50.800
  24098421.742                                    24098428.727   126638028.338 6
  98679039.51943        38.100          19.600
  20797698.453                    20797703.566    20797703.621   109292854.062 8
  85163119.764 8        51.100          48.300
  21444480.383                    21444489.715                   112691497.541 8
  87811634.996 7        48.900          47.900
 14  1 10  2  0  0.0000000  4  5
MORP (COGO code)                                            COMMENT
   0.033      (antenna height)                              COMMENT
 +55.21279000 (latitude)                                    COMMENT
  -1.68549700 (longitude)                                   COMMENT
0144.425      (elevation)                                   COMMENT
 14  1 10  2  0  0.0000000  0  7G02G12G23G29G21G31G25
  23613574.672                                    23613578.316   124090130.644 7
  96693675.59044        42.900          25.600
  24594189.180                    24594196.402    24594195.930   129243470.394 5
 100709144.903 5        34.900          35.100
  24397356.398                                    24397360.160   128208947.933 6
  99903098.86342        38.100          17.400
  20237240.320                    20237246.488    20237246.602   106347406.795 8
  82868172.025 8        51.900          51.200
  24080343.109                                    24080350.094   126543025.585 6
  98605011.37143        38.300          19.300
  20799862.438                    20799868.137    20799867.781   109304225.320 8
  85171980.478 8        51.400          48.800
  21458096.484                    21458105.582                   112763052.796 8
  87867392.327 8        49.100          48.100
 14  1 10  2  0 30.0000000  0  7G02G12G23G29G21G31G25
  23625628.805                                    23625632.684   124153473.412 7
  96743033.57544        43.100          26.000
  24613938.023                    24613945.188    24613944.949   129347250.528 5
 100790012.482 5        34.500          34.900
  24389343.406                                    24389347.930   128166843.015 6
  99870289.81042        38.300          16.900
  20240591.961                    20240598.129    20240598.008   106365018.606 8
  82881895.514 8        52.700          51.300
  24062292.063                                    24062298.227   126448163.116 6
  98531092.61743        38.600          19.900
  20802134.352                    20802139.699    20802139.754   109316165.682 8
  85181284.651 8        51.100          49.000
  21471774.078                    21471783.410                   112834927.105 8
  87923398.271 7        49.000          47.600
 14  1 10  2  1  0.0000000  0  7G02G12G23G29G21G31G25
  23637761.922                                    23637765.449   124217233.977 7
  96792717.14744        42.300          25.300
  24633700.211                    24633706.320    24633706.375   129451098.576 5
 100870932.987 5        35.800          35.200
  24381432.398                                    24381436.805   128125268.641 6
  99837894.29842        38.300          16.900
  20244038.344                    20244044.453    20244044.449   106383130.019 8
  82896008.305 8        52.500          51.400
  24044266.289                                    24044272.512   126353437.636 6
  98457280.57443        37.700          18.300
  20804514.133                    20804519.305    20804519.359   109328669.667 8
  85191028.015 8        50.700          48.300
  21485510.984                    21485519.965                   112907114.108 8
  87979647.871 7        49.000          47.800
 14  1 10  2  1 30.0000000  0  7G02G12G23G29G21G31G25
  23649975.953                                    23649979.363   124281416.996 6
  96842729.89144        41.800          26.700
  24653474.961                    24653482.184    24653482.297   129555020.486 6
 100951911.074 5        37.700          35.400
  24373622.867                                    24373627.684   128084233.588 6
  99805918.91642        38.500          15.600
  20247581.469                    20247587.402    20247587.281   106401746.938 8
  82910514.994 8        52.100          51.300
  24026268.328                                    24026274.258   126258858.541 6
  98383582.57843        39.000          19.900
  20807001.938                    20807007.754    20807007.809   109341744.463 8
  85201216.166 8        51.300          48.600
  21499308.109                    21499317.207                   112979619.744 8
  88036145.760 7        49.300          47.900
 14  1 10  2  2  0.0000000  0  7G02G12G23G29G21G31G25
  23662268.398                                    23662272.219   124346016.901 6
  96893067.45343        41.300          22.900
  24673263.977                    24673270.789    24673271.371   129659011.257 6
 101032942.792 5        37.700          34.900
  24365916.750                                    24365920.980   128043735.167 6
  99774361.71242        40.000          16.300
  20251219.328                    20251225.438    20251225.375   106420864.449 8
  82925411.758 8        52.300          51.300
  24008298.484                                    24008304.473   126164423.951 6
  98309997.18843        39.000          18.300
  20809598.078                    20809603.309    20809603.070   109355385.988 8
  85211845.918 8        50.900          49.000
  21513165.047                    21513174.379                   113052439.183 8
  88092888.164 7        48.400          47.300
 14  1 10  2  2 30.0000000  0  7G02G12G23G29G21G31G25
  23674640.063                                    23674644.117   124411032.488 6
  96943728.94944        41.700          24.500
  24693066.289                    24693072.809    24693073.332   129763070.791 6
 101114028.094 5        37.500          35.200
  24358312.758                                    24358316.930   128003775.531 6
  99743224.35342        39.800          16.300
  20254952.141                    20254958.309    20254958.363   106440482.332 8
  82940698.416 8        52.300          51.400
  23990356.281                                    23990362.094   126070137.147 6
  98236526.95743        39.200          19.300
  20812301.867                    20812307.566    20812307.328   109369595.039 8
  85222917.906 7        51.500          47.500
  21527081.742                    21527090.840                   113125571.979 8
  88149874.752 7        48.700          47.600
 14  1 10  2  3  0.0000000  0  7G02G12G23G29G21G31G25
  23687090.289                                    23687094.109   124476460.870 7
  96994712.08844        42.000          24.300
  24712880.758                    24712888.273    24712888.152   129867196.997 6
 101195165.356 5        37.100          35.400
  24350812.297                                    24350815.883   127964355.539 6
  99712507.56342        38.900          17.400
  20258780.109                    20258786.219    20258786.215   106460598.915 8
  82956373.680 8        51.900          51.300
  23972442.672                                    23972448.074   125975999.830 6
  98163173.21243        39.000          19.600
  20815113.539                    20815118.594    20815118.590   109384370.583 8
  85234431.316 8        51.200          48.300
  21541057.930                    21541067.379                   113199016.406 8
  88207104.161 7        48.600          47.200
 14  1 10  2  3 30.0000000  0  7G02G12G23G29G21G31G25
  23699620.156                                    23699623.742   124542301.363 6
  97046016.36044        41.800          25.800
  24732708.461                    24732715.039    24732714.977   129971390.350 6
 101276354.944 5        36.600          35.000
  24343413.711                                    24343417.473   127925477.301 6
  99682212.94742        39.800          16.900
  20262702.992                    20262709.570    20262709.449   106481213.683 8
  82972437.139 8        51.900          50.900
  23954557.711                                    23954563.230   125882015.269 6
  98089938.52843        39.500          19.000
  20818033.250                    20818038.246    20818038.242   109399713.683 8
  85246386.976 8        51.200          48.300
  21555093.266                    21555102.539                   113272772.480 8
  88264576.414 7        48.300          47.500
 14  1 10  2  4  0.0000000  0  7G02G12G23G29G21G31G25
  23712227.352                                    23712231.523   124608552.873 6
  97097640.90944        41.600          24.800
  24752547.828                    24752555.227    24752555.223   130075650.892 5
 101357596.867 5        35.000          35.200
  24336117.938                                    24336121.816   127887143.309 6
  99652342.35242        38.900          15.600
  20266720.914                    20266727.375    20266727.137   106502327.359 8
  82988889.350 8        51.300          51.300
  23936703.148                                    23936708.902   125788186.249 6
  98016825.04643        39.600          20.600
  20821061.148                    20821066.438    20821066.375   109415625.399 8
  85258785.717 8        51.100          48.200
  21569187.875                    21569196.680                   113346840.224 8
  88322291.526 7        48.000          47.200
 14  1 10  2  4 30.0000000  0  8G02G12G10G23G29G21G31G25
  23724912.102                                    23724915.980   124675212.443 6
  97149583.43443        41.400          22.200
  24772401.211                    24772407.730    24772408.430   130179976.635 6
 101438889.604 5        36.300          35.000
  24648597.523                                                   129529264.248 5
                        30.800
  24328927.469                                    24328931.289   127849353.935 6
  99622896.15142        39.100          14.800
  20270833.039                    20270839.734    20270839.555   106523937.584 8
  83005728.490 8        51.600          51.000
  23918877.086                                    23918883.016   125694514.490 6
  97943834.08743        39.400          19.600
  20824196.695                    20824202.336    20824202.215   109432104.432 8
  85271626.523 8        50.800          49.100
  21583341.359                    21583350.633                   113421217.522 7
  88380247.855 7        47.700          46.800
 14  1 10  2  5  0.0000000  0  8G02G12G10G23G29G21G31G25
  23737674.219                                    23737677.980   124742277.564 6
  97201841.94744        41.600          24.800
  24792264.891                    24792272.582    24792272.402   130284366.049 5
 101520231.949 5        35.900          34.500
  24649166.664                                                   129532248.496 5
                        30.700
  24321839.805                                    24321843.684   127812109.782 6
  99593874.74442        38.300          16.900
  20275039.250                    20275045.887    20275046.000   106546042.612 8
  83022953.191 8        50.500          51.500
  23901082.867                                    23901088.270   125601002.049 6
  97870967.27143        39.500          20.400
  20827440.852                    20827445.496    20827445.785   109449150.379 8
  85284909.073 7        50.500          47.900
  21597553.648                    21597562.336                   113495902.922 7
  88438444.265 7        47.600          46.600
 14  1 10  2  5 30.0000000  0  8G02G12G10G23G29G21G31G25
  23750513.102                                    23750516.922   124809744.834 6
  97254413.83444        41.700          25.100
  24812142.297                    24812148.641    24812148.754   130388816.279 6
 101601621.714 5        37.400          34.400
  24649849.695                                                   129535837.449 4
                        29.600
  24314855.617                                    24314859.672   127775410.840 6
  99565278.17942        38.800          14.800
  20279339.883                    20279346.637    20279346.633   106568639.741 8
  83040561.345 8        50.100          51.900
  23883318.445                                    23883324.082   125507649.014 6
  97798224.68543        38.600          19.900
  20830792.039                    20830797.270    20830797.207   109466761.301 8
  85298631.871 8        49.700          48.100
  21611824.023                    21611832.770                   113570893.844 7
  88496878.740 7        46.100          47.000
 14  1 10  2  6  0.0000000  0  8G02G12G10G23G29G21G31G25
  23763427.625                                    23763431.211   124877613.028 7
  97307298.15343        42.000          23.800
  24832029.742                    24832036.906    24832037.840   130493327.777 6
 101683059.201 5        37.500          33.900
  24650648.281                                                   129540031.578 5
                        30.500
  24307976.703                                    24307980.465   127739258.955 6
  99537107.89543        38.700          18.300
  20283733.266                    20283740.020    20283739.664   106591728.440 8
  83058552.540 8        51.000          51.000
  23865584.141                                    23865590.188   125414459.341 6
  97725609.39843        39.200          18.600
  20834250.688                    20834255.918    20834255.914   109484937.675 8
  85312795.276 8        49.500          48.600
  21626151.953                    21626161.168                   113646189.904 7
  88555550.979 7        46.300          47.000
 14  1 10  2  6 30.0000000  0  8G02G12G10G23G29G21G31G25
  23776419.648                                    23776422.590   124945882.718 7
  97360495.29643        43.200          23.000
  24851929.266                    24851936.488    24851936.660   130597901.166 6
 101764544.925 5        37.600          34.000
  24651557.508                                                   129544833.847 4
                        27.600
  24301202.102                                    24301206.332   127703657.869 6
  99509366.73942        38.400          15.600
  20288220.742                    20288227.438    20288227.316   106615310.534 8
  83076928.207 8        50.500          50.900
  23847882.664                                    23847888.066   125321437.385 6
  97653124.81143        38.600          20.600
  20837817.867                    20837823.215    20837823.328   109503681.755 8
  85327401.049 8        50.900          48.900
  21640539.758                    21640548.445                   113721792.587 8
  88614462.157 7        48.300          46.400
 14  1 10  2  7  0.0000000  0  8G02G12G10G23G29G21G31G25
  23789487.125                                    23789489.715   125014551.583 7
  97414003.51143        42.500          22.800
  24871840.906                    24871847.953    24871848.184   130702536.165 6
 101846078.661 5        38.000          33.400
  24652590.695                                                   129550243.21914
                        27.300
  24294533.008                                    24294536.887   127668608.659 6
  99482055.66742        38.700          16.900
  20292801.672                    20292808.250    20292808.129   106639384.209 8
  83095686.917 8        50.300          51.000
  23830214.336                                    23830219.680   125228585.254 6
  97580772.54943        39.600          20.600
  20841492.539                    20841498.238    20841498.234   109522993.451 8
  85342449.120 8        50.900          48.400
  21654983.852                    21654992.891                   113797700.624 8
  88673611.269 7        48.000          46.200
 14  1 10  2  7 30.0000000  0  8G02G12G10G23G29G21G31G25
  23802629.711                                    23802632.184   125083615.503 7
  97467819.54044        43.200          24.500
  24891764.063                    24891769.938    24891770.461   130807229.573 6
 101927657.900 5        38.400          33.500
  24653735.711                                                   129556258.958 4
                        27.600
  24287967.602                                    24287972.359   127634110.371 6
  99455173.85342        38.700          17.400
  20297475.844                    20297482.129    20297481.891   106663946.482 8
  83114826.355 8        49.900          51.100
  23812576.078                                    23812582.125   125135902.832 6
  97508552.50943        38.800          20.400
  20845275.289                    20845280.695    20845280.633   109542870.067 8
  85357937.390 8        51.000          48.400
  21669486.250                    21669495.582                   113873910.838 8
  88732995.841 7        48.100          46.900
 14  1 10  2  8  0.0000000  0  8G02G12G10G23G29G21G31G25
  23815846.398                                    23815849.281   125153071.525 7
  97521941.11543        43.000          23.600
  24911696.523                    24911704.098    24911704.445   130911979.461 6
 102009281.149 5        37.500          33.600
  24654995.195                                                   129562879.989 4
                        26.800
  24281508.047                                    24281512.629   127600163.408 6
  99428721.73642        38.200          16.900
  20302242.484                    20302249.004    20302248.707   106688995.572 8
  83134345.130 8        50.900          51.700
  23794971.906                                    23794979.008   125043391.739 6
  97436465.98743        39.300          20.100
  20849164.391                    20849170.207    20849170.086   109563310.443 8
  85373864.951 8        50.900          48.600
  21684045.539                    21684055.105                   113950421.395 7
  88792614.452 7        47.800          46.500
 14  1 10  2  8 30.0000000  0  8G02G12G10G23G29G21G31G25
  23829137.906                                    23829141.492   125222919.114 7
  97576367.80643        42.600          23.000
  24931641.383                    24931647.785    24931647.840   131016786.486 6
 102090948.929 5        37.700          33.300
  24656370.227                                                   129570107.355 4
                        27.600
  24275153.211                                    24275157.559   127566770.643 6
  99402701.36542        37.900          15.600
  20307101.719                    20307108.473    20307108.352   106714531.631 8
  83154243.359 8        50.300          51.100
  23777401.977                                    23777408.023   124951055.982 6
  97364516.08243        39.200          21.300
  20853162.016                    20853167.773    20853167.887   109584316.158 8
  85390233.038 8        51.400          48.500
  21698662.563                    21698672.070                   114027232.718 8
  88852467.420 7        48.100          46.300
 14  1 10  2  9  0.0000000  0  8G02G12G10G23G29G21G31G25
  23842503.172                                    23842506.113   125293154.496 7
  97631096.66844        43.600          24.500
  24951595.617                    24951602.430    24951603.246   131121647.995 6
 102172659.151 5        37.100          33.300
  24657857.898                                                   129577938.67414
                        26.800
  24268904.602                                    24268909.242   127533931.258 6
  99377112.27942        38.100          15.600
  20312053.523                    20312059.633    20312059.336   106740551.550 8
  83174518.627 8        50.300          51.100
  23759864.398                                    23759869.508   124858896.103 6
  97292703.26843        38.900          20.600
  20857266.219                    20857271.801    20857271.738   109605884.876 8
  85407039.826 8        51.300          48.300
  21713335.906                    21713344.945                   114104341.899 7
  88912552.484 7        47.900          46.300
 14  1 10  2  9 30.0000000  0  7G02G12G23G29G21G31G25
  23855942.086                                    23855945.672   125363777.681 7
  97686127.73443        42.900          23.800
  24971560.734                    24971567.020    24971567.602   131226565.022 6
 102254412.623 5        36.800          33.100
  24262760.891                                    24262765.707   127501647.921 6
  99351956.39542        36.700          15.600
  20317096.898                    20317103.418    20317103.531   106767056.197 8
  83195171.597 8        51.400          51.000
  23742361.219                                    23742366.328   124766915.662 6
  97221030.24643        39.400          20.400
  20861478.453                    20861483.566    20861483.680   109628018.235 8
  85424286.604 8        51.300          48.400
  21728066.359                    21728074.695                   114181749.951 8
  88972870.434 7        48.700          47.300
 14  1 10  2 10  0.0000000  0  7G02G12G23G29G21G31G25
  23869455.016                                    23869458.133   125434786.907 7
  97741459.60343        42.500          22.600
  24991537.328                    24991542.910    24991543.199   131331536.717 6
 102336208.698 5        37.700          33.300
  24256722.320                                    24256728.602   127469922.662 6
  99327235.48642        36.700          17.400
  20322232.602                    20322239.004    20322239.000   106794044.473 8
  83216201.424 8        50.800          50.900
  23724892.359                                    23724898.348   124675118.136 6
  97149499.76343        39.400          20.100
  20865797.367                    20865802.832    20865802.828   109650716.591 8
  85441973.626 8        51.100          48.100
  21742852.633                    21742862.199                   114259456.186 8
  89033420.734 7        48.200          46.200
 14  1 10  2 10 30.0000000  0  7G02G12G23G29G21G31G25
  23883040.320                                    23883043.555   125506178.917 7
  97797089.72243        43.500          22.900
  25011522.031                    25011528.434    25011528.957   131436561.025 6
 102418045.757 5        37.500          33.000
  24250792.641                                    24250797.516   127438755.107 6
  99302949.12642        36.800          15.600
  20327460.000                    20327466.285    20327466.281   106821514.256 8
  83237606.454 8        51.000          50.700
  23707459.023                                    23707465.188   124583504.389 6
  97078112.46543        39.900          20.400
  20870223.836                    20870229.828    20870229.824   109673978.210 8
  85460099.562 8        51.200          48.400
  21757696.531                    21757705.629                   114337458.285 8
  89094201.580 7        48.400          46.200
 14  1 10  2 11  0.0000000  0  7G02G12G23G29G21G31G25
  23896698.188                                    23896701.129   125577951.120 7
  97853016.12243        42.700          22.500
  25031516.781                    25031523.359    25031523.883   131541636.476 6
 102499922.684 5        37.200          33.400
  24244967.078                                    24244972.715   127408145.866 5
  99279097.72842        35.500          16.300
  20332778.969                    20332785.195    20332785.191   106849464.183 8
  83259385.616 8        50.600          50.800
  23690060.180                                    23690066.461   124492075.812 6
  97006869.47343        39.400          20.900
  20874757.188                    20874763.121    20874763.059   109697801.615 8
  85478663.250 8        50.200          48.300
  21772595.531                    21772605.273                   114415754.580 8
  89155211.671 7        48.300          46.400
 14  1 10  2 11 30.0000000  0  7G02G12G23G29G21G31G25
  23910428.195                                    23910431.078   125650102.227 7
  97909237.75243        42.600          22.800
  25051522.508                    25051528.441    25051528.555   131646762.926 6
 102581839.336 5        37.800          33.200
  24239249.469                                    24239254.402   127378096.966 6
  99255683.04642        36.400          15.600
  20338188.719                    20338195.004    20338194.941   106877893.455 8
  83281538.293 8        50.300          49.900
  23672697.594                                    23672703.758   124400836.076 6
  96935773.61443        40.900          20.900
  20879397.844                    20879403.777    20879403.598   109722187.879 8
  85497665.527 7        51.000          47.500
  21787550.883                    21787560.098                   114494345.076 8
  89216451.012 7        48.800          46.600
 14  1 10  2 12  0.0000000  0  7G02G12G23G29G21G31G25
  23924229.563                                    23924232.855   125722631.269 7
  97965753.90943        42.200          22.500
  25071536.281                    25071543.035    25071543.793   131751940.911 6
 102663796.173 5        37.600          32.400
  24233638.266                                    24233642.848   127348610.379 6
  99232706.44642        37.500          16.300
  20343689.695                    20343696.273    20343696.094   106906801.873 8
  83304064.332 8        49.800          49.800
  23655372.805                                    23655378.148   124309788.243 6
  96864827.29343        39.400          20.400
  20884145.828                    20884151.117    20884151.055   109747137.579 8
  85517106.843 7        49.100          47.500
  21802562.625                    21802571.664                   114573229.604 8
  89277919.460 7        48.600          46.400
 14  1 10  2 12 30.0000000  0  7G02G12G23G29G21G31G25
  23938102.813                                    23938105.402   125795533.302 7
  98022560.68243        42.700          22.500
  25091560.797                    25091566.555    25091567.488   131857166.252 6
 102745789.905 5        37.800          31.900
  24228134.945                                    24228138.590   127319683.772 6
  99210166.27742        36.600          16.300
  20349280.867                    20349287.270    20349287.500   106936184.836 8
  83326960.147 8        51.500          49.900
  23638082.273                                    23638088.555   124218931.299 6
  96794029.73443        37.600          20.600
  20888999.680                    20889005.672    20889005.492   109772647.020 8
  85536984.321 7        50.600          47.800
  21817628.977                    21817637.840                   114652404.049 8
  89339613.821 7        48.100          46.700
 14  1 10  2 13  0.0000000  0  8G02G12G10G23G29G21G31G25
  23952046.703                                    23952049.879   125868809.534 6
  98079659.03543        41.400          21.800
  25111593.430                    25111599.598    25111600.824   131962441.444 6
 102827822.478 5        38.600          31.900
  24673931.656                                                   129662455.760 5
                        31.800
  24222737.758                                    24222740.992   127291321.664 6
  99188065.86642        37.900          17.400
  20354963.227                    20354969.805    20354969.801   106966044.627 8
  83350227.525 8        50.700          50.100
  23620830.039                                    23620836.438   124128271.342 6
  96723385.67443        39.000          21.700
  20893961.469                    20893967.227    20893966.930   109798719.336 8
  85557300.406 7        49.000          47.800
  21832750.688                    21832760.078                   114731870.736 8
  89401535.911 7        48.200          46.500
 14  1 10  2 13 30.0000000  0  9G05G02G12G10G23G29G21G31G25
  24971580.898                                                   131226474.885 5
                        32.000
  23966060.664                                    23966063.840   125942455.813 6
  98137045.73143        41.100          21.100
  25131636.313                    25131642.070    25131642.359   132067763.588 6
 102909891.609 5        38.100          31.900
  24676458.461                                                   129675734.122 5
                        32.000
  24217447.047                                    24217450.574   127263523.515 6
  99166405.03642        37.900          17.800
  20360735.688                    20360742.500    20360742.438   106996379.212 8
  83373864.860 8        50.800          50.200
  23603615.875                                    23603621.863   124037808.750 6
  96652895.40943        38.600          21.700
  20899029.383                    20899035.434    20899035.371   109825352.149 8
  85578053.244 8        50.000          48.000
  21847928.063                    21847936.867                   114811626.843 7
  89463683.511 7        47.900          47.000
 14  1 10  2 14  0.0000000  0  9G05G02G12G10G23G29G21G31G25
  24958862.727                    24958867.547                   131159638.925 5
 102202391.740 4        32.900          28.100
  23980145.258                                    23980148.961   126016469.651 6
  98194718.86543        41.000          20.400
  25151687.328                    25151692.559    25151693.609   132173131.137 6
 102991996.132 5        38.600          31.800
  24679101.758                                                   129689615.340 5
                        33.200
  24212264.516                                    24212268.980   127236289.307 6
  99145183.54442        36.600          17.800
  20366597.797                    20366604.141    20366604.254   107027185.571 8
  83397869.820 8        50.500          50.400
  23586439.648                                    23586445.930   123947544.937 6
  96582560.03543        39.000          21.800
  20904204.352                    20904209.641    20904209.578   109852544.431 8
  85599242.030 8        50.000          48.100
  21863159.422                    21863168.988                   114891670.629 8
  89526055.284 7        48.100          46.500
 14  1 10  2 14 30.0000000  0  9G05G02G12G10G23G29G21G31G25
  24946215.281                    24946218.813                   131093172.282 5
 102150599.571 4        34.200          29.700
  23994299.500                                    23994302.441   126090850.152 6
  98252677.69543        40.600          20.900
  25171747.102                    25171751.980    25171752.621   132278544.185 6
 103074136.072 5        39.000          30.600
  24681857.172                                                   129704100.204 5
                        32.500
  24207189.602                                    24207193.773   127209621.336 6
  99124403.29343        36.900          18.300
  20372550.039                    20372556.383    20372556.262   107058463.816 8
  83422242.479 8        50.900          50.900
  23569301.664                                    23569307.242   123857483.422 6
  96512382.27543        38.100          20.600
  20909484.852                    20909490.668    20909490.488   109880296.731 8
  85620867.194 8        50.300          48.300
  21878446.047                    21878455.848                   114972002.165 7
  89588651.273 7        47.900          46.100
 14  1 10  2 15  0.0000000  0 10G05G02G12G10G23G29G21G16G31G25
  24933637.320                    24933642.199                   131027075.641 5
 102099095.729 5        34.900          30.900
  24008522.391                                    24008525.742   126165593.087 6
  98310918.94243        40.700          20.900
  25191814.938                    25191819.816    25191820.691   132384000.066 6
 103156309.406 5        38.100          30.000
  24684728.602                                                   129719185.919 5
                        33.100
  24202223.141                                    24202227.195   127183518.098 6
  99104063.12343        37.600          18.300
  20378591.242                    20378597.586    20378597.465   107090210.599 7
  83446980.224 8        47.900          50.200
  23552201.336                                    23552206.914   123767624.356 6
  96442362.28343        38.500          21.100
  24566144.945                                                   129095787.909 5
                        31.300
  20914872.008                    20914877.590    20914877.410   109908606.289 7
  85642926.585 8        47.300          48.400
  21893786.883                    21893796.156                   115052618.241 7
  89651468.985 7        47.800          46.200
 14  1 10  2 15 30.0000000  0 10G05G02G12G10G23G29G21G16G31G25
  24921130.672                    24921136.664                   130961354.515 5
 102047884.501 5        34.800          32.200
  24022814.625                                    24022818.504   126240698.724 6
  98369442.81743        40.100          19.300
  25211890.375                    25211896.191    25211897.418   132489500.095 6
 103238517.144 4        37.700          29.700
  24687714.094                                                   129734874.954 5
                        30.800
  24197363.898                                    24197368.246   127157983.242 6
  99084165.83443        37.900          18.300
  20384721.891                    20384728.000    20384728.055   107122427.416 8
  83472084.240 8        50.900          50.000
  23535141.078                                    23535146.539   123677972.642 6
  96372503.88043        37.800          21.100
  24546351.734                                                   128991773.337 5
                        33.400
  20920365.914                    20920371.613    20920371.492   109937475.178 8
  85665421.827 7        51.000          47.900
  21909181.992                    21909190.914                   115133520.431 7
  89714509.635 7        47.900          46.300
 14  1 10  2 16  0.0000000  0 10G05G02G12G10G23G29G21G16G31G25
  24908695.500                    24908702.195                   130896010.710 5
 101996967.263 5        34.200          31.900
  24037174.406                                    24037178.695   126316164.146 6
  98428247.03243        39.200          19.900
  25231974.281                    25231980.508                   132595043.086 6
 103320758.331 5        37.200          30.800
  24690812.438                                                   129751166.301 5
                        31.000
  24192612.383                                    24192616.262   127133016.778 6
  99064711.46942        38.600          17.400
  20390941.336                    20390948.031    20390948.086   107155111.944 8
  83497552.705 8        50.300          50.100
  23518121.117                                    23518126.754   123588529.832 6
  96302808.25843        37.900          21.100
  24526571.469                                                   128887829.052 5
                        33.400
  20925965.813                    20925970.984    20925971.039   109966902.056 8
  85688351.852 8        49.900          48.000
  21924631.125                    21924639.813                   115214706.753 7
  89777771.695 7        47.800          45.800
 14  1 10  2 16 30.0000000  0 10G05G02G12G10G23G29G21G16G31G25
  24896333.305                    24896340.059                   130831046.486 5
 101946345.814 5        34.800          32.400
  24051603.016                                    24051607.246   126391986.693 6
  98487329.48943        38.800          19.600
  25252066.570                    25252072.797                   132700627.431 6
 103403031.761 4        36.600          29.400
  24694025.602                                                   129768059.25214
                        27.300
  24187969.633                                    24187974.156   127108619.250 6
  99045700.40742        37.900          17.800
  20397250.031                    20397256.434    20397256.371   107188262.465 8
  83523384.279 8        50.600          50.200
  23501140.430                                    23501146.184   123499297.437 6
  96233276.53443        39.400          21.700
  24506805.547                                                   128783956.164 5
                        34.500
  20931671.469                    20931677.520    20931677.457   109996886.024 8
  85711715.982 8        50.500          48.100
  21940134.664                    21940143.879                   115296175.837 7
  89841254.084 7        47.500          46.600
 14  1 10  2 17  0.0000000  0 10G05G02G12G10G23G29G21G16G31G25
  24884044.141                    24884050.719                   130766463.504 5
 101896021.436 5        34.200          33.300
  24066098.953                                    24066103.301   126468163.264 6
  98546687.85043        37.800          19.300
  25272165.289                    25272171.223                   132806250.601 5
 103485335.438 4        35.700          28.800
  24697356.406                                                   129785550.580 4
                        27.300
  24183434.813                                    24183439.512   127084789.990 6
  99027132.20143        37.800          18.600
  20403646.469                    20403652.813    20403652.926   107221875.971 7
  83549576.619 8        47.700          50.600
  23484200.516                                    23484206.035   123410276.663 6
  96163909.73643        39.600          21.300
  24487052.914                                                   128680154.789 5
                        34.300
  20937482.641                    20937488.633    20937488.629   110027424.979 7
  85735512.569 7        47.200          47.300
  21955690.875                    21955700.207                   115377925.177 8
  89904954.856 7        48.100          46.100
 14  1 10  2 17 30.0000000  0 10G05G02G12G10G23G29G21G16G31G25
  24871827.031                    24871833.902                   130702265.396 5
 101845996.954 5        33.800          34.600
  24080662.305                                    24080667.355   126544692.868 6
  98606321.32443        37.800          18.300
  25292273.750                    25292279.039                   132911913.243 5
 103567669.887 4        35.700          29.100
  24700799.125                                                   129803642.130 5
                        30.100
  24179007.992                                    24179012.984   127061530.803 6
  99009008.17643        37.900          19.000
  20410130.938                    20410137.691    20410137.512   107255952.808 8
  83576129.999 8        51.000          50.200
  23467300.875                                    23467306.863   123321470.971 6
  96094710.53743        40.000          21.800
  24467315.031                                                   128576426.662 5
                        34.800
  20943399.898                    20943405.422    20943405.418   110058519.539 8
  85759742.092 7        50.400          47.600
  21971300.430                    21971310.055                   115459954.831 7
  89968874.061 7        47.900          45.400
 14  1 10  2 18  0.0000000  0 10G05G02G12G10G23G29G21G16G31G25
  24859683.805                    24859691.848                   130638455.373 5
 101796274.871 5        34.300          33.400
  24095291.672                                    24095296.254   126621573.483 6
  98666228.28642        37.500          17.800
  25312387.734                    25312393.316                   133017614.451 5
 103650034.369 4        35.100          28.700
  24704357.391                                                   129822334.099 4
                        29.400
  24174692.117                                    24174695.527   127038843.041 6
  98991329.40843        36.300          18.600
  20416703.664                    20416710.125    20416710.063   107290492.189 8
  83603043.804 8        50.300          49.600
  23450443.586                                    23450448.871   123232882.758 6
  96025680.78243        40.900          21.800
  24447589.992                                                   128472773.931 5
                        33.900
  20949422.984                    20949428.039    20949428.094   110090169.424 8
  85784404.332 8        50.100          48.000
  21986963.602                    21986972.406                   115542264.031 7
  90033011.088 7        47.400          45.000
 14  1 10  2 18 30.0000000  0 10G05G02G12G10G23G29G21G16G31G25
  24847614.273                    24847622.785                   130575035.646 5
 101746856.910 5        32.300          34.000
  24109987.984                                    24109992.332   126698802.495 6
  98726406.74542        37.500          17.400
  25332508.477                    25332515.113                   133123353.123 5
 103732428.081 4        34.300          28.200
  24708026.125                                                   129841624.904 4
                        29.400
  24170483.555                                    24170487.492   127016726.679 6
  98974095.86543        38.800          19.000
  20423363.586                    20423369.988    20423370.043   107325491.786 8
  83630316.215 8        51.600          50.200
  23433627.039                                    23433633.027   123144513.634 6
  95956821.78843        39.900          22.500
  24427879.719                                                   128369197.424 5
                        34.600
  20955550.930                    20955556.395    20955556.332   110122373.248 8
  85809498.220 8        50.000          48.000
  22002679.289                    22002688.563                   115624851.131 7
  90097364.659 7        47.500          45.900
 14  1 10  2 19  0.0000000  0 10G05G02G12G10G23G29G21G16G31G25
  24835620.063                    24835628.516                   130512008.860 5
 101697745.136 5        31.200          33.500
  24124751.078                                    24124754.430   126776377.531 6
  98786854.79943        37.500          18.300
  25352637.930                    25352643.277                   133229127.977 5
 103814850.000 4        33.100          28.200
  24711811.086                                                   129861513.705 4
                        29.400
  24166383.570                                    24166387.332   126995182.405 6
  98957308.11742        38.100          17.800
  20430111.180                    20430117.465    20430117.461   107360949.900 8
  83657945.919 8        51.400          50.100
  23416853.188                                    23416859.176   123056365.966 6
  95888135.33743        40.200          21.700
  24408184.078                                                   128265698.240 5
                        35.500
  20961784.445                    20961790.027    20961790.082   110155130.433 8
  85835023.294 8        49.700          48.000
  22018447.758                    22018456.680                   115707715.063 7
  90161933.955 7        47.300          45.600
 14  1 10  2 19 30.0000000  0 10G05G02G12G10G23G29G21G16G31G25
  24823701.930                    24823711.145                   130449377.091 5
 101648941.160 5        31.600          34.800
  24139578.141                                    24139581.434   126854296.598 6
  98847570.92742        37.100          16.900
  25372772.016                    25372778.594                   133334938.105 5
 103897299.414 4        32.200          28.100
  24715710.750                                                   129881999.821 4
                        28.300
  24162391.961                                    24162396.543   126974210.858 6
  98940966.68042        38.800          17.800
  20436945.727                    20436952.363    20436952.066   107396865.461 8
  83685932.070 8        48.500          50.500
  23400122.055                                    23400127.223   122968441.947 6
  95819623.16443        41.100          22.800
  24388504.078                                                   128162277.505 6
                        36.200
  20968123.070                    20968128.184    20968128.121   110188440.045 7
  85860978.828 8        47.000          48.400
  22034269.203                    22034277.539                   115790854.394 7
  90226717.830 7        47.400          45.600
 14  1 10  2 20  0.0000000  0 10G05G02G12G10G23G29G21G16G31G25
  24811858.188                    24811868.398                   130387145.376 4
 101600448.909 5        29.100          34.500
  24154471.078                                    24154475.016   126932558.961 6
  98908554.59043        38.100          18.600
  25392912.438                    25392920.891                   133440784.898 5
 103979777.432 4        32.400          27.200
  24719722.648                                                   129903084.139 4
                        27.600
  24158511.422                                    24158515.125   126953814.109 6
  98925073.13643        39.200          19.300
  20443867.430                    20443873.949    20443873.828   107433238.657 8
  83714274.823 8        51.900          49.900
  23383433.422                                    23383439.234   122880744.987 6
  95751287.92243        40.300          22.300
  24368838.977                                    24368843.969   128058938.267 6
  99786338.48142        37.300          13.900
  20974566.633                    20974572.156    20974572.152   110222303.055 8
  85887365.583 7        49.600          47.600
  22050141.984                    22050151.375                   115874269.958 7
  90291716.964 7        47.600          45.800
 14  1 10  2 20 30.0000000  0 10G05G02G12G10G23G29G21G16G31G25
  24800090.516                    24800102.191                   130325312.971 4
 101552267.810 5        28.300          33.600
  24169428.172                                    24169432.227   127011159.621 6
  98969801.83942        38.000          16.300
  25413061.508                    25413068.379                   133546663.226 5
 104062280.014 4        30.800          26.000
  24723847.047                                                   129924763.399 4
                        29.100
  24154739.055                                    24154742.582   126933990.027 6
  98909625.77842        39.900          17.400
  20450875.602                    20450881.477    20450881.473   107470065.365 8
  83742970.964 8        51.900          50.200
  23366787.875                                    23366794.391   122793274.602 6
  95683129.20743        39.900          22.900
  24349190.680                                    24349195.555   127955679.044 6
  99705876.73642        36.600          15.600
  20981115.383                    20981120.848    20981120.727   110256715.614 8
  85914180.558 7        49.500          47.800
  22066067.195                    22066076.469                   115957957.515 7
  90356928.038 7        47.600          46.000
 14  1 10  2 21  0.0000000  0 10G05G02G12G10G23G29G21G16G31G25
  24788401.273                    24788412.246                   130263885.148 4
 101504401.949 5        29.100          33.500
  24184449.836                                    24184453.773   127090098.468 6
  99031312.63243        38.800          18.600
  25433215.773                    25433223.348                   133652575.205 5
 104144808.853 4        32.000          27.000
  24728086.727                                                   129947039.043 4
                        29.600
  24151076.148                                    24151080.027   126914741.719 6
  98894627.11643        39.300          18.600
  20457969.859                    20457975.910    20457975.848   107507346.197 7
  83772020.961 8        47.600          49.900
  23350187.078                                    23350192.656   122706034.926 6
  95615150.26843        41.100          22.800
  24329556.781                                    24329562.887   127852503.458 6
  99625480.26442        37.600          15.600
  20987768.836                    20987774.594    20987774.297   110291679.326 7
  85941425.006 8        46.400          48.100
  22082044.711                    22082054.102                   116041918.203 7
  90422351.941 7        47.000          45.200
 14  1 10  2 21 30.0000000  0 10G05G02G12G10G23G29G21G16G31G25
  24776790.391                    24776800.016                   130202862.974 4
 101456852.206 5        29.600          33.000
  24199535.813                                    24199538.520   127169371.623 6
  99093083.92142        38.300          17.800
  25453377.836                    25453382.715                   133758518.508 5
 104227362.044 4        30.500          25.800
  24732439.094                                                   129969908.925 4
                        29.400
  24147522.086                                    24147526.668   126896068.011 6
  98880076.14242        38.800          16.900
  20465149.648                    20465156.344    20465156.281   107545078.443 8
  83801422.712 8        51.900          50.400
  23333630.477                                    23333636.113   122619027.542 6
  95547352.34343        40.100          22.900
  24309938.219                                    24309944.852   127749411.149 6
  99545148.57942        37.500          16.900
  20994526.484                    20994531.949    20994531.887   110327191.772 8
  85969097.038 8        49.900          48.000
  22098073.320                    22098082.418                   116126149.481 7
  90487986.695 7        47.200          45.400
 14  1 10  2 22  0.0000000  0 10G05G02G12G10G23G29G21G16G31G25
  24765256.156                    24765265.723                   130142250.625 5
 101409621.799 5        30.300          33.400
  24214685.242                                    24214687.656   127248979.196 6
  99155115.81543        37.900          19.000
  25473543.414                    25473548.410                   133864493.736 4
 104309940.114 4        29.900          24.000
  24736904.945                                                   129993373.905 4
                        28.600
  24144078.750                                    24144083.098   126877971.191 6
  98865974.73842        38.600          17.800
  20472416.000                    20472422.461    20472422.281   107583261.978 8
  83831176.121 8        51.900          50.300
  23317118.125                                    23317124.289   122532255.952 6
  95479738.13743        40.600          22.300
  24290336.664                                    24290343.590   127646405.250 6
  99464884.27342        38.200          16.900
  21001388.789                    21001394.547    21001394.484   110363253.929 8
  85997197.411 7        49.000          47.400
  22114153.563                    22114163.129                   116210651.957 7
  90553832.768 7        46.800          45.700
 14  1 10  2 22 30.0000000  0 10G05G02G12G10G23G29G21G16G31G25
  24753802.445                    24753809.375                   130082048.778 5
 101362711.278 5        30.700          33.300
  24229896.078                                    24229899.547   127328917.134 6
  99217405.08842        38.100          17.800
  25493714.438                    25493721.309                   133970498.390 5
 104392541.141 4        31.600          27.100
  24741482.641                                                   130017431.649 4
                        29.600
  24140744.484                                    24140748.949   126860450.244 6
  98852322.07242        39.700          16.300
  20479767.547                    20479774.242    20479774.238   107621893.779 8
  83861278.826 8        52.100          50.500
  23300651.070                                    23300656.883   122445720.752 6
  95412308.16343        41.600          22.500
  24270751.609                                    24270758.652   127543485.481 6
  99384687.04242        38.200          16.900
  21008355.375                    21008360.957    21008360.953   110399863.391 8
  86025724.260 7        49.500          47.600
  22130284.875                    22130293.738                   116295422.828 7
  90619887.981 7        47.200          45.700
 14  1 10  2 23  0.0000000  0 10G05G02G12G10G23G29G21G16G31G25
  24742424.289                    24742431.629                   130022259.570 5
 101316122.318 5        31.500          33.000
  24245169.633                                    24245173.805   127409182.377 6
  99279949.45042        38.600          17.800
  25513892.766                    25513897.996                   134076530.794 5
 104475163.815 4        30.300          26.500
  24746173.664                                                   130042080.876 4
                        29.900
  24137519.563                                    24137523.617   126843504.824 6
  98839117.84042        38.800          17.800
  20487203.711                    20487209.469    20487209.406   107660972.656 8
  83891729.901 8        50.500          50.500
  23284229.031                                    23284234.785   122359423.225 6
  95345063.34944        41.300          24.200
  24251183.484                                    24251189.121   127440652.252 6
  99304557.27842        38.300          17.400
  21015426.211                    21015431.383    21015431.262   110437018.510 8
  86054676.296 7        48.700          47.600
  22146467.461                    22146475.445                   116380460.172 7
  90686150.826 7        47.200          45.800
 14  1 10  2 23 30.0000000  0  9G05G02G12G23G29G21G16G31G25
  24731127.203                    24731134.074                   129962888.137 5
 101269858.874 5        32.600          32.900
  24260505.781                                    24260509.602   127489774.939 6
  99342748.87643        38.300          18.600
  25534075.844                    25534082.422                   134182592.472 5
 104557809.316 4        30.700          25.000
  24134405.094                                    24134410.086   126827137.904 6
  98826364.45843        39.400          18.300
  20494725.148                    20494731.551    20494731.371   107700498.664 8
  83922529.385 8        51.100          49.700
  23267853.523                                    23267859.512   122273367.580 7
  95278007.02944        42.400          25.400
  24231631.641                                    24231637.805   127337909.515 6
  99224498.01242        39.000          14.800
  21022600.078                    21022606.070    21022605.949   110474720.440 8
  86084054.417 7        48.600          47.600
  22162700.055                    22162708.918                   116465765.146 7
  90752622.219 7        47.000          45.300
 14  1 10  2 24  0.0000000  0  9G05G02G12G23G29G21G16G31G25
  24719910.063                    24719914.180                   129903935.224 5
 101223921.589 5        31.800          32.800
  24275904.164                                    24275907.574   127570691.052 6
  99405800.33642        38.300          17.400
  25554264.547                    25554269.953                   134288680.837 4
 104640475.587 4        28.900          26.100
  24131401.164                                    24131405.160   126811348.078 6
  98814060.74443        39.600          18.600
  20502331.008                    20502337.996    20502337.875   107740468.859 8
  83953674.991 8        51.600          49.600
  23251523.531                                    23251529.461   122187555.042 7
  95211140.17443        42.400          22.800
  24212097.914                                    24212104.020   127235257.093 6
  99144509.11042        38.700          16.300
  21029878.531                    21029884.523    21029884.637   110512967.183 8
  86113857.072 7        50.300          47.700
  22178983.836                    22178992.523                   116551335.151 7
  90819300.123 7        46.200          45.200
 14  1 10  2 24 30.0000000  0  9G05G02G12G23G29G21G16G31G25
  24708771.875                    24708776.344                   129845403.663 5
 101178312.623 5        32.900          32.100
  24291362.813                                    24291367.102   127651928.767 6
  99469102.43543        37.900          18.600
  25574456.117                    25574464.277                   134394795.69514
 104723162.18114        27.300          25.900
  24128506.477                                    24128509.945   126796136.220 6
  98802207.37543        40.900          18.300
  20510021.672                    20510027.840    20510027.660   107780881.712 8
  83985165.532 8        52.300          49.400
  23235240.320                                    23235246.250   122101987.532 7
  95144464.22543        42.900          23.000
  24192581.133                                    24192587.180   127132696.344 6
  99064591.69142        38.400          15.600
  21037260.109                    21037265.809    21037265.453   110551757.675 8
  86144083.423 7        49.900          47.500
  22195316.883                    22195326.273                   116637169.124 7
  90886183.725 7        46.700          45.000
 14  1 10  2 25  0.0000000  0  8G05G02G23G29G21G16G31G25
  24697714.563                    24697718.504                   129787296.125 5
 101133034.040 5        34.300          31.800
  24306882.914                                    24306887.203   127733486.303 6
  99532653.73542        38.900          17.800
  24125721.258                                    24125725.195   126781502.669 6
  98790804.57643        40.700          19.600
  20517796.000                    20517801.934    20517802.047   107821736.294 8
  84017000.273 8        51.100          49.900
  23219005.836                                    23219010.711   122016667.475 7
  95077981.10044        43.300          26.000
  24173082.789                                    24173087.605   127030228.727 6
  98984746.77342        38.300          16.300
  21044745.219                    21044750.508    21044750.504   110591091.395 8
  86174733.075 7        50.100          47.200
  22211700.555                    22211709.418                   116723266.143 7
  90953272.288 7        46.700          45.300
 14  1 10  2 25 30.0000000  0  8G05G02G23G29G21G16G31G25
  24686737.297                    24686741.414                   129729614.507 5
 101088087.380 5        33.200          31.900
  24322463.070                                    24322466.949   127815360.566 6
  99596451.92742        38.600          15.600
  24123047.297                                    24123050.941   126767447.282 6
  98779852.27543        41.300          18.600
  20525653.906                    20525660.367    20525660.129   107863030.519 8
  84049177.590 8        49.600          49.900
  23202816.242                                    23202822.406   121931595.988 7
  95011691.64044        43.400          24.300
  24153601.125                                    24153606.645   126927855.123 6
  98904975.17242        38.900          16.300
  21052332.797                    21052338.379    21052338.375   110630966.651 7
  86205804.697 7        47.300          47.200
  22228134.594                    22228143.164                   116809624.472 7
  91020564.469 7        46.300          45.300
 14  1 10  2 26  0.0000000  0  8G05G02G23G29G21G16G31G25
  24675841.828                    24675846.063                   129672359.966 5
 101043473.515 5        34.100          32.300
  24338103.586                                    24338106.000   127897547.678 6
  99660493.76342        38.600          17.800
  24120481.727                                    24120486.660   126753969.074 6
  98769349.74943        41.100          19.300
  20533595.086                    20533601.195    20533601.016   107904761.066 8
  84081694.903 8        50.300          49.500
  23186675.336                                    23186681.500   121846774.225 7
  94945596.79543        43.700          22.500
  24134138.234                                    24134143.520   126825575.291 6
  98825276.58142        39.200          16.300
  21060023.570                    21060029.152    21060028.914   110671380.616 8
  86237296.096 7        48.600          47.300
  22244617.164                    22244626.320                   116896241.399 7
  91088058.148 7        46.400          45.500
 14  1 10  2 26 30.0000000  0  8G05G02G23G29G21G16G31G25
  24665028.859                    24665034.031                   129615537.345 5
 100999196.188 5        33.200          32.700
  24353802.430                                    24353805.078   127980047.942 6
  99724779.72442        38.900          17.800
  24118027.742                                    24118031.211   126741070.509 6
  98759298.89343        40.800          19.300
  20541619.742                    20541625.617    20541625.672   107946929.338 8
  84114553.298 8        51.000          50.500
  23170583.422                                    23170588.238   121762207.038 7
  94879700.30944        43.800          24.800
  24114693.414                                    24114698.934   126723393.158 6
  98745654.16842        39.600          17.800
  21067816.719                    21067822.652    21067822.355   110712334.975 8
  86269208.573 7        49.600          47.600
  22261148.898                    22261158.348                   116983118.209 7
  91155754.339 7        46.700          44.600
 14  1 10  2 27  0.0000000  0  8G05G02G23G29G21G16G31G25
  24654297.711                    24654303.176                   129559148.731 5
 100955257.053 5        34.400          33.300
  24369561.750                                    24369564.340   128062858.862 6
  99789307.73542        38.800          17.800
  24115684.000                                    24115687.176   126728752.059 6
  98749700.14242        40.400          17.800
  20549726.773                    20549732.824    20549732.820   107989533.277 8
  84147751.171 8        51.400          50.200
  23154538.648                                    23154543.816   121677895.885 7
  94814003.31244        43.600          24.600
  24095266.641                                    24095273.332   126621309.680 6
  98666108.59842        39.300          16.300
  21075713.156                    21075718.445    21075718.500   110753828.503 8
  86301541.189 7        50.000          47.800
  22277730.227                    22277739.793                   117070253.457 7
  91223651.919 7        46.000          44.600
 14  1 10  2 27 30.0000000  0  8G05G02G23G29G21G16G31G25
  24643650.320                    24643656.137                   129503195.959 5
 100911657.535 5        34.600          34.200
  24385378.336                                    24385380.984   128145977.506 6
  99854075.45042        38.600          17.400
  24113449.984                                    24113453.395   126717013.022 6
  98740552.82543        40.700          18.600
  20557916.125                    20557922.879    20557922.875   108032570.494 8
  84181286.667 8        51.400          49.800
  23138543.922                                    23138549.617   121593842.316 7
  94748507.03844        43.800          24.100
  24075860.273                                    24075865.383   126519325.687 6
  98586640.56242        39.200          15.600
  21083711.016                    21083716.363    21083716.359   110795859.402 8
  86334292.533 7        50.300          47.500
  22294360.961                    22294369.473                   117157645.243 7
  91291749.397 7        45.800          44.700
