     2.11           OBSERVATION DATA    G (GPS)             RINEX VERSION / TYPE
teqc  2013Mar15                         20140106 12:52:57UTCPGM / RUN BY / DATE
Linux 2.4.20-8|Pentium IV|gcc -static|Linux|486/DX+         COMMENT
   0.033      (antenna height)                              COMMENT
 +55.21279000 (latitude)                                    COMMENT
  -1.68549700 (longitude)                                   COMMENT
0144.425      (elevation)                                   COMMENT
BIT 2 OF LLI FLAGS DATA COLLECTED UNDER A/S CONDITION       COMMENT
MORP (COGO code)                                            COMMENT
MORP                                                        MARKER NAME
13299S001                                                   MARKER NUMBER
Matt King           NCL                                     OBSERVER / AGENCY
4843K3347           TRIMBLE NETR8       4.19                REC # / TYPE / VERS
221                 AOAD/M_T        NONE                    ANT # / TYPE
  3645667.8584  -107277.2886  5215053.4919                  APPROX POSITION XYZ
        0.0330        0.0000        0.0000                  ANTENNA: DELTA H/E/N
     1     1                                                WAVELENGTH FACT L1/2
     8    C1    P1    C2    P2    L1    L2    S1    S2      # / TYPES OF OBSERV
    30.0000                                                 INTERVAL
    16                                                      LEAP SECONDS
Forced Modulo Decimation to 30 seconds                      COMMENT
 SNR is mapped to RINEX snr flag value [0-9]                COMMENT
  L1 & L2: min(max(int(snr_dBHz/6), 0), 9)                  COMMENT
  2014     1     2     0     0    0.0000000     GPS         TIME OF FIRST OBS
                                                            END OF HEADER
 14  1  2  0  0  0.0000000  0  9G02G04G14G25G32G29G24G12G31
  24342977.273                                    24342981.797   127923118.379 7
  99680439.47243        42.600          22.900
  23504023.852                                    23504031.070   123514481.419 6
  96245080.58243        39.600          19.300
  21391561.148                                    21391566.961   112413407.523 7
  87594886.73545        47.700          34.200
  20769064.047                    20769072.852                   109142262.988 8
  85045922.249 8        50.400          49.000
  24846592.742                                                   130569716.601 5
                        30.700
  23561329.688                    23561338.551    23561338.313   123815636.459 7
  96479728.049 6        42.600          40.200
  22395284.055                    22395293.973                   117688033.182 7
  91705011.162 7        44.500          46.200
  20230693.336                    20230699.270    20230699.324   106313014.885 8
  82841373.401 8        51.800          50.800
  24131595.453                    24131600.156    24131600.738   126812347.410 6
  98814873.581 5        38.600          33.700
 14  1  2  0  0 30.0000000  0  9G02G04G14G25G32G29G24G12G31
  24328155.094                                    24328159.148   127845220.797 7
  99619740.08143        42.900          23.000
  23499690.672                                    23499697.949   123491712.052 6
  96227338.21343        39.100          19.600
  21392060.961                                    21392066.891   112416034.483 7
  87596933.70245        47.900          34.100
  20759076.469                    20759085.977                   109089775.225 8
  85005022.663 8        50.700          48.900
  24848290.211                                                   130578639.589 5
                        30.100
  23539776.797                    23539786.246    23539786.066   123702377.808 6
  96391474.630 6        41.100          39.500
  22412622.055                    22412632.617                   117779147.716 7
  91776009.470 7        44.100          46.000
  20235939.094                    20235945.262    20235945.141   106340583.972 8
  82862855.815 8        51.700          51.400
  24112490.828                    24112496.352    24112496.465   126711955.100 6
  98736645.810 5        39.200          34.100
 14  1  2  0  1  0.0000000  0  9G02G04G14G25G32G29G24G12G31
  24313377.805                                    24313381.566   127767567.276 7
  99559230.86044        43.000          25.000
  23495472.602                                    23495479.410   123469543.521 6
  96210064.05843        39.600          18.600
  21392676.805                                    21392682.324   112419270.273 7
  87599455.08645        47.600          33.800
  20749164.492                    20749174.059                   109037689.688 8
  84964436.526 8        50.100          49.300
  24850091.086                                                   130588106.059 5
                        30.700
  23518255.570                    23518263.613    23518263.199   123589281.123 6
  96303347.440 6        41.200          39.900
  22430012.406                    22430022.441                   117870532.695 7
  91847218.513 7        43.000          45.800
  20241269.844                    20241275.719    20241275.832   106368594.286 8
  82884682.029 8        52.300          50.900
  24093406.594                    24093410.887    24093411.234   126611661.112 6
  98658494.632 5        39.100          34.600
 14  1  2  0  1 30.0000000  0  9G02G04G14G25G32G29G24G12G31
  24298647.656                                    24298652.355   127690161.263 7
  99498914.51644        42.700          24.400
  23491368.688                                    23491376.082   123447977.999 6
  96193259.78843        39.500          20.100
  21393408.648                                    21393414.754   112423115.702 8
  87602451.52145        48.000          34.000
  20739330.023                    20739339.004                   108986007.583 8
  84924164.739 8        50.700          49.100
  24851997.461                                                   130598115.815 5
                        30.800
  23496765.641                    23496773.625    23496773.563   123476349.162 6
  96215348.595 6        40.900          40.200
  22447454.023                    22447463.414                   117962186.834 7
  91918637.286 7        43.500          45.600
  20246683.742                    20246689.266    20246689.203   106397045.411 8
  82906851.741 8        51.900          51.100
  24074340.367                    24074345.188    24074345.125   126511467.727 6
  98580421.876 5        39.200          35.100
 14  1  2  0  2  0.0000000  0  9G02G04G14G25G32G29G24G12G31
  24283963.969                                    24283969.488   127613004.519 7
  99438792.37143        42.300          22.800
  23487379.766                                    23487386.633   123427015.748 6
  96176925.59843        39.400          19.000
  21394256.141                                    21394261.777   112427570.014 8
  87605922.41345        48.500          34.400
  20729571.414                    20729580.922                   108934728.967 8
  84884207.377 8        49.900          49.000
  24854004.164                                                   130608667.683 5
                        30.100
  23475306.813                    23475315.383    23475315.320   123363583.985 6
  96127479.715 6        40.300          39.800
  22464945.969                    22464956.238                   118054108.309 7
  91990264.368 7        43.400          45.700
  20252181.508                    20252187.207    20252187.027   106425935.212 8
  82929363.278 8        52.100          50.800
  24055293.063                    24055298.117    24055298.406   126411375.711 6
  98502428.105 5        39.200          34.300
 14  1  2  0  2 30.0000000  0  9G02G04G14G25G32G29G24G12G31
  24269330.789                                    24269335.781   127536101.979 7
  99378868.33643        42.600          22.600
  23483506.984                                    23483513.559   123406659.866 6
  96161063.86343        39.900          19.000
  21395220.203                                    21395225.781   112432635.518 7
  87609869.56445        47.700          33.600
  20719891.313                    20719900.586                   108883856.656 8
  84844566.626 8        49.600          49.200
  24856115.859                                                   130619762.991 5
                        30.300
  23453880.195                    23453889.000    23453888.762   123250990.015 6
  96039744.242 6        40.500          40.300
  22482488.734                    22482498.301                   118146297.278 7
  92062099.894 7        43.400          45.900
  20257762.508                    20257768.852    20257768.555   106455265.101 8
  82952217.748 8        52.300          51.100
  24036266.711                    24036272.117    24036271.879   126311388.797 6
  98424516.231 5        39.100          34.300
 14  1  2  0  3  0.0000000  0  9G02G04G14G25G32G29G24G12G31
  24254744.859                                    24254749.383   127459453.566 7
  99319142.30543        42.000          22.300
  23479747.875                                    23479755.035   123386909.319 6
  96145673.81343        39.600          20.400
  21396299.695                                    21396306.035   112438309.632 7
  87614290.96745        47.800          33.900
  20710287.523                    20710296.387                   108833388.968 8
  84805241.184 8        50.100          49.200
  24858330.063                                                   130631398.747 5
                        30.800
  23432486.977                    23432495.723    23432495.602   123138567.361 6
  95952142.241 6        40.600          40.400
  22500081.578                    22500091.613                   118238750.351 7
  92134141.217 7        43.700          45.300
  20263427.086                    20263432.961    20263432.723   106485031.192 8
  82975412.108 8        52.500          50.800
  24017259.445                    24017264.148    24017264.320   126211506.020 6
  98346685.496 5        39.600          35.200
 14  1  2  0  3 30.0000000  0  9G02G04G14G25G32G29G24G12G31
  24240208.609                                    24240212.957   127383062.034 6
  99259616.46843        41.600          22.600
  23476104.570                                    23476111.965   123367765.060 6
  96130756.22543        40.500          20.100
  21397495.844                                    21397501.188   112444592.462 7
  87619186.68145        47.500          34.300
  20700761.023                    20700769.711                   108783326.550 8
  84766231.527 8        49.800          49.400
  24860646.563                                                   130643574.203 5
                        30.100
  23411126.789                    23411134.891    23411135.297   123026318.909 6
  95864675.974 6        40.200          40.200
  22517725.250                    22517735.109                   118331465.873 7
  92206387.040 7        42.400          44.800
  20269174.125                    20269179.648    20269179.703   106515232.996 8
  82998945.974 8        52.200          50.900
  23998272.195                    23998277.191    23998277.129   126111729.183 6
  98268937.302 5        39.000          35.900
 14  1  2  0  4  0.0000000  0  9G02G04G14G25G32G29G24G12G31
  24225720.844                                    24225726.012   127306931.846 6
  99200294.28043        41.900          22.300
  23472578.063                                    23472585.164   123349230.049 6
  96116313.36843        40.900          20.900
  21398806.695                                    21398812.625   112451485.218 7
  87624557.66945        47.900          33.700
  20691311.641                    20691320.973                   108733671.774 8
  84727539.504 8        50.500          49.300
  24863065.336                                                   130656290.462 5
                        30.300
  23389800.703                    23389808.336    23389808.215   122914248.232 6
  95777348.225 6        41.100          39.800
  22535418.719                    22535428.637                   118424444.380 7
  92278837.794 7        43.300          44.900
  20275004.445                    20275009.676    20275009.496   106545870.321 8
  83022819.220 8        52.500          50.500
  23979306.352                    23979311.172    23979311.227   126012061.370 6
  98191274.060 6        39.800          36.100
 14  1  2  0  4 30.0000000  0  9G02G04G14G25G32G29G24G12G31
  24211283.516                                    24211288.684   127231065.865 6
  99141177.97743        41.400          22.900
  23469166.313                                    23469174.176   123331305.465 6
  96102346.17643        39.800          20.900
  21400234.617                                    21400240.840   112458988.184 7
  87630404.13445        47.800          34.300
  20681940.516                    20681949.730                   108684425.492 8
  84689165.774 8        50.300          49.100
  24865589.617                                                   130669546.674 5
                        32.600
  23368508.930                    23368517.207    23368517.320   122802358.027 6
  95690161.113 6        40.500          39.800
  22553161.789                    22553171.063                   118517684.142 7
  92351492.124 7        43.300          44.300
  20280917.203                    20280923.078    20280922.957   106576942.450 8
  83047031.265 8        52.700          50.500
  23960360.344                    23960366.102    23960365.863   125912504.514 6
  98113697.287 6        39.800          36.400
 14  1  2  0  5  0.0000000  0  9G02G04G14G25G32G29G24G12G31
  24196898.094                                    24196902.266   127155464.400 6
  99082267.78243        40.500          23.200
  23465872.148                                    23465878.664   123313990.033 6
  96088853.63643        40.300          21.300
  21401778.117                                    21401783.930   112467099.019 7
  87636724.26645        46.700          34.400
  20672646.727                    20672655.297                   108635586.146 8
  84651109.146 8        49.100          48.800
  24868213.547                                                   130683340.061 5
                        31.500
  23347251.422                    23347258.996    23347258.992   122690648.698 6
  95603114.947 6        41.400          39.700
  22570953.820                    22570963.797                   118611181.897 7
  92424347.486 7        42.600          44.800
  20286912.430                    20286918.188    20286918.066   106608446.226 8
  83071579.663 8        52.600          50.900
  23941436.742                    23941442.559    23941442.672   125813057.777 6
  98036206.331 6        40.500          36.600
 14  1  2  0  5 30.0000000  0  9G02G04G14G25G32G29G24G12G31
  24182562.477                                    24182566.883   127080132.021 6
  99023567.25843        41.600          23.400
  23462693.359                                    23462700.344   123297286.955 6
  96075838.27943        40.100          22.500
  21403437.438                                    21403443.660   112475819.695 7
  87643519.59545        46.300          33.600
  20663430.953                    20663440.168                   108587156.555 8
  84613371.798 8        49.000          49.200
  24870941.570                                                   130697672.059 5
                        31.800
  23326028.352                    23326036.980    23326036.859   122579124.837 6
  95516213.300 6        40.700          39.900
  22588794.953                    22588804.109                   118704938.220 7
  92497404.325 7        42.500          44.500
  20292989.688                    20292995.504    20292995.383   106640382.540 8
  83096465.102 8        52.300          50.500
  23922533.828                    23922539.938    23922539.875   125713724.917 6
  97958804.095 6        40.400          36.800
 14  1  2  0  6  0.0000000  0  9G02G04G14G25G32G29G24G12G31
  24168278.453                                    24168283.738   127005071.151 6
  98965078.30643        41.400          22.500
  23459631.391                                    23459638.609   123281196.945 6
  96063300.63443        40.000          20.600
  21405213.414                                    21405218.992   112485149.867 7
  87650789.85445        47.300          34.200
  20654293.141                    20654302.238                   108539137.124 8
  84575954.043 8        49.500          49.100
  24873770.719                                                   130712541.414 5
                        33.300
  23304841.727                    23304850.238    23304849.941   122467788.713 6
  95429457.911 6        41.700          40.200
  22606684.859                    22606695.012                   118798951.430 7
  92570661.350 7        43.600          44.500
  20299148.484                    20299154.359    20299154.063   106672749.606 8
  83121686.196 8        52.300          50.700
  23903654.273                    23903659.855    23903659.793   125614507.638 6
  97881491.936 6        40.800          37.400
 14  1  2  0  6 30.0000000  0  9G02G04G14G25G32G29G24G12G31
  24154046.695                                    24154051.219   126930282.915 6
  98906801.78243        41.100          22.600
  23456685.945                                    23456693.398   123265719.675 6
  96051240.42343        39.200          21.300
  21407104.383                                    21407110.020   112495087.720 7
  87658533.64045        47.200          33.400
  20645233.266                    20645242.480                   108491527.036 8
  84538855.274 8        49.600          49.100
  24876703.023                                                   130727946.009 5
                        34.300
  23283691.523                    23283699.684    23283699.738   122356641.062 6
  95342849.408 6        41.200          39.800
  22624623.844                    22624633.703                   118893218.379 7
  92644116.080 7        43.800          44.200
  20305389.609                    20305395.367    20305395.305   106705545.260 8
  83147241.252 8        52.000          51.100
  23884795.672                    23884801.430    23884800.781   125515405.622 6
  97804269.584 6        40.300          36.900
 14  1  2  0  7  0.0000000  0  9G02G04G14G25G32G29G24G12G31
  24139867.734                                    24139872.316   126855770.847 7
  98848740.48143        42.200          22.800
  23453857.742                                    23453865.313   123250856.926 6
  96039659.07243        40.300          20.600
  21409111.023                                    21409117.012   112505634.384 7
  87666751.82445        47.400          33.900
  20636251.859                    20636260.664                   108444327.890 8
  84502076.694 8        49.800          49.500
  24879735.695                                                   130743885.874 5
                        33.700
  23262577.078                    23262584.652    23262585.000   122245685.378 6
  95256390.492 6        41.600          40.400
  22642610.305                    22642619.520                   118987738.961 7
  92717768.451 7        43.800          43.800
  20311711.445                    20311717.438    20311717.609   106738768.841 8
  83173129.758 8        52.500          51.300
  23865958.938                    23865965.340    23865965.219   125416421.598 6
  97727139.167 6        40.400          37.300
 14  1  2  0  7 30.0000000  0  9G02G04G14G25G32G29G24G12G31
  24125741.328                                    24125745.441   126781537.011 6
  98790895.95343        41.600          22.900
  23451146.563                                    23451154.016   123236608.784 6
  96028556.64743        39.200          21.300
  21411234.008                                    21411239.527   112516788.585 7
  87675443.43445        47.400          34.200
  20627348.148                    20627357.422                   108397539.700 8
  84465618.349 8        50.000          49.100
  24882871.180                                                   130760359.563 5
                        34.600
  23241499.813                    23241508.207    23241508.203   122134923.591 7
  95170082.643 6        42.200          40.100
  22660644.656                    22660654.281                   119082510.675 7
  92791616.503 7        43.400          44.100
  20318114.766                    20318121.109    20318120.813   106772418.668 8
  83199350.407 8        52.600          50.800
  23847145.648                    23847151.172    23847151.051   125317556.549 6
  97650101.452 6        40.800          37.900
 14  1  2  0  8  0.0000000  0  9G02G04G14G25G32G29G24G12G31
  24111668.805                                    24111673.797   126707585.329 6
  98733271.30043        41.700          22.800
  23448552.188                                    23448559.699   123222977.745 6
  96017935.07443        38.900          20.600
  21413472.313                                    21413478.066   112528551.513 7
  87684609.35345        47.300          34.200
  20618523.227                    20618531.914                   108351164.428 8
  84429481.755 8        49.900          49.400
  24886107.109                                                   130777367.431 5
                        34.300
  23220459.984                    23220468.613    23220468.609   122024359.412 6
  95083928.782 6        41.700          40.800
  22678727.031                    22678737.125                   119177533.369 7
  92865660.136 7        43.700          44.300
  20324599.586                    20324605.402    20324605.223   106806495.447 8
  83225903.748 8        51.900          51.000
  23828355.375                    23828361.895    23828361.949   125218813.552 6
  97573158.866 6        40.900          38.400
 14  1  2  0  8 30.0000000  0  9G02G04G14G25G32G29G24G12G31
  24097650.820                                    24097655.285   126633916.722 6
  98675867.21243        40.100          22.500
  23446075.063                                    23446083.629   123209962.762 6
  96007793.53443        39.900          19.900
  21415826.508                                    21415831.969   112540921.075 7
  87694247.98245        46.800          33.900
  20609776.477                    20609786.043                   108305201.006 8
  84393666.087 8        49.400          49.200
  24889444.273                                                   130794906.931 5
                        35.000
  23199458.070                    23199466.055    23199466.168   121913993.683 7
  94997929.565 6        42.300          40.200
  22696856.625                    22696865.898                   119272804.368 7
  92939897.239 7        43.600          44.300
  20331164.688                    20331170.621    20331170.559   106840995.625 8
  83252787.002 8        51.900          50.100
  23809589.336                    23809594.625    23809595.031   125120192.489 6
  97496311.287 6        40.600          37.900
 14  1  2  0  9  0.0000000  0  9G02G04G14G25G32G29G24G12G31
  24083686.445                                    24083691.145   126560536.184 6
  98618687.61043        40.400          22.500
  23443716.406                                    23443723.625   123197567.101 6
  95998134.58143        39.400          20.400
  21418295.969                                    21418302.074   112553899.343 7
  87704360.92045        46.800          33.600
  20601109.125                    20601118.281                   108259652.251 8
  84358173.556 8        49.900          48.700
  24892884.336                                                   130812979.268 5
                        34.300
  23178495.000                    23178502.809    23178503.332   121803831.022 6
  94912088.572 6        41.900          40.300
  22715033.320                    22715043.004                   119368323.983 7
  93014328.083 7        43.300          43.600
  20337810.719                    20337817.004    20337816.941   106875920.580 8
  83280001.253 8        52.100          50.000
  23790845.766                    23790851.699    23790851.461   125021697.230 6
  97419561.735 6        41.000          37.900
 14  1  2  0  9 30.0000000  0  9G02G04G14G25G32G29G24G12G31
  24069777.883                                    24069781.703   126487444.727 6
  98561733.26143        39.800          23.900
  23441476.453                                    23441483.262   123185790.355 6
  95988957.86643        38.900          20.600
  21420881.359                                    21420886.938   112567484.809 7
  87714947.00645        46.900          33.600
  20592519.969                    20592529.652                   108214517.632 8
  84323003.722 8        49.100          49.200
  24896423.969                                                   130831582.294 5
                        35.400
  23157569.914                    23157578.602    23157578.422   121693872.792 7
  94826406.882 6        43.000          40.600
  22733256.617                    22733266.945                   119464089.212 7
  93088950.309 7        43.000          44.000
  20344536.797                    20344543.023    20344542.961   106911267.507 8
  83307544.314 8        51.800          49.800
  23772127.359                    23772132.180    23772132.117   124923328.164 6
  97342910.526 6        41.100          38.400
 14  1  2  0 10  0.0000000  0  9G02G04G14G25G32G29G24G12G31
  24055924.258                                    24055928.957   126414645.036 6
  98505006.25043        38.600          22.800
  23439352.461                                    23439359.973   123174632.854 6
  95980263.74043        39.700          21.100
  21423582.016                                    21423587.594   112581676.649 7
  87726005.59245        47.700          33.500
  20584010.344                    20584019.441                   108169797.498 8
  84288156.880 8        49.600          49.300
  24900065.305                                                   130850714.920 5
                        34.200
  23136685.070                    23136693.641    23136693.168   121584121.188 7
  94740886.215 6        43.600          41.200
  22751526.297                    22751536.625                   119560099.340 7
  93163763.354 7        43.100          44.700
  20351343.359                    20351349.352    20351349.113   106947035.446 8
  83335415.435 8        52.100          50.700
  23753431.680                    23753437.906    23753437.375   124825086.621 6
  97266358.668 6        40.500          38.400
 14  1  2  0 10 30.0000000  0  9G02G04G14G25G32G29G24G12G31
  24042126.156                                    24042131.676   126342140.321 6
  98448509.05544        40.700          24.500
  23437347.859                                    23437354.902   123164096.499 6
  95972053.58543        39.900          19.300
  21426397.930                                    21426403.391   112596475.575 7
  87737537.22545        47.900          33.000
  20575579.422                    20575588.578                   108125493.344 8
  84253634.167 8        50.800          49.600
  24903806.719                                                   130870377.128 5
                        35.200
  23115840.180                    23115848.398    23115848.336   121474579.730 7
  94655529.283 6        42.700          40.800
  22769842.398                    22769853.137                   119656353.013 7
  93238766.175 7        42.600          43.900
  20358230.141                    20358236.074    20358236.070   106983223.908 8
  83363614.253 8        52.100          50.900
  23734762.680                    23734767.910    23734767.906   124726975.507 6
  97189908.448 6        41.700          38.100
 14  1  2  0 11  0.0000000  0  9G02G04G14G25G32G29G24G12G31
  24028386.102                                    24028390.684   126269932.717 6
  98392243.41344        40.500          24.700
  23435460.492                                    23435468.004   123154181.334 6
  95964327.50443        40.000          18.600
  21429329.484                                    21429334.828   112611880.568 7
  87749541.11145        47.500          33.500
  20567227.570                    20567237.547                   108081605.270 8
  84219435.674 8        50.700          49.100
  24907648.727                                                   130890567.331 5
                        34.100
  23095035.008                    23095043.578    23095043.281   121365249.979 6
  94570337.330 6        41.900          40.700
  22788206.047                    22788215.379                   119752848.338 7
  93313957.297 7        43.000          43.800
  20365195.883                    20365201.699    20365201.637   107019830.997 8
  83392139.265 8        52.300          50.900
  23716116.953                    23716122.887    23716123.059   124628995.775 6
  97113560.617 6        41.300          38.200
 14  1  2  0 11 30.0000000  0  9G02G04G14G25G32G29G24G12G31
  24014702.602                                    24014707.301   126198023.855 6
  98336210.55043        40.900          22.300
  23433692.477                                    23433699.344   123144887.197 6
  95957085.27543        40.400          20.100
  21432376.289                                    21432381.984   112627890.541 7
  87762016.41045        47.500          33.000
  20558955.383                    20558964.480                   108038133.021 8
  84185561.190 8        50.500          49.000
  24911590.797                                                   130911283.621 5
                        34.600
  23074271.297                    23074279.398    23074279.336   121256133.667 7
  94485311.687 6        42.300          40.500
  22806613.977                    22806624.129                   119849583.222 7
  93389335.098 7        43.000          44.100
  20372241.422                    20372246.418    20372246.590   107056854.947 8
  83420989.105 8        52.600          50.300
  23697498.289                    23697503.813    23697503.457   124531148.416 6
  97037315.928 6        41.800          38.900
 14  1  2  0 12  0.0000000  0  9G02G04G14G25G32G29G24G12G31
  24001075.445                                    24001080.789   126126416.192 6
  98280412.40644        39.900          24.800
  23432042.133                                    23432049.293   123136214.865 6
  95950327.63543        41.300          21.300
  21435537.594                                    21435543.289   112644504.575 7
  87774962.40845        47.900          33.300
  20550761.672                    20550770.945                   107995077.052 8
  84152011.089 8        50.700          49.400
  24915632.258                                                   130932524.855 5
                        34.800
  23053548.039                    23053555.965    23053555.961   121147233.181 7
  94400454.242 6        42.700          40.100
  22825067.297                    22825076.805                   119946556.016 7
  93464898.270 7        42.300          44.100
  20379365.742                    20379371.090    20379371.145   107094293.649 8
  83450162.121 8        52.600          50.300
  23678902.883                    23678908.934    23678908.930   124433434.740 6
  96961175.411 6        41.700          38.900
 14  1  2  0 12 30.0000000  0  9G02G04G14G25G32G29G24G12G31
  23987507.445                                    23987511.969   126055113.600 6
  98224851.98544        41.100          24.100
  23430510.547                                    23430517.414   123128165.906 6
  95944055.74043        41.300          21.100
  21438813.563                                    21438819.961   112661723.742 7
  87788379.93145        47.800          33.400
  20542648.305                    20542657.637                   107952439.033 8
  84118786.677 8        51.100          49.900
  24919774.969                                                   130954291.177 5
                        33.800
  23032866.859                    23032875.254    23032874.898   121038552.017 6
  94315767.715 6        41.700          40.200
  22843565.656                    22843575.750                   120043766.184 7
  93540646.416 7        42.500          43.700
  20386569.336                    20386575.152    20386574.855   107132148.535 8
  83479659.438 8        52.200          49.700
  23660334.977                    23660340.617    23660340.379   124335857.618 6
  96885141.299 6        41.900          38.900
 14  1  2  0 13  0.0000000  0  9G02G04G14G25G32G29G24G12G31
  23973997.508                                    23974002.207   125984118.355 6
  98169531.03144        41.400          24.600
  23429098.242                                    23429104.465   123120741.011 6
  95938270.12343        41.100          20.400
  21442206.078                                    21442211.715   112679547.154 7
  87802268.29545        47.600          33.600
  20534614.367                    20534623.113                   107910219.409 8
  84085888.284 8        51.200          50.000
  24924016.609                                                   130976581.125 5
                        34.100
  23012227.148                    23012235.309    23012235.539   120930092.624 7
  94231253.975 6        42.200          41.000
  22862108.320                    22862119.000                   120141212.095 7
  93616578.257 7        42.300          44.300
  20393851.609                    20393857.309    20393857.246   107170417.343 8
  83509479.287 8        52.300          50.200
  23641792.742                    23641798.207    23641798.086   124238418.800 6
  96809214.969 6        41.100          38.400
 14  1  2  0 13 30.0000000  0  9G02G04G14G25G32G29G24G12G31
  23960546.320                                    23960550.902   125913432.256 6
  98114450.98043        41.200          23.500
  23427803.891                                    23427810.230   123113939.590 6
  95932970.30943        41.700          21.100
  21445712.070                                    21445718.352   112697973.233 7
  87816626.27645        47.300          33.100
  20526659.891                    20526668.813                   107868417.840 8
  84053315.634 8        51.000          49.600
  24928357.586                                                   130999392.824 5
                        34.800
  22991631.016                    22991638.766    22991638.586   120821856.647 7
  94146914.331 6        42.200          41.000
  22880697.000                    22880706.859                   120238891.273 7
  93692691.851 7        42.400          44.400
  20401212.336                    20401218.680    20401218.617   107209097.956 8
  83539620.029 8        51.900          49.500
  23623277.773                    23623283.063    23623283.176   124141118.888 6
  96733396.859 6        41.700          38.300
 14  1  2  0 14  0.0000000  0  9G02G04G14G25G32G29G24G12G31
  23947154.352                                    23947159.402   125843058.902 6
  98059614.62244        41.700          24.000
  23426628.391                                    23426634.848   123107764.026 6
  95928158.18643        41.800          20.900
  21449333.484                                    21449338.945   112717002.971 7
  87831454.61745        47.800          33.100
  20518785.227                    20518793.797                   107827036.229 8
  84021070.219 8        51.200          49.800
  24932797.547                                                   131022726.509 5
                        33.700
  22971077.008                    22971085.461    22971084.988   120713847.547 7
  94062751.482 6        42.200          40.700
  22899328.883                    22899339.152                   120336803.743 7
  93768987.243 7        42.200          44.300
  20408651.125                    20408656.824    20408656.762   107248189.860 8
  83570081.255 8        52.200          50.200
  23604788.016                    23604794.066    23604794.648   124043960.852 6
  96657689.303 6        40.900          38.200
 14  1  2  0 14 30.0000000  0  9G02G04G14G25G32G29G24G12G31
  23933823.156                                    23933827.328   125773000.447 7
  98005023.64444        42.300          25.200
  23425572.359                                    23425578.699   123102213.786 6
  95923833.33043        41.700          20.100
  21453068.977                                    21453075.199   112736635.194 7
  87846752.41645        47.800          33.000
  20510990.250                    20510999.875                   107786074.523 8
  83989152.005 8        51.800          50.200
  24937336.203                                                   131046580.494 5
                        32.800
  22950566.727                    22950575.004    22950575.352   120606067.268 6
  93978766.921 6        41.700          40.400
  22918004.891                    22918015.336                   120434947.420 6
  93845462.794 7        41.900          44.200
  20416167.906                    20416173.898    20416173.836   107287692.035 8
  83600862.164 8        51.700          50.100
  23586327.055                    23586332.813    23586332.926   123946946.132 6
  96582093.425 6        41.000          38.900
 14  1  2  0 15  0.0000000  0  9G02G04G14G25G32G29G24G12G31
  23920550.938                                    23920556.867   125703260.812 7
  97950681.11644        42.600          24.700
  23424634.984                                    23424642.555   123097291.108 6
  95919997.49343        40.700          19.900
  21456919.688                                    21456926.086   112756870.793 7
  87862520.39345        47.000          33.000
  20503276.133                    20503284.879                   107745534.673 8
  83957562.506 8        51.400          49.700
  24941973.688                                                   131070954.970 5
                        32.400
  22930101.531                    22930109.457    22930109.746   120498519.484 6
  93894963.528 6        41.700          40.900
  22936724.922                    22936735.426                   120533321.879 7
  93922118.177 7        42.000          43.900
  20423763.313                    20423769.188    20423769.125   107327604.845 8
  83631963.069 8        51.900          50.500
  23567893.180                    23567899.230    23567899.227   123850077.639 6
  96506611.498 6        40.000          39.700
 14  1  2  0 15 30.0000000  0  9G02G04G14G25G32G29G24G12G31
  23907341.688                                    23907346.035   125633839.838 7
  97896586.91844        42.300          24.700
  23423817.359                                    23423824.227   123092994.174 6
  95916649.24243        40.500          19.900
  21460885.375                                    21460891.070   112777706.875 7
  87878756.27345        46.500          33.900
  20495641.477                    20495650.281                   107705415.002 8
  83926300.425 8        51.000          49.600
  24946710.219                                                   131095846.458 5
                        32.200
  22909680.023                    22909688.359    22909688.355   120391204.773 6
  93811341.751 6        41.400          40.700
  22955489.047                    22955498.379                   120631923.835 6
  93998950.830 7        41.700          44.700
  20431436.016                    20431441.891    20431441.711   107367924.356 8
  83663380.866 8        51.700          49.900
  23549487.938                    23549493.813    23549493.516   123753354.939 6
  96431243.155 6        40.800          38.900
 14  1  2  0 16  0.0000000  0  9G02G04G14G25G32G29G24G12G31
  23894193.250                                    23894197.480   125564742.137 7
  97842744.62744        42.800          24.800
  23423118.070                                    23423126.285   123089324.936 6
  95913790.10843        40.100          20.900
  21464964.555                                    21464970.250   112799144.264 7
  87895460.70045        47.000          33.200
  20488087.180                    20488096.219                   107665717.588 8
  83895367.367 8        50.900          49.900
  24951544.852                                                   131121255.394 5
                        31.600
  22889303.930                    22889311.855    22889312.027   120284126.945 6
  93727904.539 6        41.700          41.100
  22974295.188                    22974305.047                   120730753.263 6
  94075960.719 7        41.700          44.300
  20439185.578                    20439191.277    20439191.332   107408650.914 8
  83695115.852 8        51.200          49.900
  23531110.664                    23531115.543    23531115.715   123656781.212 6
  96355990.909 6        41.100          38.500
 14  1  2  0 16 30.0000000  0  9G02G04G14G25G32G29G24G12G31
  23881105.898                                    23881109.836   125495968.486 6
  97789154.82644        41.800          26.000
  23422539.680                                    23422547.777   123086282.310 6
  95911419.22943        39.500          21.100
  21469158.102                                    21469163.914   112821180.664 7
  87912631.89345        47.400          33.500
  20480612.602                    20480622.168                   107626441.481 8
  83864762.616 8        50.500          50.400
  24956479.641                                                   131147179.084 5
                        30.800
  22868972.461                    22868980.855    22868980.559   120177286.985 6
  93644652.700 6        41.400          40.400
  22993144.773                    22993154.574                   120829806.677 6
  94153145.157 7        39.900          43.900
  20447012.773                    20447018.824    20447018.762   107449781.452 8
  83727165.621 8        50.900          49.700
  23512761.781                    23512767.305    23512767.301   123560356.927 6
  96280855.120 6        40.800          38.200
 14  1  2  0 17  0.0000000  0  9G02G04G14G25G32G29G24G12G31
  23868080.633                                    23868085.098   125427522.146 7
  97735820.08144        42.500          25.200
  23422079.789                                    23422087.828   123083867.701 6
  95909537.75543        39.700          20.100
  21473464.625                                    21473471.141   112843816.261 7
  87930269.97045        46.700          33.200
  20473219.578                    20473228.383                   107587587.833 8
  83834487.053 8        50.900          50.000
  24961509.945                                                   131173616.841 5
                        32.200
  22848687.500                    22848695.016    22848694.953   120070687.918 7
  93561588.568 6        42.500          40.700
  23012036.336                    23012046.371                   120929083.625 6
  94230503.792 7        39.600          44.500
  20454916.625                    20454922.090    20454922.086   107491315.511 8
  83759529.827 8        50.800          50.500
  23494441.406                    23494447.105    23494447.160   123464084.232 6
  96205837.442 6        41.100          38.900
 14  1  2  0 17 30.0000000  0  9G02G04G14G25G32G29G24G12G31
  23855119.078                                    23855122.840   125359406.273 6
  97682742.84144        41.600          24.300
  23421740.031                                    23421747.836   123082081.788 6
  95908146.09343        40.400          20.100
  21477886.727                                    21477892.598   112867050.891 7
  87948374.82645        46.300          33.000
  20465906.156                    20465916.016                   107549157.753 8
  83804541.531 8        50.200          49.900
  24966639.594                                                   131200568.071 5
                        33.000
  22828448.813                    22828456.855    22828456.441   119964332.918 6
  93478714.632 6        41.600          40.200
  23030970.180                    23030980.215                   121028582.954 6
  94308035.703 7        41.400          43.800
  20462896.508                    20462902.441    20462902.320   107533253.286 8
  83792208.612 8        51.100          50.000
  23476151.094                    23476156.324    23476156.086   123367965.789 6
  96130939.955 6        41.100          39.400
 14  1  2  0 18  0.0000000  0  9G02G04G14G25G32G29G24G12G31
  23842219.391                                    23842224.500   125291622.527 7
  97629924.38244        42.100          25.100
  23421519.859                                    23421528.016   123080924.305 6
  95907244.19643        40.600          20.400
  21482421.672                                    21482427.543   112890883.261 7
  87966945.46045        46.900          32.600
  20458674.109                    20458683.148                   107511151.091 8
  83774925.945 8        50.900          50.600
  24971865.070                                                   131228030.829 5
                        34.200
  22808257.383                    22808264.664    22808265.012   119858223.892 7
  93396032.376 6        43.100          40.000
  23049946.117                    23049956.387                   121128302.679 6
  94385739.349 7        41.300          44.100
  20470953.711                    20470959.586    20470959.582   107575592.305 8
  83825200.065 8        51.900          50.100
  23457889.367                    23457895.125    23457894.711   123272002.535 6
  96056163.390 6        41.200          39.300
 14  1  2  0 18 30.0000000  0  9G02G04G14G25G32G29G24G12G31
  23829384.461                                    23829389.102   125224173.910 7
  97577367.09344        42.200          25.600
  23421419.266                                    23421426.953   123080396.216 6
  95906832.69243        40.800          20.100
  21487071.016                                    21487077.121   112915313.122 7
  87985981.65545        47.000          33.000
  20451522.234                    20451531.391                   107473568.863 8
  83745641.082 8        50.500          50.700
  24977189.547                                                   131256004.506 5
                        34.900
  22788113.195                    22788120.477    22788120.238   119752363.401 7
  93313543.757 6        43.400          40.800
  23068964.789                    23068974.590                   121228241.697 6
  94463613.874 7        40.000          43.900
  20479086.984                    20479093.035    20479092.855   107618331.645 8
  83858503.447 8        51.700          50.000
  23439658.633                    23439663.453    23439663.801   123176196.543 6
  95981509.374 6        41.400          38.700
 14  1  2  0 19  0.0000000  0  9G02G04G14G25G32G29G24G12G31
  23816613.750                                    23816618.098   125157062.431 7
  97525072.48344        42.600          26.000
  23421439.547                                    23421446.648   123080497.220 6
  95906911.41043        40.800          20.600
  21491833.320                                    21491839.250   112940339.424 7
  88005482.62345        46.100          32.700
  20444451.227                    20444460.969                   107436411.149 8
  83716687.014 8        50.800          50.200
  24982609.117                                                   131284487.162 5
                        34.000
  22768016.148                    22768023.137    22768023.016   119646753.302 7
  93231250.240 6        44.300          41.400
  23088023.719                    23088032.934                   121328398.144 6
  94541657.819 7        40.800          43.900
  20487295.578                    20487301.219    20487301.273   107661469.325 8
  83892117.225 8        52.700          50.200
  23421457.500                    23421462.965    23421462.902   123080549.353 6
  95906979.111 6        40.800          38.900
 14  1  2  0 19 30.0000000  0  9G02G04G14G25G32G29G24G12G31
  23803907.625                                    23803911.914   125090290.866 6
  97473042.74344        41.800          24.800
  23421578.656                                    23421585.230   123081228.162 6
  95907480.97843        40.900          21.300
  21496708.750                                    21496715.031   112965961.217 7
  88025447.58445        45.800          32.900
  20437461.023                    20437470.355                   107399678.672 8
  83688064.296 8        50.800          49.800
  24988125.594                                                   131313477.830 5
                        34.400
  22747966.656                    22747974.816    22747974.461   119541396.897 7
  93149154.409 6        42.900          41.100
  23107123.383                    23107133.711                   121428770.932 6
  94619870.333 7        41.800          43.700
  20495580.391                    20495586.090    20495586.086   107705004.811 8
  83926040.984 8        52.100          49.700
  23403286.992                    23403292.574    23403292.336   122985062.895 6
  95832574.091 6        40.800          39.800
 14  1  2  0 20  0.0000000  0  9G02G04G14G25G32G29G24G12G31
  23791265.258                                    23791270.250   125023860.192 7
  97421278.58544        42.000          25.200
  23421837.086                                    23421844.832   123082587.754 6
  95908540.39643        40.800          21.300
  21501697.344                                    21501703.508   112992176.755 7
  88045875.22645        46.200          32.800
  20430552.469                    20430562.328                   107363370.472 8
  83659772.210 8        50.900          50.000
  24993738.914                                                   131342973.718 5
                        33.700
  22727966.164                    22727974.734    22727974.203   119436294.776 7
  93067256.728 6        42.600          41.200
  23126264.727                    23126274.527                   121529357.032 6
  94698249.074 7        41.800          43.500
  20503940.023                    20503946.133    20503946.129   107748935.460 8
  83960272.657 8        52.200          50.300
  23385147.820                    23385153.578    23385152.871   122889737.697 6
  95758294.717 6        41.500          39.700
 14  1  2  0 20 30.0000000  0  9G02G04G14G25G32G29G24G12G31
  23778689.891                                    23778694.766   124957776.008 7
  97369784.45944        42.400          24.900
  23422216.164                                    23422223.500   123084578.863 6
  95910091.94043        41.500          20.600
  21506799.750                                    21506805.563   113018987.566 7
  88066766.70545        46.700          33.300
  20423724.406                    20423733.797                   107327489.942 8
  83631813.368 8        51.100          49.800
  24999446.125                                                   131372976.144 5
                        32.600
  22708015.484                    22708023.762    22708023.406   119331452.171 7
  92985561.253 6        43.400          40.700
  23145446.875                    23145456.852                   121630157.253 6
  94776794.656 7        40.600          43.800
  20512375.250                    20512381.301    20512381.121   107793262.660 8
  83994813.337 8        52.300          50.200
  23367039.203                    23367045.020    23367044.605   122794578.406 6
  95684144.615 6        41.400          39.800
 14  1  2  0 21  0.0000000  0  9G02G04G14G25G32G29G24G12G31
  23766180.297                                    23766185.406   124892037.915 6
  97318559.99144        41.800          26.000
  23422715.336                                    23422722.086   123087199.424 6
  95912133.93143        41.500          21.700
  21512014.328                                    21512020.082   113046390.525 7
  88088119.62045        46.300          32.700
  20416977.688                    20416986.609                   107292034.988 8
  83604186.121 8        50.900          50.100
  25005251.570                                                   131403481.392 5
                        31.500
  22688113.805                    22688121.320    22688121.316   119226869.300 7
  92904068.183 6        43.800          41.700
  23164668.125                    23164678.512                   121731168.081 6
  94855504.359 7        41.800          43.900
  20520885.242                    20520891.000    20520890.879   107837982.875 8
  84029660.265 8        52.200          49.700
  23348962.336                    23348967.566    23348967.387   122699584.301 7
  95610123.238 6        42.500          40.000
 14  1  2  0 21 30.0000000  0  9G02G04G14G25G32G29G24G12G31
  23753737.578                                    23753742.102   124826650.787 7
  97267609.01844        42.800          25.700
  23423333.547                                    23423340.355   123090451.889 6
  95914668.33643        41.600          20.900
  21517341.883                                    21517348.223   113074386.981 7
  88109935.01245        46.500          32.700
  20410312.086                    20410321.301                   107257008.503 8
  83576892.749 8        51.300          50.000
  25011152.555                                                   131434490.572 5
                        31.300
  22668262.914                    22668270.430    22668269.957   119122550.655 7
  92822780.999 6        43.800          41.100
  23183929.602                    23183940.047                   121832390.084 6
  94934378.608 7        41.700          43.900
  20529470.320                    20529476.078    20529476.074   107883096.861 8
  84064814.014 8        52.200          50.300
  23330917.922                    23330923.035    23330923.148   122604759.444 7
  95536233.743 6        42.500          39.900
 14  1  2  0 22  0.0000000  0  9G02G04G14G25G32G29G24G12G31
  23741362.406                                    23741366.871   124761615.174 7
  97216931.96244        43.000          25.400
  23424072.820                                    23424079.395   123094334.620 7
  95917693.86343        42.300          21.500
  21522781.680                                    21522787.609   113102973.765 7
  88132210.42045        45.900          32.800
  20403728.359                    20403737.223                   107222408.667 8
  83549931.836 8        51.800          50.200
  25017148.516                                                   131465999.862 5
                        30.100
  22648462.164                    22648469.387    22648469.031   119018496.645 7
  92741700.034 6        45.200          41.200
  23203231.461                    23203241.730                   121933820.139 6
  95013414.973 7        41.700          43.800
  20538129.297                    20538134.996    20538135.051   107928601.303 8
  84100272.022 8        52.100          49.500
  23312905.125                    23312911.059    23312910.879   122510103.661 7
  95462475.996 6        43.000          40.200
 14  1  2  0 22 30.0000000  0  9G02G04G14G25G32G29G24G12G31
  23729053.266                                    23729058.023   124696934.139 7
  97166531.17244        43.200          25.400
  23424931.703                                    23424937.984   123098848.365 6
  95921211.07243        41.200          21.800
  21528334.109                                    21528339.922   113132151.363 7
  88154946.19545        46.800          32.100
  20397225.820                    20397234.742                   107188237.092 8
  83523304.631 8        51.600          49.600
  25023238.695                                                   131498009.001 5
                        30.500
  22628712.602                    22628719.707    22628719.762   118914710.744 7
  92660827.987 6        45.000          41.700
  23222572.156                    23222582.602                   122035457.249 7
  95092612.688 7        42.600          43.800
  20546862.633                    20546869.035    20546868.797   107974496.198 8
  84136034.286 8        51.700          49.900
  23294924.984                    23294931.270    23294931.266   122415619.886 7
  95388852.280 6        42.800          40.800
 14  1  2  0 23  0.0000000  0  9G02G04G14G25G32G29G24G12G31
  23716813.117                                    23716817.230   124632609.378 7
  97116408.00144        43.000          26.700
  23425910.289                                    23425916.863   123103992.263 6
  95925219.32743        41.700          21.300
  21533998.531                                    21534004.578   113161917.473 7
  88178140.54445        46.700          32.700
  20390804.406                    20390813.504                   107154493.079 8
  83497010.581 8        51.900          49.400
  25029425.344                                                   131530515.384 4
                        29.900
  22609013.508                    22609021.141    22609021.195   118811194.208 7
  92580165.818 7        44.500          42.500
  23241952.539                    23241962.457                   122137298.837 6
  95171969.730 7        41.600          43.800
  20555669.789                    20555675.840    20555675.836   108020778.570 8
  84172098.475 8        51.700          49.900
  23276978.695                    23276984.453    23276983.980   122321308.565 7
  95315362.943 6        42.800          41.100
 14  1  2  0 23 30.0000000  0  9G02G04G14G25G32G29G24G12G31
  23704640.227                                    23704645.453   124568644.339 7
  97066565.14444        42.800          25.200
  23427009.203                                    23427016.070   123109767.855 6
  95929719.78143        40.900          19.600
  21539774.914                                    21539781.195   113192272.798 7
  88201794.00945        47.000          32.900
  20384464.875                    20384473.621                   107121178.543 8
  83471051.219 8        52.100          50.200
  25035706.313                                                   131563518.958 4
                        28.000
  22589367.156                    22589373.910    22589374.258   118707950.768 7
  92499716.442 6        45.100          41.900
  23261370.383                    23261381.063                   122239344.666 7
  95251485.926 7        42.100          44.400
  20564550.883                    20564556.875    20564556.871   108067448.994 8
  84208465.042 8        51.900          49.800
  23259064.797                    23259070.965    23259071.195   122227173.059 7
  95242010.605 6        42.400          41.100
 14  1  2  0 24  0.0000000  0  9G02G04G14G25G32G29G24G12G31
  23692536.664                                    23692541.949   124505039.383 7
  97017002.88644        42.700          26.000
  23428228.328                                    23428234.199   123116172.817 6
  95934710.68843        41.700          20.600
  21545662.688                                    21545668.441   113223213.939 7
  88225903.96445        46.700          33.900
  20378206.781                    20378215.762                   107088291.591 8
  83445425.028 8        51.700          50.200
  25042081.164                                                   131597016.059 5
                        30.800
  22569772.531                    22569779.871    22569780.043   118604980.670 7
  92419480.063 6        45.200          41.700
  23280828.383                    23280838.242                   122341591.281 6
  95331158.587 7        41.700          43.500
  20573505.344                    20573510.867    20573511.098   108114504.228 8
  84245131.468 8        51.600          49.500
  23241185.594                    23241191.527    23241191.523   122133212.888 7
  95168794.893 6        42.600          41.000
 14  1  2  0 24 30.0000000  0  9G02G04G14G25G32G29G24G12G31
  23680502.328                                    23680507.379   124441798.563 7
  96967724.35044        42.400          26.900
  23429566.297                                    23429574.102   123123209.079 6
  95940193.49043        41.600          21.300
  21551662.094                                    21551668.023   113254741.443 7
  88250470.81845        46.700          32.800
  20372030.359                    20372038.695                   107055834.491 8
  83420133.772 8        51.700          49.900
  25048548.930                                                   131631006.910 4
                        27.300
  22550230.711                    22550237.816    22550238.047   118502288.078 7
  92339459.909 6        44.700          41.700
  23300322.414                    23300333.445                   122444038.348 7
  95410987.438 7        42.300          43.900
  20582533.195                    20582539.070    20582538.949   108161944.513 8
  84282097.920 8        51.900          49.900
  23223339.227                    23223345.277    23223345.332   122039431.622 7
  95095718.593 6        42.100          41.400
 14  1  2  0 25  0.0000000  0  9G02G04G14G25G32G29G24G12G31
  23668538.563                                    23668542.617   124378924.623 6
  96918731.68444        41.800          26.700
  23431026.172                                    23431033.332   123130876.946 6
  95946168.45143        41.900          21.100
  21557773.102                                    21557779.324   113286854.793 7
  88275494.17745        46.900          32.100
  20365935.344                    20365944.324                   107023808.023 8
  83395178.081 8        51.600          50.100
  25055111.719                                                   131665490.440 4
                        27.600
  22530741.406                    22530749.273    22530749.387   118399875.732 7
  92259658.105 6        44.500          41.800
  23319855.484                    23319866.281                   122546685.263 6
  95490972.003 7        41.900          43.600
  20591633.359                    20591639.059    20591638.938   108209768.774 8
  84319363.565 8        51.300          49.500
  23205527.703                    23205533.988    23205533.750   121945831.886 6
  95022783.740 6        41.700          41.800
 14  1  2  0 25 30.0000000  0  9G02G04G14G25G32G29G24G12G31
  23656643.711                                    23656648.820   124316420.029 7
  96870026.83544        42.500          25.800
  23432604.938                                    23432612.684   123139176.260 7
  95952635.44243        42.500          20.900
  21563995.250                                    21564001.004   113319552.632 7
  88300972.98945        46.500          32.200
  20359923.203                    20359932.594                   106992212.245 8
  83370557.979 8        51.000          50.400
  25061767.930                                                   131700464.758 5
                        30.100
  22511306.656                    22511315.227    22511314.988   118297745.945 7
  92180076.476 7        44.400          42.400
  23339426.383                    23339436.828                   122649530.103 7
  95571110.789 7        42.100          43.300
  20600807.266                    20600812.965    20600812.551   108257975.773 8
  84356927.456 8        51.600          49.500
  23187751.383                    23187757.492    23187757.313   121852414.819 7
  94949991.220 7        42.500          42.000
 14  1  2  0 26  0.0000000  0  9G02G04G14G25G32G29G24G12G31
  23644819.773                                    23644824.648   124254285.555 7
  96821610.40144        42.500          25.800
  23434305.188                                    23434312.172   123148105.751 7
  95959593.49643        42.800          22.000
  21570328.031                                    21570334.313   113352832.862 7
  88326905.60845        46.700          32.000
  20353992.453                    20354001.844                   106961046.461 8
  83346272.930 8        51.100          50.500
  25068514.313                                                   131735927.158 4
                        28.900
  22491927.000                    22491934.223    22491934.043   118195899.937 7
  92100715.997 7        44.300          42.300
  23359034.641                    23359044.793                   122752570.254 6
  95651401.784 7        41.800          43.600
  20610052.813                    20610058.453    20610058.391   108306562.756 8
  84394787.441 8        51.600          49.600
  23170009.070                    23170014.770    23170014.941   121759181.325 6
  94877341.742 6        41.500          41.800
 14  1  2  0 26 30.0000000  0  9G02G04G14G25G32G29G24G12G31
  23633066.953                                    23633072.121   124192524.367 6
  96773484.82244        41.700          26.000
  23436124.227                                    23436131.270   123157665.806 7
  95967042.87543        42.600          23.000
  21576771.977                                    21576777.613   113386694.862 7
  88353291.55545        47.300          33.100
  20348143.906                    20348153.063                   106930311.644 8
  83322323.722 8        51.200          50.500
  25075353.719                                                   131771876.511 4
                        28.600
  22472600.656                    22472607.996    22472607.816   118094340.306 7
  92021578.643 7        44.600          42.100
  23378678.656                    23378689.922                   122855804.022 6
  95731843.648 7        41.700          43.600
  20619370.477                    20619376.586    20619376.406   108355528.604 8
  84432942.637 8        51.900          50.200
  23152302.648                    23152308.992    23152309.105   121666133.815 7
  94804837.198 7        42.300          42.500
 14  1  2  0 27  0.0000000  0  9G02G04G14G25G32G29G24G12G31
  23621385.945                                    23621390.938   124131138.608 6
  96725651.80444        40.600          25.100
  23438062.656                                    23438070.461   123167856.437 7
  95974983.63443        42.500          22.800
  21583326.148                                    21583332.781   113421137.757 7
  88380130.15245        47.000          32.600
  20342377.234                    20342386.625                   106900008.126 8
  83298710.602 8        51.000          50.800
  25082288.188                                                   131808311.305 4
                        26.800
  22453329.188                    22453336.879    22453336.934   117993069.394 7
  91942666.262 6        44.500          41.600
  23398360.969                    23398371.238                   122959230.364 6
  95812435.567 7        41.600          43.600
  20628760.680                    20628766.789    20628766.844   108404872.640 8
  84471392.532 8        51.600          49.600
  23134631.961                    23134638.539    23134638.184   121573274.190 7
  94732479.056 7        42.800          42.000
 14  1  2  0 27 30.0000000  0  9G02G04G14G25G32G29G24G12G31
  23609776.648                                    23609781.113   124070130.531 6
  96678113.06344        41.900          26.700
  23440122.430                                    23440129.824   123178677.093 7
  95983415.31843        42.500          22.600
  21589991.008                                    21589996.879   113456159.474 7
  88407419.76945        47.200          32.900
  20336693.281                    20336702.672                   106870136.155 8
  83275433.738 8        51.700          50.400
  25089311.688                                                   131845229.873 4
                        28.600
  22434113.469                    22434121.453    22434121.391   117892089.577 7
  91863980.706 7        45.400          42.300
  23418079.016                    23418089.285                   123062847.913 6
  95893176.466 7        41.600          43.300
  20638222.273                    20638228.441    20638228.203   108454593.628 8
  84510136.156 8        51.700          49.500
  23116998.289                    23117003.871    23117004.160   121480604.110 7
  94660268.615 7        42.900          42.300
 14  1  2  0 28  0.0000000  0  9G02G04G14G25G32G29G24G12G31
  23598240.156                                    23598244.328   124009502.798 6
  96630870.71144        41.000          26.200
  23442300.641                                    23442308.680   123190128.182 7
  95992338.24343        42.700          22.800
  21596765.367                                    21596771.707   113491759.495 7
  88435160.02745        47.000          33.000
  20331090.547                    20331099.996                   106840696.400 8
  83252493.663 8        51.300          50.800
  25096430.234                                                   131882630.808 4
                        29.900
  22414953.766                    22414961.809    22414961.629   117791403.778 7
  91785524.277 7        44.500          42.200
  23437833.055                    23437843.148                   123166655.213 6
  95974065.238 7        41.600          43.800
  20647755.305                    20647761.180    20647761.059   108504690.288 8
  84549172.513 8        51.400          49.700
  23099400.016                    23099406.066    23099406.004   121388125.563 7
  94588207.405 7        43.100          42.300
 14  1  2  0 28 30.0000000  0  9G02G04G14G25G32G29G24G12G31
  23586775.039                                    23586779.328   123949257.664 6
  96583926.47944        41.600          24.200
  23444601.070                                    23444607.820   123202209.393 7
  96001752.15143        42.700          23.600
  21603649.625                                    21603655.672   113527936.748 7
  88463350.07545        47.000          32.400
  20325570.797                    20325580.246                   106811689.201 8
  83229890.642 8        51.700          50.500
  25103639.148                                                   131920512.534 4
                        28.900
  22395850.141                    22395857.715    22395857.594   117691014.222 7
  91707298.681 7        44.600          42.200
  23457621.844                    23457632.465                   123270650.185 6
  96055100.229 7        41.700          43.900
  20657359.375                    20657365.367    20657365.188   108555160.493 8
  84588499.938 8        51.800          49.300
  23081838.508                    23081844.207    23081844.086   121295840.652 7
  94516297.091 7        43.200          42.000
 14  1  2  0 29  0.0000000  0  9G02G04G14G25G32G29G24G12G31
  23575383.734                                    23575388.434   123889397.047 6
  96537281.88744        41.300          25.500
  23447018.461                                    23447026.207   123214920.031 7
  96011656.52643        42.900          22.300
  21610644.023                                    21610649.719   113564690.106 7
  88491989.03245        47.600          32.000
  20320133.352                    20320142.684                   106783114.497 8
  83207624.632 8        51.800          51.300
  25110938.898                                                   131958872.725 5
                        30.100
  22376803.328                    22376810.258    22376810.430   117590922.508 7
  91629305.166 7        45.500          42.000
  23477447.484                    23477457.813                   123374831.019 7
  96136280.061 7        42.900          43.700
  20667034.484                    20667040.125    20667040.238   108606003.613 8
  84628117.950 8        51.600          49.600
  23064314.594                    23064320.469    23064320.523   121203750.694 7
  94444538.677 7        43.600          42.400
 14  1  2  0 29 30.0000000  0  9G02G04G14G25G32G29G24G12G31
  23564066.273                                    23564071.207   123829923.866 7
  96490939.17844        42.500          27.500
  23449557.148                                    23449564.836   123228260.487 7
  96022051.72643        42.700          21.800
  21617747.219                                    21617752.914   113602017.804 7
  88521075.52345        47.600          32.500
  20314778.305                    20314787.637                   106754973.333 8
  83185696.451 8        51.900          50.800
  25118329.375                                                   131997710.634 4
                        29.600
  22357813.555                    22357820.895    22357820.480   117491131.825 7
  91551546.227 6        45.200          41.800
  23497307.234                    23497318.266                   123479197.147 7
  96217604.266 7        42.300          43.300
  20676780.492                    20676786.250    20676786.129   108657218.810 8
  84668025.889 8        51.900          49.600
  23046827.625                    23046834.145    23046834.316   121111858.688 7
  94372934.514 7        43.800          42.500
 14  1  2  0 30  0.0000000  0  9G02G04G14G25G32G29G24G12G31
  23552823.055                                    23552827.461   123770839.419 6
  96444899.38644        41.500          26.400
  23452215.563                                    23452222.898   123242229.546 7
  96032936.69843        42.300          21.300
  21624959.234                                    21624965.867   113639917.840 7
  88550607.99345        47.600          31.500
  20309505.391                    20309514.371                   106727264.713 8
  83164105.313 8        51.900          50.600
  25125812.313                                                   132037023.244 5
                        31.000
  22338881.797                    22338888.902    22338888.781   117391643.490 7
  91474022.877 7        44.700          42.000
  23517202.305                    23517212.750                   123583745.693 7
  96299070.644 7        42.500          43.500
  20686596.836                    20686602.770    20686602.531   108708803.304 8
  84708221.586 8        51.600          49.500
  23029379.203                    23029384.727    23029384.664   121020164.738 7
  94301484.696 7        43.900          42.400
 14  1  2  0 30 30.0000000  0  9G02G04G14G25G32G29G24G12G31
  23541654.703                                    23541659.227   123712147.529 6
  96399165.48544        40.400          26.500
  23454993.672                                    23455001.594   123256828.532 6
  96044312.51543        41.800          21.700
  21632280.578                                    21632286.859   113678391.102 7
  88580587.12745        47.700          32.400
  20304315.617                    20304324.832                   106699991.137 8
  83142853.177 8        52.300          51.000
  25133383.055                                                   132076810.922 5
                        31.200
  22320007.531                    22320015.047    22320015.043   117292461.689 7
  91396738.385 7        44.600          42.100
  23537132.055                    23537142.383                   123688477.219 7
  96380679.582 7        42.600          43.400
  20696483.250                    20696489.887    20696489.883   108760757.686 8
  84748705.517 8        51.400          49.400
  23011969.008                    23011974.531    23011974.645   120928672.902 7
  94230192.363 7        44.100          42.400
 14  1  2  0 31  0.0000000  0  9G02G04G14G25G32G29G24G12G31
  23530560.711                                    23530565.176   123653849.591 7
  96353738.56344        42.700          26.400
  23457891.633                                    23457898.617   123272056.502 6
  96056178.47443        41.100          20.600
  21639710.008                                    21639716.523   113717435.070 7
  88611010.96145        47.600          32.100
  20299208.281                    20299217.086                   106673151.835 8
  83121939.439 8        52.400          50.700
  25141043.648                                                   132117070.713 5
                        31.200
  22301192.664                    22301199.711    22301199.883   117193587.589 7
  91319693.664 7        45.400          42.300
  23557096.102                    23557106.488                   123793388.364 7
  96462428.496 7        42.300          43.000
  20706439.758                    20706445.340    20706445.277   108813079.145 8
  84789475.475 8        51.500          49.200
  22994596.961                    22994603.129    22994602.891   120837383.945 7
  94159058.103 7        44.200          42.400
 14  1  2  0 31 30.0000000  0  9G02G04G14G25G32G29G24G12G31
  23519541.750                                    23519546.625   123595947.531 7
  96308620.10744        42.000          26.800
  23460907.984                                    23460915.496   123287912.559 6
  96068533.84443        41.000          19.000
  21647248.352                                    21647254.516   113757048.549 7
  88641878.58145        47.900          32.300
  20294183.461                    20294192.090                   106646746.827 8
  83101364.106 8        52.300          50.000
  25148794.672                                                   132157800.776 5
                        30.100
  22282436.445                    22282444.430    22282444.074   117095023.482 7
  91242890.487 6        45.300          41.800
  23577093.875                    23577104.438                   123898477.950 6
  96544316.442 7        41.800          42.700
  20716465.781                    20716471.715    20716471.477   108865767.089 8
  84830531.013 8        51.400          48.200
  22977264.539                    22977270.238    22977270.234   120746299.853 7
  94088083.493 7        44.100          42.200
 14  1  2  0 32  0.0000000  0  9G02G04G14G25G32G29G24G12G31
  23508599.586                                    23508603.758   123538442.920 6
  96263811.35344        41.400          25.400
  23464045.633                                    23464052.441   123304395.685 6
  96081377.83843        40.700          19.300
  21654894.680                                    21654900.785   113797229.181 8
  88673188.14245        48.000          32.300
  20289241.102                    20289250.434                   106620775.702 8
  83081126.861 8        51.800          50.400
  25156635.328                                                   132198998.483 5
                        31.500
  22263740.414                    22263747.402    22263747.633   116996771.092 7
  91166330.222 6        45.700          41.800
  23597125.430                    23597135.992                   124003743.645 6
  96626341.623 7        41.300          42.800
  20726561.586                    20726566.992    20726566.813   108918819.355 8
  84871870.441 8        51.400          48.800
  22959971.297                    22959976.469    22959976.641   120655421.823 7
  94017269.457 7        44.100          42.100
 14  1  2  0 32 30.0000000  0  9G02G04G14G25G32G29G24G12G31
  23497733.297                                    23497737.996   123481340.415 6
  96219315.91844        41.000          25.400
  23467301.492                                    23467309.004   123321507.806 6
  96094711.96743        41.200          20.400
  21662648.617                                    21662655.074   113837978.072 7
  88704940.50945        47.600          32.100
  20284382.453                    20284391.375                   106595241.288 8
  83061229.911 8        51.900          50.200
  25164562.953                                                   132240664.572 5
                        31.600
  22245102.867                    22245110.324    22245110.379   116898835.020 7
  91090016.438 6        45.400          41.500
  23617190.594                    23617201.566                   124109186.293 6
  96708504.679 7        41.700          43.500
  20736726.203                    20736732.430    20736732.250   108972236.593 8
  84913494.265 8        51.000          48.900
  22942716.984                    22942722.918    22942722.973   120564753.993 7
  93946619.215 7        44.700          42.400
 14  1  2  0 33  0.0000000  0  9G02G04G14G25G32G29G24G12G31
  23486943.703                                    23486947.113   123424637.920 7
  96175132.17744        42.500          26.200
  23470677.688                                    23470683.910   123339244.399 6
  96108532.64643        41.300          19.600
  21670509.844                                    21670515.891   113879289.165 7
  88737130.95845        47.200          31.900
  20279605.039                    20279614.723                   106570139.396 8
  83041669.990 8        51.500          50.900
  25172580.742                                                   132282792.889 5
                        32.500
  22226526.297                    22226533.871    22226533.633   116801212.833 7
  91013947.230 7        45.400          42.400
  23637288.781                    23637298.172                   124214799.445 6
  96790800.605 7        41.300          42.700
  20746960.180                    20746965.996    20746965.992   109026013.521 8
  84955398.365 8        51.000          48.800
  22925503.172                    22925509.398    22925509.277   120474293.637 7
  93876130.627 7        45.000          42.300
 14  1  2  0 33 30.0000000  0  9G02G04G14G25G32G29G24G12G31
  23476230.727                                    23476234.547   123368341.322 6
  96131264.72844        41.300          26.800
  23474172.070                                    23474178.762   123357608.231 7
  96122842.14243        42.100          19.600
  21678478.438                                    21678485.012   113921164.964 7
  88769761.43145        47.800          31.900
  20274911.914                    20274921.188                   106545473.893 8
  83022450.105 8        52.300          50.500
  25180685.844                                                   132325385.166 5
                        31.500
  22208010.563                    22208017.492    22208017.371   116703910.856 7
  90938127.544 7        45.700          42.700
  23657418.375                    23657429.406                   124320585.617 6
  96873231.337 7        41.500          43.200
  20757262.078                    20757267.953    20757267.832   109080152.273 8
  84997584.386 8        50.900          49.000
  22908329.852                    22908335.551    22908335.723   120384046.816 7
  93805808.426 7        45.600          42.600
 14  1  2  0 34  0.0000000  0  9G02G04G14G25G32G29G24G12G31
  23465594.898                                    23465598.660   123312450.197 6
  96087713.23744        41.400          27.300
  23477784.539                                    23477792.344   123376596.483 7
  96137638.17943        42.000          20.900
  21686554.367                                    21686560.766   113963601.865 7
  88802829.14445        47.800          31.900
  20270300.742                    20270309.781                   106521242.695 8
  83003568.638 8        52.300          50.500
  25188878.750                                                   132368437.123 5
                        31.800
  22189554.977                    22189562.551    22189562.371   116606928.973 7
  90862557.283 7        45.000          42.900
  23677580.836                    23677591.633                   124426540.655 6
  96955793.661 7        41.600          42.500
  20767632.211                    20767638.730    20767638.551   109134648.791 8
  85040049.206 8        51.100          49.000
  22891197.352                    22891202.230    22891202.227   120294012.649 7
  93735651.944 7        45.400          43.100
 14  1  2  0 34 30.0000000  0  9G02G04G14G25G32G29G24G12G31
  23455037.156                                    23455041.035   123256970.597 7
  96044482.41144        42.600          26.200
  23481518.203                                    23481524.719   123396212.647 7
  96152923.51443        43.100          22.000
  21694736.922                                    21694743.145   114006601.860 7
  88836335.63945        47.700          31.900
  20265773.250                    20265782.406                   106497450.044 8
  82985028.911 8        51.800          50.400
  25197160.695                                                   132411951.043 5
                        32.300
  22171162.305                    22171169.703    22171169.758   116510273.370 7
  90787241.260 7        45.700          42.600
  23697776.594                    23697786.688                   124532666.867 6
  97038489.343 7        40.900          43.500
  20778071.398                    20778077.449    20778077.328   109189505.874 8
  85082794.968 8        51.000          48.800
  22874105.023                    22874111.426    22874111.305   120204197.053 7
  93665665.763 7        45.100          42.800
 14  1  2  0 35  0.0000000  0  9G02G04G14G25G32G29G24G12G31
  23444557.430                                    23444561.602   123201900.751 6
  96001570.87544        41.000          25.900
  23485369.148                                    23485376.191   123416451.804 7
  96168694.28143        42.600          23.200
  21703025.773                                    21703031.703   114050159.138 7
  88870276.37345        47.200          31.700
  20261328.211                    20261337.602                   106474091.943 8
  82966827.787 8        51.500          50.300
  25205525.539                                                   132455920.570 5
                        31.200
  22152830.789                    22152838.480    22152838.477   116413942.057 7
  90712177.924 7        46.400          43.100
  23718002.945                    23718013.332                   124638958.786 6
  97121314.174 7        41.200          42.800
  20788578.180                    20788583.645    20788583.641   109244718.146 8
  85125817.508 8        50.700          48.800
  22857055.492                    22857061.953    22857061.656   120114597.818 7
  93595848.184 7        45.600          43.400
 14  1  2  0 35 30.0000000  0  9G02G04G14G25G32G29G24G12G31
  23434157.406                                    23434161.578   123147245.089 6
  95958982.07144        41.700          25.600
  23489339.664                                    23489346.883   123437316.516 7
  96184952.48643        43.100          21.700
  21711420.297                                    21711426.695   114094275.006 7
  88904652.37345        47.100          31.500
  20256966.633                    20256975.906                   106451171.257 8
  82948967.503 8        51.600          50.500
  25213978.039                                                   132500346.607 5
                        30.300
  22134561.711                    22134569.637    22134569.516   116317939.894 7
  90637371.081 7        45.500          42.300
  23738261.117                    23738271.738                   124745417.069 6
  97204268.635 7        40.500          42.600
  20799152.227                    20799158.219    20799158.098   109300286.545 8
  85169117.556 8        51.500          48.600
  22840048.203                    22840053.141    22840052.961   120025219.707 7
  93526202.910 7        45.300          42.900
 14  1  2  0 36  0.0000000  0  9G02G04G14G25G32G29G24G12G31
  23423835.992                                    23423839.754   123093005.641 7
  95916717.59544        42.700          27.300
  23493429.094                                    23493436.488   123458805.252 7
  96201696.96043        42.600          22.600
  21719921.617                                    21719927.488   114138947.405 7
  88939462.02145        46.600          31.300
  20252688.266                    20252697.656                   106428687.944 8
  82931448.030 8        51.600          50.400
  25222518.328                                                   132545227.062 4
                        29.400
  22116356.633                    22116364.090    22116364.262   116222268.761 7
  90562822.190 7        46.100          43.500
  23758550.883                    23758561.797                   124852039.961 6
  97287351.357 7        40.600          42.400
  20809793.898                    20809799.832    20809800.004   109356209.564 8
  85212693.933 8        51.300          48.300
  22823082.039                    22823086.742    22823086.797   119936063.745 7
  93456730.734 7        45.800          43.000
 14  1  2  0 36 30.0000000  0  9G02G04G14G25G32G29G24G12G31
  23413593.883                                    23413597.996   123039184.581 6
  95874779.14244        41.200          27.500
  23497637.328                                    23497644.137   123480917.722 6
  96218927.48043        40.800          22.300
  21728528.313                                    21728533.773   114184175.175 7
  88974704.43245        47.300          33.000
  20248492.805                    20248502.137                   106406642.335 8
  82914269.634 8        51.700          50.700
  25231146.477                                                   132590559.862 5
                        30.800
  22098214.211                    22098221.785    22098221.781   116126931.070 7
  90488533.142 7        46.100          43.600
  23778872.195                    23778882.289                   124958825.834 6
  97370561.084 7        41.700          42.700
  20820503.570                    20820509.211    20820509.090   109412486.258 8
  85256545.894 8        50.900          48.300
  22806158.469                    22806163.992    22806164.164   119847132.521 7
  93387433.679 7        45.500          43.200
 14  1  2  0 37  0.0000000  0  9G02G04G14G25G32G29G24G12G31
  23403431.367                                    23403435.773   122985782.318 7
  95833167.00644        42.700          26.200
  23501963.328                                    23501970.078   123503651.638 7
  96236642.20443        42.000          23.300
  21737239.492                                    21737245.715   114229955.244 7
  89010377.18245        46.900          30.500
  20244380.688                    20244390.078                   106385033.100 8
  82897431.262 8        51.700          50.600
  25239856.703                                                   132636341.673 5
                        30.800
  22080135.703                    22080143.043    22080142.629   116031927.438 7
  90414504.370 7        46.100          43.700
  23799223.133                    23799233.344                   125065771.301 6
  97453895.163 7        41.100          42.600
  20831279.102                    20831284.918    20831284.680   109469113.296 8
  85300670.854 8        50.700          48.800
  22789278.063                    22789284.348    22789284.227   119758426.298 7
  93318311.962 7        45.500          43.500
 14  1  2  0 37 30.0000000  0  9G02G04G14G25G32G29G24G12G31
  23393350.117                                    23393353.996   122932803.559 6
  95791884.87944        41.700          27.800
  23506406.938                                    23506414.859   123527008.912 6
  96254842.67043        41.600          21.800
  21746056.648                                    21746062.871   114276288.227 7
  89046480.76545        47.500          31.300
  20240352.500                    20240361.129                   106363862.841 8
  82880934.965 8        52.000          50.900
  25248656.094                                                   132682572.879 5
                        30.300
  22062120.961                    22062129.121    22062129.000   115937262.508 7
  90340739.530 7        44.300          43.800
  23819604.742                    23819614.895                   125172877.545 6
  97537354.528 7        41.200          42.400
  20842121.344                    20842127.453    20842127.215   109526091.122 8
  85345069.157 8        50.200          49.000
  22772441.555                    22772447.254    22772447.426   119669949.273 7
  93249368.832 7        45.700          43.500
 14  1  2  0 38  0.0000000  0  9G02G04G14G25G32G29G24G12G31
  23383349.117                                    23383352.879   122880246.762 7
  95750931.55844        42.600          27.700
  23510970.016                                    23510977.645   123550985.387 6
  96273525.64643        40.400          22.200
  21754977.727                                    21754983.715   114323169.185 7
  89083011.33945        46.800          31.400
  20236406.750                    20236416.492                   106343128.471 8
  82864778.309 8        51.700          51.100
  25257538.664                                                   132729248.347 5
                        30.100
  22044171.836                    22044179.059    22044179.465   115842935.414 7
  90267237.945 7        45.800          43.200
  23840016.523                    23840026.676                   125280139.323 6
  97620935.077 7        41.800          42.200
  20853030.383                    20853036.316    20853036.020   109583416.787 8
  85389738.495 8        51.000          49.100
  22755648.180                    22755654.113    22755654.461   119581700.352 7
  93180603.446 7        46.100          43.300
 14  1  2  0 38 30.0000000  0  9G02G04G14G25G32G29G24G12G31
  23373428.523                                    23373432.578   122828115.979 7
  95710310.19344        42.100          26.100
  23515650.492                                    23515657.535   123575582.098 6
  96292691.89043        40.300          21.300
  21764003.219                                    21764009.148   114370598.043 7
  89119968.86945        46.700          31.000
  20232544.477                    20232554.102                   106322831.929 8
  82848962.818 8        51.900          51.200
  25266504.180                                                   132776367.691 4
                        29.400
  22026286.734                    22026294.309    22026294.246   115748949.955 7
  90194002.586 7        46.000          44.100
  23860456.906                    23860467.527                   125387556.662 6
  97704636.842 7        40.900          42.300
  20864005.195                    20864010.660    20864010.480   109641089.961 8
  85434678.627 8        50.800          49.000
  22738899.445                    22738905.145    22738905.258   119493683.207 7
  93112018.664 7        46.000          43.200
 14  1  2  0 39  0.0000000  0  9G02G04G14G25G32G29G24G12G31
  23363590.289                                    23363593.699   122776414.009 7
  95670022.95644        42.800          27.500
  23520448.992                                    23520456.504   123600799.155 6
  96312341.55643        39.200          21.300
  21773132.914                                    21773138.727   114418574.098 7
  89157352.77445        46.600          31.700
  20228765.547                    20228774.762                   106302974.217 8
  82833489.279 8        51.900          51.300
  25275552.828                                                   132823929.80914
                        28.300
  22008467.492                    22008474.715    22008474.711   115655309.220 7
  90121035.832 7        45.800          43.800
  23880927.555                    23880937.238                   125495128.842 6
  97788459.273 7        41.100          42.600
  20875045.766                    20875051.758    20875051.461   109699110.034 8
  85479889.059 8        50.300          48.500
  22722194.797                    22722200.672    22722200.434   119405900.160 7
  93043616.299 7        45.800          43.400
 14  1  2  0 39 30.0000000  0  8G02G04G14G25G29G24G12G31
  23353833.484                                    23353837.129   122725142.330 7
  95630071.02844        42.600          27.300
  23525365.969                                    23525372.777   123626634.949 6
  96332473.30743        40.300          21.300
  21782366.242                                    21782372.465   114467094.996 7
  89195161.22345        46.800          31.100
  20225070.250                    20225079.465                   106283554.754 8
  82818357.223 8        51.800          50.700
  21990713.867                    21990721.324    21990721.203   115562014.897 7
  90048339.016 7        46.400          43.600
  23901426.398                    23901437.195                   125602853.779 6
  97872400.741 7        41.100          42.100
  20886151.789                    20886158.309    20886158.070   109757473.785 8
  85525367.286 8        51.000          48.600
  22705535.148                    22705540.789    22705540.727   119318352.736 7
  92975397.537 7        45.100          43.700
 14  1  2  0 40  0.0000000  0  8G02G04G14G25G29G24G12G31
  23344158.641                                    23344162.871   122674301.348 7
  95590454.69844        42.800          27.000
  23530399.328                                    23530406.313   123653087.192 6
  96353085.43843        40.000          22.000
  21791702.359                                    21791708.875   114516157.845 7
  89233391.99045        46.800          30.900
  20221458.125                    20221467.457                   106264572.327 8
  82803565.711 8        52.100          51.000
  21973027.109                    21973033.629    21973033.859   115469067.513 7
  89975912.537 7        46.200          43.800
  23921954.773                    23921965.336                   125710728.136 6
  97956458.647 7        40.900          42.300
  20897323.375                    20897329.074    20897329.012   109816179.748 8
  85571112.178 8        50.300          48.900
  22688919.906                    22688925.664    22688925.836   119231041.491 7
  92907362.816 7        45.700          44.000
 14  1  2  0 40 30.0000000  0  8G02G04G14G25G29G24G12G31
  23334567.055                                    23334570.348   122623894.994 7
  95551177.05644        43.800          27.400
  23535551.078                                    23535557.594   123680157.022 6
  96374178.78743        41.400          21.100
  21801141.727                                    21801148.301   114565762.486 7
  89272044.91145        46.500          30.400
  20217929.313                    20217938.469                   106246028.964 8
  82789116.340 8        52.500          50.900
  21955406.086                    21955413.719    21955413.598   115376471.095 7
  89903759.536 7        45.400          43.600
  23942510.227                    23942521.785                   125818752.567 6
  98040633.496 7        41.100          42.400
  20908559.984                    20908566.211    20908566.148   109875228.640 8
  85617124.295 8        51.000          48.800
  22672351.172                    22672357.223    22672357.277   119143970.049 7
  92839514.941 7        45.500          44.400
 14  1  2  0 41  0.0000000  0  8G02G04G14G25G29G24G12G31
  23325056.969                                    23325061.199   122573923.271 7
  95512238.07544        42.100          27.200
  23540818.438                                    23540825.832   123707841.537 6
  96395751.13743        40.300          21.300
  21810683.586                                    21810689.867   114615905.374 7
  89311117.25345        47.100          30.800
  20214483.797                    20214493.129                   106227922.889 8
  82775007.716 8        52.600          51.500
  21937852.961                    21937860.125    21937860.414   115284225.814 7
  89831880.145 7        45.800          43.500
  23963095.398                    23963106.078                   125926923.083 6
  98124922.164 7        40.900          42.100
  20919861.422                    20919867.473    20919867.527   109934616.613 8
  85663400.632 8        50.300          48.800
  22655828.148                    22655833.320    22655833.199   119057138.556 7
  92771854.037 7        45.800          44.100
 14  1  2  0 41 30.0000000  0  8G02G04G14G25G29G24G12G31
  23315631.375                                    23315635.781   122524391.499 7
  95473641.90044        44.100          28.300
  23546204.617                                    23546211.719   123736143.314 6
  96417804.46143        41.300          21.300
  21820328.703                                    21820335.043   114666587.976 7
  89350610.14345        45.600          30.800
  20211122.305                    20211131.402                   106210257.718 8
  82761242.650 8        52.300          51.300
  21920366.906                    21920374.012    21920374.184   115192337.549 7
  89760278.956 7        46.000          43.800
  23983708.117                    23983717.801                   126035241.520 6
  98209326.092 6        39.600          41.900
  20931227.602                    20931233.125    20931233.121   109994345.659 8
  85709942.737 8        50.700          49.300
  22639350.805                    22639356.738    22639356.734   118970552.477 7
  92704384.376 7        45.500          44.100
 14  1  2  0 42  0.0000000  0  8G02G04G14G25G29G24G12G31
  23306289.523                                    23306292.934   122475297.850 7
  95435387.13844        42.300          27.700
  23551707.234                                    23551713.691   123765057.566 6
  96440335.03643        41.600          21.800
  21830074.383                                    21830080.898   114717804.605 7
  89390519.16945        45.600          30.400
  20207844.031                    20207853.070                   106193029.511 8
  82747818.081 8        50.900          50.500
  21902948.641                    21902955.219    21902955.449   115100804.343 7
  89688954.430 7        46.000          43.800
  24004346.211                    24004357.652                   126143702.604 6
  98293841.188 6        40.900          41.400
  20942657.164                    20942663.391    20942663.563   110054410.498 8
  85756746.497 8        50.900          48.100
  22622920.023                    22622926.133    22622926.070   118884209.805 7
  92637104.385 7        45.600          44.600
 14  1  2  0 42 30.0000000  0  8G02G04G14G25G29G24G12G31
  23297031.938                                    23297035.816   122426647.674 7
  95397477.93144        43.000          26.600
  23557327.102                                    23557332.973   123794586.646 6
  96463344.70843        41.800          21.800
  21839922.305                                    21839928.645   114769556.972 7
  89430845.66045        46.400          30.900
  20204649.383                    20204658.129                   106176241.993 8
  82734736.908 8        51.400          50.700
  21885599.219                    21885606.852    21885606.555   115009631.825 7
  89617910.953 7        46.000          44.000
  24025013.977                    24025024.305                   126252307.822 6
  98378468.606 6        40.600          41.500
  20954151.508                    20954157.617    20954157.613   110114813.252 8
  85803813.566 8        50.900          48.800
  22606537.398                    22606543.273    22606542.977   118798115.895 7
  92570018.230 7        45.400          44.600
 14  1  2  0 43  0.0000000  0  8G02G04G14G25G29G24G12G31
  23287858.969                                    23287862.379   122378440.803 7
  95359914.15244        42.800          28.300
  23563062.398                                    23563068.973   123824727.761 6
  96486831.28843        41.800          21.700
  21849871.586                                    21849878.688   114821841.141 7
  89471586.53145        46.700          31.200
  20201538.266                    20201547.188                   106159893.375 8
  82721997.736 8        52.000          50.800
  21868318.438                    21868325.602    21868325.656   114918820.318 7
  89547148.792 7        46.400          44.400
  24045707.531                    24045717.918                   126361053.659 6
  98463205.583 6        40.800          41.900
  20965709.688                    20965715.621    20965715.383   110175550.848 8
  85851141.565 8        50.800          48.200
  22590201.383                    22590207.434    22590207.371   118712271.052 7
  92503126.151 7        45.500          44.300
 14  1  2  0 43 30.0000000  0  8G02G04G14G25G29G24G12G31
  23278769.563                                    23278773.383   122330679.746 7
  95322697.77744        42.800          28.500
  23568913.539                                    23568920.699   123855480.085 6
  96510794.12643        41.600          20.900
  21859922.453                                    21859928.852   114874655.969 7
  89512740.93445        45.900          30.200
  20198510.961                    20198520.117                   106143983.915 8
  82709600.770 8        52.100          51.100
  21851106.758                    21851113.746    21851113.508   114828371.946 7
  89476669.588 7        47.500          43.600
  24066428.344                    24066438.613                   126469939.036 6
  98548051.294 6        40.900          41.700
  20977331.063                    20977336.352    20977336.406   110236621.973 8
  85898729.441 8        51.100          48.200
  22573913.164                    22573919.391    22573919.152   118626677.368 7
  92436429.783 7        44.900          43.900
 14  1  2  0 44  0.0000000  0  8G02G04G14G25G29G24G12G31
  23269765.891                                    23269770.238   122283367.316 7
  95285830.97744        43.700          27.800
  23574882.281                                    23574888.855   123886843.904 6
  96535233.43443        40.000          21.100
  21870073.273                                    21870080.023   114928000.408 7
  89554308.00345        46.100          30.300
  20195567.047                    20195575.793                   106128514.887 8
  82697547.004 8        52.200          50.900
  21833964.219                    21833971.676    21833971.320   114738290.199 7
  89406476.070 7        47.000          43.900
  24087174.594                    24087184.805                   126578962.801 6
  98633004.832 6        40.700          41.400
  20989016.336                    20989021.508    20989021.445   110298026.490 8
  85946577.109 8        50.800          48.100
  22557674.477                    22557679.824    22557679.879   118541337.694 7
  92369931.346 7        45.700          44.500
 14  1  2  0 44 30.0000000  0  8G02G04G14G25G29G24G12G31
  23260848.602                                    23260852.422   122236504.328 7
  95249314.38944        43.900          27.100
  23580965.938                                    23580973.566   123918816.843 6
  96560147.38343        39.200          20.600
  21880324.281                                    21880331.207   114981871.078 7
  89596285.13745        46.000          30.300
  20192706.680                    20192715.836                   106113485.286 8
  82685835.648 8        51.500          50.200
  21816892.188                    21816899.176    21816899.113   114648576.050 7
  89336568.991 7        47.200          43.800
  24107946.977                    24107957.891                   126688122.478 6
  98718064.285 6        40.100          41.900
  21000763.781                    21000769.891    21000769.359   110359761.255 8
  85994682.114 7        50.200          47.800
  22541482.656                    22541489.410    22541488.938   118456252.893 7
  92303631.509 7        45.500          44.200
 14  1  2  0 45  0.0000000  0  8G02G04G14G25G29G24G12G31
  23252016.930                                    23252020.340   122190092.687 7
  95213149.50545        42.300          30.200
  23587165.336                                    23587173.961   123951397.948 6
  96585535.22543        38.900          19.300
  21890675.914                                    21890682.078   115036266.561 7
  89638671.20045        46.700          30.400
  20189930.883                    20189939.863                   106098895.282 8
  82674466.826 8        51.200          50.500
  21799890.531                    21799897.461    21799897.457   114559231.773 7
  89266950.147 7        47.900          43.800
  24128744.875                    24128756.082                   126797416.574 6
  98803228.482 6        40.200          40.900
  21012574.617                    21012580.316    21012580.137   110421826.256 8
  86043044.443 7        50.300          47.800
  22525340.242                    22525346.586    22525346.465   118371425.119 7
  92237531.957 7        45.100          43.900
 14  1  2  0 45 30.0000000  0  8G02G04G14G25G29G24G12G31
  23243270.930                                    23243275.160   122144134.353 7
  95177337.85444        42.900          28.400
  23593480.805                                    23593489.488   123984586.391 6
  96611396.30943        38.800          19.900
  21901126.641                                    21901133.098   115091185.254 7
  89681464.97245        46.800          30.400
  20187237.938                    20187246.801                   106084745.160 8
  82663440.791 8        51.100          50.800
  21782959.492                    21782967.125    21782966.945   114470259.705 7
  89197621.388 7        47.700          44.200
  24149567.469                    24149578.852                   126906843.457 6
  98888496.148 6        40.200          40.900
  21024447.383                    21024453.375    21024453.254   110484219.038 8
  86091662.199 7        50.500          47.300
  22509247.883                    22509253.465    22509253.402   118286856.555 7
  92171634.390 7        45.800          44.400
 14  1  2  0 46  0.0000000  0  8G02G04G14G25G29G24G12G31
  23234612.180                                    23234615.648   122098630.888 7
  95141880.64244        43.500          28.900
  23599911.813                                    23599919.559   124018380.329 6
  96637729.24843        37.600          20.100
  21911676.133                                    21911682.766   115146624.759 7
  89724664.54645        46.600          30.100
  20184628.734                    20184638.242                   106071034.655 8
  82652757.295 8        51.200          51.000
  21766100.031                    21766107.078    21766106.898   114381661.347 7
  89128583.806 7        47.400          43.800
  24170416.383                    24170426.828                   127016401.472 6
  98973865.996 6        39.600          41.100
  21036382.398                    21036388.391    21036388.270   110546938.918 8
  86140534.822 8        49.300          48.000
  22493204.734                    22493210.141    22493210.137   118202549.069 7
  92105940.250 7        45.100          44.500
 14  1  2  0 46 30.0000000  0  8G02G04G14G25G29G24G12G31
  23226040.438                                    23226044.727   122053586.227 7
  95106780.93744        43.800          28.500
  23606458.836                                    23606466.406   124052781.081 6
  96664534.96143        39.100          20.400
  21922325.609                                    21922331.891   115202585.119 7
  89768269.97645        46.200          31.300
  20182103.750                    20182112.965                   106057765.763 8
  82642417.915 8        52.000          51.200
  21749311.922                    21749319.086    21749318.848   114293440.679 7
  89059840.492 7        47.400          44.400
  24191289.891                    24191300.160                   127126090.774 6
  99059338.138 6        39.000          40.600
  21048379.883                    21048385.348    21048385.344   110609985.828 8
  86189662.274 7        49.900          47.900
  22477211.586                    22477217.695    22477217.516   118118506.435 7
  92040452.487 7        45.400          44.100
 14  1  2  0 47  0.0000000  0  8G02G04G14G25G29G24G12G31
  23217555.789                                    23217559.844   122008998.920 7
  95072037.61544        44.000          29.100
  23613120.313                                    23613127.238   124087783.975 6
  96691809.93443        38.800          20.900
  21933072.258                                    21933079.535   115259061.054 7
  89812277.17745        46.400          30.400
  20179662.164                    20179671.438                   106044935.381 8
  82632420.222 8        51.300          51.100
  21732595.609                    21732603.066    21732602.945   114205596.846 7
  88991390.802 7        47.500          44.300
  24212186.289                    24212197.379                   127235906.265 6
  99144908.605 6        38.100          40.700
  21060438.328                    21060444.496    21060444.258   110673354.989 8
  86239040.843 7        49.900          47.800
  22461269.344                    22461275.219    22461275.098   118034727.274 7
  91975170.023 7        44.900          44.600
 14  1  2  0 47 30.0000000  0  8G02G04G14G25G29G24G12G31
  23209158.367                                    23209162.539   121964872.745 7
  95037653.61944        44.400          29.800
  23619895.656                                    23619903.168   124123390.157 6
  96719554.99243        40.200          20.900
  21943917.492                                    21943923.949   115316052.287 7
  89856685.89345        46.600          30.100
  20177304.836                    20177314.227                   106032545.638 8
  82622765.879 8        52.300          50.900
  21715952.094                    21715959.375    21715959.313   114118133.989 7
  88923237.991 7        46.900          44.300
  24233107.594                    24233118.977                   127345848.544 6
  99230577.857 6        37.900          40.700
  21072558.859                    21072564.559    21072564.672   110737048.022 8
  86288671.768 7        50.200          47.300
  22445377.422                    22445383.648    22445383.527   117951215.893 7
  91910096.221 7        44.600          43.800
 14  1  2  0 48  0.0000000  0  8G02G04G14G25G29G24G12G31
  23200849.336                                    23200853.801   121921209.156 7
  95003630.05844        44.700          29.300
  23626786.250                                    23626792.941   124159597.898 6
  96747768.80343        39.700          20.900
  21954860.688                                    21954866.852   115373556.734 7
  89901494.52845        46.200          30.200
  20175030.766                    20175040.156                   106020596.117 8
  82613454.577 8        51.600          51.500
  21699381.086                    21699387.957    21699387.953   114031053.413 7
  88855383.057 7        47.800          44.500
  24254052.633                    24254063.371                   127455915.295 6
  99316344.108 6        37.400          40.500
  21084740.453                    21084746.270    21084746.266   110801062.320 8
  86338553.033 8        49.800          48.000
  22429536.328                    22429542.672    22429542.727   117867973.571 7
  91845232.078 7        45.400          44.600
 14  1  2  0 48 30.0000000  0  8G02G04G14G25G29G24G12G31
  23192628.461                                    23192633.395   121878008.250 7
  94969967.04245        43.300          30.200
  23633790.055                                    23633796.453   124196404.311 6
  96776449.12243        38.400          19.900
  21965899.703                                    21965906.395   115431571.001 7
  89946700.42644        45.400          28.800
  20172840.188                    20172849.637                   106009085.351 8
  82604485.167 8        51.800          51.400
  21682882.695                    21682890.387    21682890.383   113944355.883 7
  88787826.594 7        46.900          44.600
  24275021.227                    24275032.375                   127566103.802 6
  99402205.223 6        38.000          39.900
  21096983.047                    21096988.629    21096988.449   110865395.608 8
  86388682.858 7        49.600          47.900
  22413747.422                    22413753.473    22413753.469   117785001.123 7
  91780578.221 7        44.500          44.300
 14  1  2  0 49  0.0000000  0  8G02G04G14G25G29G24G12G31
  23184496.891                                    23184501.297   121835274.053 7
  94936667.69745        43.400          30.300
  23640908.078                                    23640915.238   124233810.337 6
  96805596.65343        41.200          20.600
  21977037.086                                    21977043.133   115490095.343 7
  89992303.78044        46.300          29.700
  20170733.781                    20170742.879                   105998015.618 8
  82595859.413 8        51.400          51.400
  21666458.773                    21666465.762    21666465.816   113858045.919 8
  88720572.123 7        48.200          44.700
  24296012.492                    24296023.406                   127676414.352 6
  99488161.466 6        38.300          39.900
  21109285.930                    21109291.863    21109291.742   110930048.623 8
  86439061.819 7        49.800          47.900
  22398010.930                    22398016.336    22398016.098   117702302.692 7
  91716137.881 7        45.800          43.800
 14  1  2  0 49 30.0000000  0  8G02G04G14G25G29G24G12G31
  23176453.992                                    23176457.930   121793007.677 7
  94903732.88845        43.600          30.800
  23648139.688                                    23648146.203   124271814.345 6
  96835210.16443        40.800          20.400
  21988269.914                                    21988276.723   115549127.369 7
  90038302.74744        46.000          29.600
  20168711.180                    20168720.512                   105987386.545 8
  82587577.022 8        51.700          51.300
  21650108.094                    21650115.316    21650115.078   113772124.893 8
  88653620.706 7        48.700          44.700
  24317027.648                    24317037.801                   127786844.849 6
  99574211.165 6        38.400          40.000
  21121649.320                    21121655.430    21121655.309   110995019.520 8
  86489688.485 7        50.200          47.500
  22382326.086                    22382332.840    22382332.367   117619879.770 7
  91651912.231 7        45.400          43.900
 14  1  2  0 50  0.0000000  0  8G02G04G14G25G29G24G12G31
  23168499.750                                    23168504.332   121751210.021 7
  94871163.31144        42.900          28.900
  23655485.797                                    23655491.727   124310413.871 6
  96865287.71943        41.300          20.100
  21999599.492                                    21999605.949   115608663.042 7
  90084694.13444        46.100          29.200
  20166772.398                    20166781.379                   105977197.068 8
  82579637.174 8        51.600          51.100
  21633832.539                    21633839.762    21633839.465   113686593.605 8
  88586972.965 7        48.600          44.800
  24338064.461                    24338074.613                   127897392.725 6
  99660352.332 6        38.400          38.600
  21134073.133                    21134079.008    21134079.121   111060305.359 8
  86540560.562 7        50.100          47.900
  22366694.555                    22366699.902    22366700.016   117537733.462 7
  91587902.127 7        45.700          43.900
 14  1  2  0 50 30.0000000  0  8G02G04G14G25G29G24G12G31
  23160635.703                                    23160639.816   121709884.413 7
  94838961.56044        43.100          29.800
  23662943.844                                    23662950.242   124349609.252 6
  96895829.54843        40.400          20.100
  22011024.664                                    22011031.238   115668702.335 7
  90131477.98944        46.600          29.300
  20164917.258                    20164925.945                   105967448.731 8
  82572041.068 8        51.500          51.300
  21617631.438                    21617638.602    21617638.598   113601455.914 8
  88520631.930 7        48.700          45.200
  24359122.352                    24359133.383                   128008057.177 6
  99746584.328 6        37.600          38.600
  21146556.633                    21146562.391    21146562.387   111125906.561 8
  86591678.376 7        51.000          47.900
  22351115.945                    22351121.000    22351121.289   117455867.115 7
  91524110.185 7        45.600          43.700
 14  1  2  0 51  0.0000000  0  8G02G04G14G25G29G24G12G31
  23152861.352                                    23152865.816   121669031.388 7
  94807128.05244        44.100          29.500
  23670515.367                                    23670522.117   124389397.702 6
  96926833.53543        40.800          20.900
  22022544.859                                    22022551.375   115729242.132 7
  90178651.84244        45.600          29.600
  20163145.961                    20163155.469                   105958140.378 8
  82564787.798 8        51.700          51.200
  21601505.156                    21601512.496    21601512.316   113516712.597 8
  88454598.227 7        48.800          45.600
  24380202.461                    24380213.199                   128118836.019 6
  99832905.465 6        37.500          38.800
  21159100.000                    21159105.055    21159104.875   111191820.875 8
  86643040.163 8        50.400          48.300
  22335590.922                    22335596.152    22335596.207   117374281.595 7
  91460537.059 7        45.400          44.200
 14  1  2  0 51 30.0000000  0  8G02G04G14G25G29G24G12G31
  23145177.570                                    23145181.918   121628652.599 7
  94775664.07645        44.000          30.000
  23678198.852                                    23678206.012   124429778.522 6
  96958299.09843        39.500          20.400
  22034160.586                                    22034166.691   115790280.300 7
  90226214.01844        46.700          29.900
  20161458.219                    20161467.785                   105949272.286 8
  82557877.600 8        51.800          51.000
  21585454.234                    21585461.750    21585461.746   113432365.609 8
  88388873.338 7        49.600          45.300
  24401303.773                    24401315.566                   128229727.858 6
  99919314.654 6        36.900          38.600
  21171701.914                    21171707.848    21171707.727   111258047.236 8
  86694645.108 7        50.700          47.300
  22320119.156                    22320124.680    22320124.734   117292978.937 7
  91397184.343 7        45.800          43.800
 14  1  2  0 52  0.0000000  0  8G02G04G14G25G29G24G12G31
  23137584.375                                    23137589.484   121588750.661 7
  94744571.67444        44.200          29.200
  23685995.320                                    23686002.715   124470750.638 6
  96990225.38943        38.600          19.600
  22045870.336                                    22045876.676   115851815.391 7
  90274163.43944        46.200          29.400
  20159854.688                    20159864.195                   105940845.012 8
  82551310.892 8        51.200          50.900
  21569479.750                    21569487.383    21569487.203   113348417.905 8
  88323459.574 7        49.000          45.600
  24422427.703                    24422438.559                   128340731.290 6
 100005810.797 6        36.800          38.400
  21184363.805                    21184369.328    21184369.266   111324584.663 8
  86746492.444 7        50.500          47.800
  22304702.078                    22304708.070    22304708.066   117211962.086 7
  91334054.339 7        45.100          44.100
 14  1  2  0 52 30.0000000  0  8G02G04G14G25G29G24G12G31
  23130082.563                                    23130086.266   121549325.910 7
  94713851.09245        44.300          30.000
  23693904.719                                    23693911.586   124512311.767 6
  97022610.65643        38.900          19.300
  22057674.164                                    22057680.094   115913844.323 7
  90322497.65244        46.200          29.300
  20158334.977                    20158343.781                   105932857.599 8
  82545086.917 8        51.600          51.000
  21553581.297                    21553588.461    21553588.340   113264870.325 7
  88258357.629 7        47.900          45.200
  24443572.109                    24443583.023                   128451843.985 6
 100092392.086 6        36.600          38.700
  21197083.852                    21197090.664    21197090.426   111391430.751 8
  86798580.297 8        49.900          48.100
  22289339.578                    22289345.219    22289345.273   117131232.112 7
  91271147.859 7        44.100          44.100
 14  1  2  0 53  0.0000000  0  8G02G04G14G25G29G24G12G31
  23122671.438                                    23122676.137   121510382.055 7
  94683505.24244        43.500          29.500
  23701924.969                                    23701933.359   124554462.079 6
  97055455.01343        39.200          19.300
  22069571.750                                    22069577.914   115976366.593 7
  90371216.29544        45.900          28.900
  20156898.586                    20156907.859                   105925311.717 8
  82539207.002 8        51.700          51.000
  21537758.953                    21537766.234    21537766.113   113181726.631 8
  88193570.384 7        49.100          45.300
  24464738.172                    24464747.680                   128563065.674 6
 100179058.310 6        36.100          38.300
  21209863.141                    21209868.664    21209868.719   111458585.648 8
  86850908.786 7        50.600          47.400
  22274032.656                    22274037.945    22274038.000   117050792.533 7
  91208467.663 7        46.500          43.900
 14  1  2  0 53 30.0000000  0  8G02G04G14G25G29G24G12G31
  23115353.102                                    23115357.449   121471918.894 7
  94653533.96144        43.100          29.700
  23710057.258                                    23710065.707   124597198.772 6
  97088756.33843        38.700          19.300
  22081562.281                                    22081568.563   116039378.552 7
  90420316.52844        45.900          29.800
  20155546.969                    20155556.125                   105918206.095 8
  82533670.158 8        51.600          51.400
  21522014.227                    21522021.977    21522021.680   113098987.466 8
  88129098.347 7        49.300          46.200
  24485921.125                    24485932.742                   128674393.308 5
 100265807.070 6        33.700          37.500
  21222700.852                    21222706.785    21222706.488   111526047.367 8
  86903476.350 7        50.300          47.200
  22258780.891                    22258786.121    22258786.117   116970644.126 7
  91146014.354 7        45.100          43.900
 14  1  2  0 54  0.0000000  0  8G02G04G14G25G29G24G12G31
  23108124.359                                    23108128.766   121433938.066 7
  94623938.53645        43.600          30.400
  23718301.266                                    23718309.598   124640520.155 6
  97122513.19743        39.300          19.600
  22093645.672                                    22093652.129   116102877.779 7
  90469796.42644        46.000          29.300
  20154277.922                    20154286.902                   105911540.388 8
  82528476.108 8        50.800          51.200
  21506346.984                    21506353.914    21506353.852   113016654.444 8
  88064942.803 7        48.300          45.200
  24507127.086                    24507137.180                   128785825.394 6
 100352637.230 6        36.200          37.200
  21235596.023                    21235601.547    21235601.543   111593814.048 8
  86956281.550 7        49.900          47.200
  22243585.344                    22243591.160    22243590.805   116890788.508 7
  91083789.212 7        45.700          44.100
 14  1  2  0 54 30.0000000  0  8G02G04G14G25G29G24G12G31
  23100989.773                                    23100993.770   121396441.455 7
  94594720.40844        43.000          29.800
  23726656.422                                    23726664.168   124684424.860 6
  97156724.63943        39.700          19.300
  22105821.719                                    22105827.824   116166862.410 7
  90519654.55844        45.500          27.900
  20153093.578                    20153102.676                   105905314.844 8
  82523625.049 8        51.300          50.200
  21490756.969                    21490764.660    21490764.715   112934730.039 7
  88001105.648 7        47.600          45.300
  24528351.336                    24528361.605                   128897360.045 5
 100439547.306 6        35.000          36.800
  21248549.773                    21248555.473    21248555.527   111661884.368 8
  87009323.348 7        50.300          47.300
  22228444.633                    22228450.625    22228450.797   116811228.253 7
  91021794.209 7        44.600          43.300
 14  1  2  0 55  0.0000000  0  8G02G04G14G25G29G24G12G31
  23093946.688                                    23093950.742   121359429.579 7
  94565879.99045        42.700          31.100
  23735122.406                                    23735129.977   124728910.645 6
  97191388.89043        40.300          20.100
  22118088.992                                    22118095.566   116231329.188 7
  90569888.39544        45.800          28.200
  20151992.414                    20152001.570                   105899528.386 8
  82519116.117 8        51.100          50.800
  21475245.141                    21475252.422    21475252.359   112853214.821 7
  87937587.303 7        47.900          45.800
  24549594.617                    24549605.238                   129008995.280 5
 100526535.768 6        34.500          37.400
  21261560.398                    21261565.863    21261565.918   111730255.861 8
  87062599.826 7        50.600          47.100
  22213361.742                    22213366.914    22213366.910   116731964.608 7
  90960030.338 7        45.600          43.800
 14  1  2  0 55 30.0000000  0  8G02G04G14G25G29G24G12G31
  23086996.320                                    23087000.141   121322905.909 7
  94537420.02344        44.300          29.200
  23743698.320                                    23743705.656   124773977.486 6
  97226505.92743        40.800          20.100
  22130448.813                                    22130454.918   116296277.713 7
  90620497.60844        43.200          29.100
  20150974.984                    20150984.023                   105894182.827 8
  82514950.746 8        52.300          51.200
  21459811.828                    21459818.934    21459819.340   112772112.616 7
  87874390.837 7        47.000          45.900
  24570857.539                    24570868.102                   129120730.818 5
 100613602.372 6        35.000          37.000
  21274628.609                    21274634.426    21274634.188   111798929.577 8
  87116111.803 7        48.200          47.600
  22198335.695                    22198340.867    22198341.039   116653000.717 7
  90898500.032 7        43.300          43.900
 14  1  2  0 56  0.0000000  0  8G02G04G14G25G29G24G12G31
  23080138.867                                    23080142.863   121286870.927 7
  94509340.83644        43.900          29.800
  23752384.844                                    23752392.063   124819622.912 6
  97262073.76643        41.400          19.600
  22142898.867                                    22142905.324   116361704.608 7
  90671479.56044        45.900          29.400
  20150041.461                    20150050.793                   105889277.183 8
  82511128.158 8        51.700          51.000
  21444457.508                    21444465.023    21444465.078   112691424.643 7
  87811517.161 7        47.100          45.400
  24592137.906                    24592148.996                   129232563.777 5
 100700744.921 6        34.600          36.600
  21287753.633                    21287759.859    21287759.738   111867902.973 8
  87169857.299 7        49.400          47.400
  22183366.281                    22183371.746    22183371.801   116574338.130 7
  90837204.517 7        44.600          43.900
 14  1  2  0 56 30.0000000  0  8G02G04G14G25G29G24G12G31
  23073374.969                                    23073379.492   121251326.928 7
  94481644.23845        44.100          30.400
  23761180.633                                    23761187.559   124865846.350 6
  97298092.02443        41.500          19.900
  22155439.867                                    22155446.383   116427608.877 7
  90722833.49644        46.100          28.700
  20149191.930                    20149201.320                   105884812.268 8
  82507649.001 8        51.900          50.800
  21429182.555                    21429189.777    21429189.598   112611153.455 8
  87748968.196 7        48.700          46.100
  24613437.773                    24613448.805                   129344493.993 5
 100787963.240 6        34.600          36.700
  21300935.961                    21300942.305    21300941.832   111937175.380 8
  87223835.787 7        49.800          47.300
  22168455.273                    22168460.797    22168460.793   116495979.630 7
  90776145.946 7        46.200          44.300
 14  1  2  0 57  0.0000000  0  8G02G04G14G25G29G24G12G31
  23066704.820                                    23066709.285   121216274.936 7
  94454331.02145        44.200          30.400
  23770086.945                                    23770093.402   124912645.684 6
  97334559.04043        41.400          19.300
  22168071.695                                    22168078.035   116493987.526 7
  90774557.07344        46.100          28.500
  20148426.078                    20148435.000                   105880787.560 8
  82504512.860 8        52.400          50.900
  21413987.070                    21413994.410    21413994.348   112531300.754 8
  87686745.349 7        48.800          45.800
  24634754.781                    24634765.988                   129456518.812 5
 100875255.285 5        35.500          35.900
  21314174.680                    21314180.613    21314180.492   112006744.801 8
  87278045.717 7        49.900          47.300
  22153602.523                    22153607.930    22153607.809   116417927.163 7
  90715325.842 7        46.700          44.100
 14  1  2  0 57 30.0000000  0  8G02G04G14G25G29G24G12G31
  23060128.180                                    23060133.055   121181715.735 7
  94427401.79545        44.600          30.300
  23779101.156                                    23779107.965   124960018.686 6
  97371473.02143        41.600          18.300
  22180792.438                                    22180798.836   116560837.445 7
  90826647.87444        42.600          28.500
  20147743.938                    20147753.152                   105877202.245 8
  82501719.106 8        52.100          51.200
  21398871.023                    21398879.008    21398878.945   112451867.497 8
  87624849.343 7        48.800          45.900
  24656091.031                    24656101.418                   129568636.014 5
 100962619.294 5        35.400          35.600
  21327469.281                    21327475.391    21327475.328   112076609.865 7
  87332486.023 7        47.500          47.000
  22138807.953                    22138813.301    22138813.238   116340181.399 7
  90654744.728 7        46.700          43.800
 14  1  2  0 58  0.0000000  0  8G02G04G14G25G29G24G12G31
  23053646.492                                    23053650.430   121147652.393 7
  94400858.95345        44.100          30.300
  23788224.133                                    23788231.762   125007964.732 6
  97408833.61442        41.200          16.900
  22193603.633                                    22193610.148   116628157.588 7
  90879105.06744        45.000          27.300
  20147145.125                    20147154.926                   105874057.536 8
  82499268.687 8        52.300          51.200
  21383835.820                    21383843.160    21383842.922   112372856.827 8
  87563282.624 7        48.400          46.200
  24677444.461                    24677454.555                   129680845.123 5
 101050054.927 6        35.400          36.000
  21340820.250                    21340826.535    21340826.414   112146769.695 8
  87387156.014 7        49.400          47.500
  22124073.047                    22124078.043    22124078.156   116262745.861 7
  90594405.350 7        47.200          44.100
 14  1  2  0 58 30.0000000  0  8G02G04G14G25G29G24G12G31
  23047258.320                                    23047262.492   121114083.773 7
  94374701.61445        44.600          30.400
  23797455.891                                    23797463.754   125056480.136 6
  97446637.83342        40.600          17.400
  22206502.570                                    22206508.734   116695943.468 7
  90931925.19044        45.300          27.800
  20146630.188                    20146639.402                   105871351.048 8
  82497159.733 8        52.200          51.300
  21368881.367                    21368888.473    21368888.352   112294268.188 8
  87502044.757 7        48.500          45.800
  24698813.430                    24698823.113                   129793142.509 5
 101137559.352 6        35.500          36.000
  21354227.023                    21354232.840    21354232.836   112217221.212 8
  87442053.300 7        49.400          46.900
  22109396.156                    22109401.445    22109401.500   116185620.786 7
  90534307.891 7        46.800          43.800
 14  1  2  0 59  0.0000000  0  8G02G04G14G25G29G24G12G31
  23040964.984                                    23040969.273   121081014.272 7
  94348933.19944        44.000          29.900
  23806797.492                                    23806804.301   125105565.860 6
  97484886.42242        39.400          17.400
  22219490.094                                    22219496.434   116764195.374 7
  90985108.45244        45.300          26.000
  20146199.438                    20146208.652                   105869085.582 8
  82495394.454 8        52.600          51.300
  21354007.492                    21354014.891    21354014.770   112216106.721 7
  87441139.751 7        47.500          45.900
  24720198.266                    24720209.414                   129905529.102 5
 101225133.278 5        35.200          35.600
  21367689.352                    21367695.227    21367695.164   112287966.328 8
  87497179.364 7        49.300          47.500
  22094779.516                    22094785.156    22094785.211   116108810.419 7
  90474455.655 7        46.000          43.400
 14  1  2  0 59 30.0000000  0  8G02G04G14G25G29G24G12G31
  23034767.813                                    23034771.457   121048443.522 7
  94323553.41244        45.000          29.300
  23816245.320                                    23816253.008   125155218.459 6
  97523576.72642        39.600          15.600
  22232566.117                                    22232572.516   116832909.221 7
  91038651.65444        45.400          27.300
  20145851.891                    20145860.461                   105867259.269 8
  82493971.351 8        52.200          51.200
  21339215.070                    21339222.234    21339222.348   112138372.317 7
  87380567.545 7        47.800          46.100
  24741602.250                    24741612.695                   130018001.581 5
 101312774.144 5        35.700          35.200
  21381206.563                    21381212.848    21381212.609   112359001.125 8
  87552531.141 7        49.300          47.300
  22080222.742                    22080228.852    22080228.555   116032315.316 7
  90414849.079 7        46.200          44.000
 14  1  2  1  0  0.0000000  4  5
MORP (COGO code)                                            COMMENT
   0.033      (antenna height)                              COMMENT
 +55.21279000 (latitude)                                    COMMENT
  -1.68549700 (longitude)                                   COMMENT
0144.425      (elevation)                                   COMMENT
 14  1  2  1  0  0.0000000  0  8G02G04G14G25G29G24G12G31
  23028665.500                                    23028668.676   121016373.900 7
  94298564.12845        45.000          30.700
  23825802.352                                    23825809.922   125205437.123 6
  97562708.07942        39.300          15.600
  22245730.258                                    22245735.953   116902083.652 7
  91092553.77744        45.200          27.400
  20145587.781                    20145597.406                   105865872.984 8
  82492891.141 8        52.100          50.700
  21324504.633                    21324511.504    21324511.266   112061067.692 8
  87320330.182 7        49.200          45.900
  24763021.352                    24763031.738                   130130559.055 5
 101400481.241 5        34.600          35.500
  21394778.859                    21394785.438    21394785.258   112430325.413 8
  87608108.510 7        49.400          46.800
  22065727.406                    22065732.930    22065732.809   115956138.677 7
  90355490.662 7        47.500          44.100
 14  1  2  1  0 30.0000000  0  8G02G04G14G25G29G24G12G31
  23022657.492                                    23022661.371   120984806.863 7
  94273966.46144        44.900          29.800
  23835465.742                                    23835473.723   125256220.305 6
  97602279.36942        39.000          16.300
  22258980.500                                    22258987.133   116971716.340 7
  91146812.95744        45.000          27.100
  20145407.875                    20145416.973                   105864926.656 8
  82492153.750 8        51.900          51.600
  21309875.695                    21309883.621    21309883.324   111984194.640 8
  87260429.122 7        49.000          46.000
  24784455.820                    24784466.734                   130243200.390 5
 101488253.674 5        34.700          34.900
  21408406.539                    21408412.590    21408412.586   112501937.977 8
  87663910.507 7        49.100          46.600
  22051292.000                    22051297.699    22051297.461   115880282.325 7
  90296381.814 7        47.000          44.300
 14  1  2  1  1  0.0000000  0  8G02G04G14G25G29G24G12G31
  23016746.953                                    23016750.246   120953741.868 7
  94249759.99544        45.200          29.800
  23845236.633                                    23845243.910   125307564.368 6
  97642287.68542        39.400          17.400
  22272317.891                                    22272324.113   117041803.199 7
  91201426.03744        45.200          27.200
  20145311.063                    20145320.395                   105864418.355 8
  82491757.679 8        51.600          51.100
  21295329.766                    21295336.871    21295336.867   111907753.528 8
  87200864.646 7        48.500          45.800
  24805905.852                    24805917.293                   130355921.758 5
 101576088.491 5        34.900          35.400
  21422088.234                    21422094.285    21422094.047   112573835.994 8
  87719934.938 7        48.600          47.000
  22036918.203                    22036923.375    22036923.371   115804746.601 7
  90237522.808 7        47.000          44.500
 14  1  2  1  1 30.0000000  0  8G02G04G14G25G29G24G12G31
  23010930.703                                    23010934.172   120923180.077 7
  94225945.63644        44.900          29.300
  23855114.102                                    23855120.617   125359467.190 6
  97682731.40542        40.000          16.900
  22285740.938                                    22285747.219   117112341.775 7
  91256391.13544        44.400          27.100
  20145297.406                    20145306.621                   105864347.729 8
  82491702.652 8        51.300          51.400
  21280865.781                    21280873.297    21280873.586   111831745.607 8
  87141637.740 7        48.900          46.100
  24827370.836                    24827381.867                   130468720.839 5
 101663983.857 5        34.800          35.200
  21435824.156                    21435830.207    21435830.320   112646017.430 8
  87776180.210 7        48.600          46.500
  22022605.211                    22022611.203    22022611.082   115729533.413 7
  90178915.128 7        47.800          44.500
 14  1  2  1  2  0.0000000  0  8G02G04G14G25G29G24G12G31
  23005211.203                                    23005215.492   120893125.383 7
  94202526.42945        45.000          30.300
  23865096.594                                    23865103.695   125411929.696 6
  97723611.24542        40.300          17.800
  22299250.219                                    22299256.031   117183332.135 7
  91311708.22644        44.100          26.400
  20145367.906                    20145377.121                   105864717.292 8
  82491990.626 8        51.900          51.100
  21266485.297                    21266492.402    21266492.340   111756175.324 8
  87082751.798 7        48.400          45.900
  24848851.539                    24848861.984                   130581599.124 5
 101751940.930 5        34.700          34.500
  21449613.852                    21449620.254    21449619.957   112718484.032 7
  87832647.681 7        47.800          46.900
  22008355.078                    22008360.543    22008360.480   115654647.200 7
  90120562.230 7        47.300          44.100
 14  1  2  1  2 30.0000000  0  8G02G04G14G25G29G24G12G31
  22999588.953                                    22999592.598   120863577.110 7
  94179501.83345        45.300          31.000
  23875186.367                                    23875193.469   125464947.752 6
  97764923.92343        40.900          18.600
  22312843.750                                    22312850.441   117254769.390 7
  91367373.58544        44.500          26.700
  20145521.531                    20145530.805                   105865524.764 8
  82492619.823 8        51.800          51.600
  21252188.180                    21252195.109    21252195.164   111681042.491 8
  87024206.758 7        49.400          46.600
  24870345.930                    24870356.375                   130694552.809 5
 101839956.753 5        35.000          35.200
  21463457.430                    21463463.422    21463463.477   112791232.184 8
  87889334.543 7        48.400          46.800
  21994166.781                    21994172.129    21994172.184   115580088.063 7
  90062464.199 7        47.900          44.800
 14  1  2  1  3  0.0000000  0  8G02G04G14G25G29G24G12G31
  22994062.898                                    22994066.367   120834537.894 7
  94156873.90145        45.500          30.400
  23885381.336                                    23885388.262   125518520.927 6
  97806669.25043        40.900          18.600
  22326522.328                                    22326529.195   117326652.269 7
  91423386.18544        44.600          27.100
  20145758.563                    20145767.895                   105866771.180 8
  82493591.060 8        51.900          51.300
  21237974.461                    21237981.859    21237981.563   111606349.963 8
  86966004.818 7        49.000          46.100
  24891854.953                    24891864.695                   130807581.485 5
 101928031.024 5        34.300          35.400
  21477354.430                    21477360.715    21477360.594   112864261.858 8
  87946240.770 7        48.000          46.400
  21980041.430                    21980047.598    21980047.770   115505859.134 7
  90004623.477 7        47.300          44.800
 14  1  2  1  3 30.0000000  0  8G02G04G14G25G29G24G12G31
  22988634.016                                    22988638.188   120806010.087 7
  94134644.46045        45.300          30.500
  23895680.953                                    23895688.230   125572648.935 6
  97848846.84643        40.600          19.000
  22340286.664                                    22340292.477   117398979.934 7
  91479745.32744        43.500          26.000
  20146079.586                    20146088.918                   105868457.906 8
  82494905.398 8        52.200          51.000
  21223845.367                    21223852.297    21223852.117   111532101.020 8
  86908148.493 7        48.400          46.300
  24913377.102                    24913387.781                   130920684.734 5
 102016163.385 5        34.300          35.200
  21491304.922                    21491311.148    21491311.027   112937572.771 8
  88003366.144 7        48.900          46.600
  21965979.578                    21965985.570    21965985.508   115431964.012 7
  89947042.861 7        47.400          44.200
 14  1  2  1  4  0.0000000  0  8G02G04G14G25G29G24G12G31
  22983301.859                                    22983305.855   120777991.390 7
  94112811.73345        44.900          30.200
  23906085.828                                    23906092.988   125627325.960 6
  97891452.31743        40.900          19.000
  22354133.406                                    22354139.746   117471746.330 7
  91536446.36344        43.700          25.800
  20146484.141                    20146493.004                   105870580.995 8
  82496559.759 8        52.200          51.200
  21209800.148                    21209807.371    21209807.191   111458293.628 8
  86850636.256 7        48.800          46.300
  24934913.836                    24934923.461                   131033857.325 5
 102104349.790 5        34.300          34.900
  21505308.164                    21505314.449    21505314.387   113011160.185 8
  88060706.988 7        48.600          46.300
  21951981.141                    21951987.133    21951987.246   115358400.990 7
  89889721.018 7        47.500          45.000
 14  1  2  1  4 30.0000000  0  8G02G04G14G25G29G24G12G31
  22978068.102                                    22978071.688   120750484.307 7
  94091377.67245        45.500          30.400
  23916595.352                                    23916602.629   125682551.159 6
  97934484.91843        40.200          19.300
  22368063.555                                    22368070.070   117544949.738 7
  91593487.91044        43.100          25.500
  20146970.648                    20146979.512                   105873141.400 8
  82498554.878 8        52.500          51.100
  21195839.734                    21195846.371    21195846.660   111384930.683 8
  86793470.342 7        48.700          46.700
  24956462.148                    24956473.355                   131147098.257 5
 102192589.411 5        34.100          34.400
  21519364.023                    21519370.250    21519370.070   113085024.016 8
  88118263.211 7        48.900          46.000
  21938046.281                    21938051.629    21938051.859   115285173.044 7
  89832660.283 7        47.300          44.700
 14  1  2  1  5  0.0000000  0  8G02G04G14G25G29G24G12G31
  22972930.523                                    22972934.461   120723490.478 7
  94070343.53844        45.000          29.900
  23927207.594                                    23927215.867   125738323.449 6
  97977943.79643        40.300          18.600
  22382076.695                                    22382083.035   117618588.680 7
  91650868.83744        43.200          27.200
  20147541.719                    20147550.816                   105876139.701 8
  82500891.230 8        52.100          51.100
  21181964.531                    21181971.637    21181971.398   111312014.664 8
  86736652.741 7        48.200          45.800
  24978024.125                    24978035.156                   131260406.724 5
 102280881.660 5        34.600          34.800
  21533472.313                    21533478.246    21533478.066   113159163.729 7
  88176034.407 7        47.200          46.100
  21924175.711                    21924181.762    21924181.582   115212282.992 7
  89775862.842 7        47.300          44.900
 14  1  2  1  5 30.0000000  0  8G02G04G14G25G29G24G12G31
  22967892.070                                    22967896.184   120697011.383 7
  94049710.50545        45.700          30.100
  23937925.000                                    23937932.570   125794641.103 6
  98021827.61443        40.100          18.600
  22396172.266                                    22396178.957   117692660.899 7
  91708587.39744        42.600          25.800
  20148195.539                    20148204.402                   105879576.062 8
  82503568.927 8        52.800          51.600
  21168174.148                    21168181.488    21168181.367   111239547.467 8
  86680184.822 7        49.100          46.400
  24999599.250                    24999609.578                   131373781.860 5
 102369225.885 5        34.300          35.200
  21547633.375                    21547639.484    21547639.480   113233577.763 8
  88234019.354 7        49.000          45.800
  21910369.922                    21910375.738    21910375.676   115139733.370 8
  89719330.673 7        48.100          44.900
 14  1  2  1  6  0.0000000  0  8G02G04G14G25G29G24G12G31
  22962951.188                                    22962955.359   120671048.357 7
  94029479.59245        45.300          30.200
  23948745.195                                    23948752.883   125851502.199 6
  98066134.92942        39.000          17.400
  22410349.750                                    22410356.148   117767163.714 7
  91766641.43544        43.400          24.400
  20148933.047                    20148942.320                   105883450.124 8
  82506587.691 8        53.000          51.400
  21154469.930                    21154477.270    21154477.207   111167530.811 8
  86624067.959 7        49.000          46.400
  25021187.320                    25021196.652                   131487221.496 5
 102457620.375 5        35.300          34.900
  21561845.508                    21561851.324    21561851.438   113308264.924 8
  88292217.127 7        48.500          45.900
  21896629.195                    21896635.305    21896635.301   115067526.158 7
  89663065.318 7        47.500          44.900
 14  1  2  1  6 30.0000000  0  8G02G04G14G25G29G24G12G31
  22958109.594                                    22958113.063   120645601.626 7
  94009650.99844        45.400          29.300
  23959667.406                                    23959675.563   125908903.583 6
  98110863.22542        38.900          16.900
  22424608.539                                    22424615.289   117842093.633 7
  91825028.31244        42.800          25.400
  20149753.141                    20149762.238                   105887760.792 8
  82509946.647 8        51.700          51.200
  21140851.383                    21140858.664    21140858.660   111095965.369 8
  86568302.697 7        49.100          46.200
  25042784.945                    25042795.039                   131600723.103 5
 102546063.129 5        33.700          35.000
  21576109.945                    21576115.293    21576115.406   113383223.544 8
  88350626.441 7        48.800          46.300
  21882954.203                    21882959.785    21882959.723   114995662.303 7
  89607067.512 7        47.900          45.800
 14  1  2  1  7  0.0000000  0  8G02G04G14G25G29G24G12G31
  22953365.383                                    22953368.969   120620672.349 7
  93990225.60645        45.300          31.200
  23970694.586                                    23970700.984   125966843.401 6
  98156011.07842        39.500          16.300
  22438947.727                                    22438954.535   117917447.892 7
  91883745.86244        43.300          25.700
  20150656.539                    20150666.164                   105892507.993 8
  82513645.762 8        52.600          51.500
  21127319.234                    21127325.813    21127325.867   111024852.908 8
  86512890.386 7        49.600          46.800
  25064395.547                    25064405.875                   131714285.065 5
 102634552.900 5        34.000          35.400
  21590425.258                    21590431.133    21590431.129   113458451.727 8
  88409245.794 7        48.900          46.000
  21869344.672                    21869351.133    21869350.895   114924144.210 7
  89551339.131 7        47.900          45.000
 14  1  2  1  7 30.0000000  0  8G02G04G14G25G29G24G12G31
  22948719.984                                    22948724.215   120596262.658 7
  93971205.09345        45.300          30.400
  23981821.375                                    23981829.004   126025320.859 6
  98201577.92542        38.100          16.900
  22453367.805                                    22453374.379   117993225.409 7
  91942793.20844        42.100          25.500
  20151642.617                    20151652.711                   105897692.418 8
  82517685.575 8        52.300          51.500
  21113873.484                    21113880.414    21113880.469   110954195.995 8
  86457833.065 7        49.800          46.400
  25086016.453                    25086027.250                   131827906.622 5
 102723089.144 5        33.000          35.000
  21604792.344                    21604798.102    21604797.980   113533949.164 8
  88468074.958 7        48.400          46.100
  21855801.922                    21855807.328    21855807.266   114852974.242 8
  89495882.017 7        48.000          45.600
 14  1  2  1  8  0.0000000  0  8G02G04G14G25G29G24G12G31
  22944173.930                                    22944177.750   120572374.175 7
  93952590.71244        45.000          29.700
  23993050.961                                    23993059.059   126084334.282 6
  98247562.35642        38.300          16.300
  22467867.711                                    22467874.695   118069423.924 7
  92002168.64144        42.600          25.100
  20152712.539                    20152721.813                   105903314.451 8
  82522066.388 8        51.700          50.800
  21100514.875                    21100522.391    21100522.621   110883997.048 8
  86403132.578 7        50.200          46.600
  25107649.602                    25107659.871                   131941586.433 5
 102811670.761 5        32.200          35.200
  21619209.836                    21619215.535    21619215.766   113609715.425 8
  88527113.600 7        49.600          46.000
  21842324.906                    21842330.723    21842330.602   114782155.317 8
  89440698.431 7        48.600          45.900
 14  1  2  1  8 30.0000000  0  8G02G04G14G25G29G24G12G31
  22939728.000                                    22939731.234   120549007.210 7
  93934382.70445        44.900          30.200
  24004382.359                                    24004390.223   126143880.854 6
  98293962.27642        38.300          16.300
  22482447.453                                    22482454.672   118146040.184 6
  92061869.54243        41.700          23.900
  20153865.438                    20153874.828                   105909373.063 8
  82526787.387 8        52.300          51.400
  21087244.063                    21087250.816    21087250.754   110814256.640 8
  86348789.418 7        50.100          46.700
  25129292.680                    25129303.652                   132055322.752 5
 102900296.414 5        31.600          35.500
  21633678.258                    21633684.250    21633684.305   113685748.215 8
  88586359.914 7        48.900          46.600
  21828915.836                    21828921.594    21828921.707   114711689.048 8
  89385789.648 7        48.300          45.200
 14  1  2  1  9  0.0000000  0  8G02G04G14G25G29G24G12G31
  22935380.008                                    22935383.828   120526161.680 7
  93916581.01344        45.000          29.900
  24015814.891                                    24015822.461   126203957.560 6
  98340775.28842        38.400          16.300
  22497106.125                                    22497112.875   118223070.480 7
  92121893.07243        42.800          23.800
  20155101.383                    20155110.480                   105915867.042 8
  82531847.619 8        51.500          51.400
  21074060.016                    21074067.473    21074067.176   110744975.673 8
  86294804.291 7        50.500          46.900
  25150946.180                    25150956.625                   132169112.278 5
 102988963.550 5        31.800          33.900
  21648197.219                    21648203.152    21648203.148   113762045.674 8
  88645812.470 7        48.800          46.600
  21815574.133                    21815580.184    21815580.004   114641576.008 8
  89331156.123 7        48.700          45.500
 14  1  2  1  9 30.0000000  0  8G02G04G14G25G29G24G12G31
  22931133.250                                    22931136.133   120503840.599 7
  93899187.97545        45.700          30.200
  24027347.289                                    24027355.152   126264563.977 6
  98388001.03242        38.300          17.400
  22511843.055                                    22511849.629   118300513.965 7
  92182238.58943        42.200          23.000
  20156420.156                    20156429.605                   105922797.955 8
  82537248.318 8        51.500          51.200
  21060964.523                    21060971.746    21060971.625   110676157.245 8
  86241179.564 7        50.500          47.000
  25172609.742                    25172621.008                   132282955.669 5
 103077672.655 5        31.200          34.300
  21662766.414                    21662772.230    21662772.227   113838607.328 8
  88705470.888 7        48.700          46.200
  21802299.875                    21802305.398    21802305.395   114571820.191 8
  89276800.946 7        48.900          45.800
 14  1  2  1 10  0.0000000  0  8G02G04G14G25G29G24G12G31
  22926984.844                                    22926988.137   120482043.164 7
  93882202.98045        45.300          30.600
  24038981.344                                    24038989.090   126325696.595 6
  98435636.82742        39.000          16.300
  22526657.445                                    22526664.723   118378366.041 6
  92242902.44744        41.300          24.700
  20157821.789                    20157831.004                   105930163.787 8
  82542987.915 8        51.800          51.200
  21047957.000                    21047963.520    21047963.691   110607801.427 8
  86187915.311 7        50.500          46.700
  25194281.945                    25194292.742                   132396849.087 4
 103166420.742 5        29.600          33.900
  21677385.297                    21677391.758    21677391.520   113915431.217 8
  88765333.642 7        48.500          46.800
  21789093.820                    21789099.461    21789099.516   114502421.803 8
  89222724.290 7        48.600          45.900
 14  1  2  1 10 30.0000000  0  8G02G04G14G25G29G24G12G31
  22922937.328                                    22922940.738   120460770.951 7
  93865627.24945        44.900          32.000
  24050714.375                                    24050721.945   126387353.392 6
  98483681.07742        39.200          16.300
  22541550.102                                    22541557.203   118456625.194 6
  92303883.56844        41.900          25.300
  20159306.906                    20159315.770                   105937964.795 8
  82549066.603 8        51.900          51.300
  21035037.695                    21035044.742    21035044.563   110539910.211 8
  86135013.090 7        49.200          46.600
  25215964.914                    25215976.473                   132510791.463 5
 103255206.975 5        30.500          34.400
  21692054.344                    21692060.043    21692060.039   113992516.007 8
  88825399.703 7        48.600          46.300
  21775956.250                    21775962.008    21775961.887   114433383.385 7
  89168928.127 7        46.800          45.800
 14  1  2  1 11  0.0000000  0  8G02G04G14G25G29G24G12G31
  22918989.102                                    22918993.039   120440024.562 7
  93849461.23545        43.700          30.900
  24062546.352                                    24062554.625   126449532.219 6
  98532132.06642        39.200          16.300
  22556519.469                                    22556526.043   118535288.037 6
  92365179.23744        41.400          24.100
  20160873.469                    20160882.801                   105946200.531 8
  82555484.046 8        51.500          51.400
  21022207.133                    21022213.359    21022213.414   110472484.716 8
  86082473.765 7        49.600          46.900
  25237657.813                    25237668.375                   132624781.009 5
 103344029.969 5        30.500          34.400
  21706772.477                    21706778.527    21706778.406   114069859.764 8
  88885667.560 7        49.200          45.900
  21762887.445                    21762892.969    21762892.848   114364706.746 7
  89115413.869 7        46.700          46.000
 14  1  2  1 11 30.0000000  0  8G02G04G14G25G29G24G12G31
  22915141.242                                    22915145.180   120419806.628 7
  93833707.01545        44.900          30.700
  24074478.086                                    24074486.066   126512232.281 6
  98580989.22942        39.000          16.300
  22571564.672                                    22571572.008   118614353.600 7
  92426788.66444        42.300          24.700
  20162524.078                    20162533.176                   105954872.225 8
  82562241.209 8        51.800          51.200
  21009465.867                    21009472.387    21009472.383   110405528.267 8
  86030299.944 7        50.700          47.200
  25259357.758                    25259368.262                   132738817.449 5
 103432889.526 5        30.700          33.400
  21721539.828                    21721546.406    21721546.109   114147463.371 8
  88946137.890 7        48.900          46.500
  21749888.063                    21749893.762    21749893.758   114296395.306 8
  89062184.180 7        48.800          45.900
 14  1  2  1 12  0.0000000  0  8G02G04G14G25G29G24G12G31
  22911394.289                                    22911398.109   120400115.558 7
  93818363.34345        44.100          30.400
  24086508.828                                    24086515.695   126575449.145 6
  98630249.11642        38.700          16.900
  22586686.063                                    22586693.105   118693816.826 6
  92488707.98644        41.500          25.000
  20164256.531                    20164265.512                   105963977.190 8
  82569335.998 8        51.800          51.200
  20996813.250                    20996820.355    20996820.352   110339040.071 8
  85978491.006 7        50.800          47.200
  25281064.594                    25281075.918                   132852897.06015
 103521782.31715        30.100          33.600
  21736355.984                    21736362.211    21736362.090   114225322.903 8
  89006807.642 7        49.600          46.000
  21736958.289                    21736963.520    21736963.574   114228448.754 8
  89009238.817 7        49.500          46.000
 14  1  2  1 12 30.0000000  0  7G02G04G14G25G29G12G31
  22907748.414                                    22907752.293   120380955.839 7
  93803433.70745        44.400          31.200
  24098636.648                                    24098644.219   126639184.010 6
  98679912.64642        37.700          14.800
  22601883.727                                    22601890.711   118773678.292 7
  92550937.61544        42.000          25.600
  20166072.320                    20166081.477                   105973518.635 8
  82576770.877 8        52.000          51.200
  20984251.117                    20984257.813    20984257.809   110273024.893 8
  85927050.642 7        50.700          47.400
  21751221.094                    21751227.613    21751227.434   114303440.358 8
  89067678.375 7        48.800          45.800
  21724099.477                    21724104.766    21724104.586   114160872.809 8
  88956582.246 7        48.800          46.000
 14  1  2  1 13  0.0000000  0  7G02G04G14G25G29G12G31
  22904203.469                                    22904207.289   120362326.547 7
  93788917.38545        45.400          31.800
  24110862.383                                    24110870.480   126703432.877 6
  98729976.59642        37.500          15.600
  22617156.016                                    22617162.180   118853933.524 6
  92613474.10644        41.300          24.300
  20167970.438                    20167979.711                   105983494.323 8
  82584544.125 8        52.700          51.500
  20971778.516                    20971785.621    20971785.441   110207482.330 8
  85875978.553 7        50.900          46.800
  21766135.016                    21766141.184    21766141.238   114381812.414 8
  89128747.488 7        48.800          45.900
  21711310.461                    21711316.102    21711315.922   114093667.306 8
  88904214.327 7        49.400          46.300
 14  1  2  1 13 30.0000000  0  8G02G04G14G25G29G24G12G31
  22900759.141                                    22900763.195   120344226.743 7
  93774813.65545        43.000          31.100
  24123185.195                                    24123193.762   126768191.788 6
  98780438.16242        36.100          13.900
  22632502.117                                    22632509.336   118934578.256 6
  92676314.14843        41.700          22.800
  20169951.289                    20169960.328                   105993902.261 8
  82592654.202 8        51.500          51.000
  20959396.031                    20959403.137    20959403.133   110142412.265 8
  85825274.624 7        50.500          47.200
  25346239.180                    25346251.148                   133195390.916 5
 103788664.632 5        31.300          34.700
  21781096.539                    21781102.590    21781102.586   114460436.314 8
  89190012.845 7        49.500          46.000
  21698592.023                    21698598.016    21698597.953   114026832.426 8
  88852135.209 7        49.200          46.400
 14  1  2  1 14  0.0000000  0  8G02G04G14G25G29G24G12G31
  22897415.688                                    22897419.801   120326658.375 7
  93761124.03045        44.900          31.400
  24135603.750                                    24135613.371   126833459.711 5
  98831296.21042        34.900          14.800
  22647921.992                                    22647928.801   119015610.994 6
  92739456.53244        41.400          24.100
  20172014.148                    20172023.188                   106004743.479 8
  82601101.906 8        52.200          51.400
  20947103.656                    20947110.352    20947110.465   110077817.549 8
  85774941.122 7        48.600          47.400
  25367977.438                    25367990.344                   133309630.87014
 103877682.78915        29.900          33.300
  21796105.852                    21796111.961    21796112.016   114539312.162 8
  89251474.530 7        49.100          45.600
  21685944.688                    21685951.324    21685951.145   113960371.552 7
  88800347.527 7        46.100          45.900
 14  1  2  1 14 30.0000000  0  7G02G04G14G25G29G12G31
  22894175.094                                    22894178.973   120309625.857 7
  93747851.95645        43.600          31.000
  24148122.367                                    24148130.348   126899237.648 5
  98882551.68442        35.400          13.900
  22663415.336                                    22663422.906   119097032.188 6
  92802901.59843        41.000          22.800
  20174160.375                    20174169.004                   106016021.044 8
  82609889.612 8        52.100          51.200
  20934903.219                    20934910.559    20934910.496   110013702.949 7
  85724981.750 7        47.800          47.600
  21811164.594                    21811169.941    21811169.879   114618442.004 8
  89313134.128 7        49.000          45.400
  21673369.938                    21673375.578    21673375.691   113894290.250 7
  88748855.603 7        45.100          46.000
 14  1  2  1 15  0.0000000  0  7G02G04G14G25G29G12G31
  22891034.719                                    22891039.008   120293126.169 7
  93734995.06645        44.700          30.900
  24160734.648                                                   126965519.686 5
                        35.700
  22678982.297                                    22678989.340   119178835.304 6
  92866644.24343        41.700          22.500
  20176388.422                    20176397.285                   106027730.549 8
  82619013.902 8        52.200          51.300
  20922793.555                    20922800.953    20922800.832   109950065.650 8
  85675394.274 7        49.900          47.200
  21826269.352                    21826275.754    21826275.516   114697820.452 8
  89374987.454 7        48.800          45.700
  21660867.086                    21660872.902    21660872.898   113828586.408 8
  88697657.811 7        48.900          46.100
 14  1  2  1 15 30.0000000  0  7G02G04G14G25G29G12G31
  22887996.578                                    22888000.984   120277160.626 7
  93722554.40345        43.800          31.100
  24173443.961                                                   127032303.916 5
                        35.700
  22694621.219                                    22694627.734   119261018.268 6
  92930682.88243        40.100          23.000
  20178698.797                    20178707.250                   106039872.376 8
  82628475.065 8        51.900          51.500
  20910774.898                    20910781.652    20910781.766   109886907.883 8
  85626180.446 7        49.400          47.000
  21841421.531                    21841427.582    21841427.402   114777446.478 8
  89437033.687 7        48.900          46.000
  21648436.367                    21648442.359    21648442.414   113763262.584 7
  88646756.134 7        47.800          45.500
 14  1  2  1 16  0.0000000  0  7G02G04G14G25G29G12G31
  22885059.719                                    22885063.422   120261727.705 7
  93710528.76645        42.500          31.000
  24186247.125                                                   127099585.911 6
                        36.900
  22710331.313                                    22710338.883   119343576.052 6
  92995013.55543        40.900          22.800
  20181091.406                    20181100.152                   106052444.106 8
  82638271.226 8        51.100          51.100
  20898847.391                    20898854.672    20898854.609   109824229.094 8
  85577339.882 7        50.000          47.600
  21856621.016                    21856626.715    21856626.887   114857317.274 8
  89499270.665 7        48.900          45.000
  21636077.789                    21636083.371    21636083.367   113698318.531 8
  88596150.379 7        49.300          46.300
 14  1  2  1 16 30.0000000  0  7G02G04G14G25G29G12G31
  22882226.000                                    22882229.703   120246831.557 7
  93698921.39645        45.000          30.400
  24199145.711                                                   127167366.540 6
                        37.200
  22726113.500                                    22726120.250   119426509.135 6
  93059636.67843        40.600          22.300
  20183565.930                    20183574.852                   106065448.531 8
  82648404.548 8        52.000          51.100
  20887012.320                    20887019.074    20887019.246   109762033.716 8
  85528876.006 7        49.400          46.600
  21871866.539                    21871872.531    21871872.527   114937434.545 8
  89561699.692 7        49.500          44.800
  21623792.930                    21623798.805    21623798.449   113633759.537 8
  88545844.664 7        48.700          45.800
 14  1  2  1 17  0.0000000  0  7G02G04G14G25G29G12G31
  22879492.797                                    22879496.441   120232470.227 7
  93687730.77345        43.900          30.200
  24212138.438                                                   127235641.173 6
                        37.600
  22741964.953                                    22741972.289   119509812.141 6
  93124548.09143        40.100          22.600
  20186122.227                    20186131.148                   106078882.896 8
  82658872.895 8        51.800          50.800
  20875268.609                    20875275.480    20875275.301   109700320.486 8
  85480787.798 7        50.500          46.700
  21887158.258                    21887164.426    21887164.480   115017794.344 8
  89624317.695 7        48.800          45.700
  21611580.977                    21611586.324    21611586.027   113569585.212 8
  88495838.701 7        49.800          45.300
 14  1  2  1 17 30.0000000  0  7G02G04G14G25G29G12G31
  22876861.984                                    22876866.098   120218647.078 7
  93676959.50445        43.700          31.100
  24225224.820                                                   127304409.970 6
                        36.900
  22757887.789                                    22757895.359   119593485.291 6
  93189747.94743        40.500          22.500
  20188760.719                    20188770.285                   106092749.348 8
  82669677.916 8        52.000          51.000
  20863617.500                    20863623.609    20863623.605   109639093.595 8
  85433078.584 7        50.400          46.700
  21902496.242                    21902503.055    21902502.992   115098398.156 8
  89687125.846 7        49.200          45.500
  21599442.953                    21599448.652    21599448.648   113505800.177 8
  88446136.085 7        49.300          46.200
 14  1  2  1 18  0.0000000  0  7G02G04G14G25G29G12G31
  22874333.461                                    22874337.750   120205362.191 7
  93666607.65345        42.300          30.000
  24238404.617                                                   127373669.739 6
                        37.200
  22773880.344                                    22773887.035   119677524.761 6
  93255233.22543        38.500          22.500
  20191481.758                    20191490.797                   106107046.880 8
  82680818.858 8        51.900          51.300
  20852058.992                    20852065.746    20852065.742   109578353.704 8
  85385748.812 7        50.100          46.800
  21917881.414                    21917887.934    21917887.930   115179244.048 8
  89750122.626 7        48.300          45.600
  21587379.180                    21587384.762    21587384.934   113442405.440 8
  88396737.603 7        48.500          46.000
 14  1  2  1 18 30.0000000  0  7G02G04G14G25G29G12G31
  22871908.234                                    22871912.055   120192615.980 7
  93656675.56344        43.900          29.800
  24251676.680                                                   127443418.067 6
                        37.700
  22789942.016                                    22789948.063   119761927.371 6
  93321001.47643        40.800          22.600
  20194284.313                    20194293.410                   106121774.861 8
  82692295.209 8        51.900          50.900
  20840593.359                    20840600.582    20840600.520   109518101.945 8
  85338799.402 7        50.200          47.300
  21933311.469                    21933317.988    21933317.809   115260330.359 8
  89813306.758 7        48.700          45.000
  21575390.156                    21575395.797    21575395.910   113379402.606 8
  88347644.489 7        49.700          46.400
 14  1  2  1 19  0.0000000  0  7G02G04G14G25G29G12G31
  22869585.289                                    22869589.402   120180409.013 7
  93647163.64845        43.300          30.200
  24265042.414                                                   127513652.197 6
                        36.300
  22806070.625                                    22806077.961   119846690.468 6
  93387050.64643        39.400          22.300
  20197168.930                    20197178.438                   106136932.693 8
  82704106.496 8        52.100          51.500
  20829221.078                    20829228.008    20829228.063   109458339.549 8
  85292231.321 7        50.600          46.400
  21948787.188                    21948793.473    21948793.352   115341655.700 8
  89876677.147 7        48.700          45.600
  21563476.250                    21563482.008    21563481.945   113316793.603 8
  88298858.255 7        49.200          46.400
 14  1  2  1 19 30.0000000  0  7G02G04G14G25G29G12G31
  22867365.367                                    22867369.598   120168741.169 6
  93638071.83045        40.900          31.200
  24278499.922                                                   127584369.279 6
                        36.500
  22822268.953                                    22822276.055   119931810.368 6
  93453377.79443        40.300          22.500
  20200135.063                    20200143.926                   106152519.405 8
  82716251.987 8        50.900          51.000
  20817941.602                    20817948.004    20817948.176   109399066.857 8
  85246044.848 7        50.300          47.200
  21964307.891                    21964314.352    21964314.465   115423218.249 8
  89940232.377 7        48.000          45.500
  21551636.805                    21551642.797    21551642.617   113254579.871 8
  88250380.031 7        49.000          46.300
 14  1  2  1 20  0.0000000  0  7G02G04G14G25G29G12G31
  22865247.961                                    22865252.133   120157615.834 7
  93629402.75545        42.600          30.500
  24292048.063                                                   127655569.376 5
                        35.900
  22838534.852                                    22838541.426   120017287.130 6
  93519983.05443        40.600          22.500
  20203183.203                    20203192.242                   106168537.342 8
  82728733.493 8        52.100          51.400
  20806756.422                    20806763.176    20806763.230   109340287.605 8
  85200242.852 7        50.400          47.100
  21979874.063                    21979880.406    21979880.402   115505019.240 8
  90003973.397 7        48.400          45.500
  21539874.531                    21539879.645    21539879.641   113192766.105 8
  88202213.473 7        49.300          46.300
 14  1  2  1 20 30.0000000  0  7G02G04G14G25G29G12G31
  22863233.594                                    22863237.238   120147029.736 7
  93621153.85445        43.100          30.000
  24305688.453                                                   127727246.720 5
                        35.900
  22854867.109                                    22854874.270   120103114.244 6
  93586861.29143        40.700          22.200
  20206312.602                    20206320.938                   106184982.555 8
  82741547.954 8        51.900          50.800
  20795664.789                    20795671.484    20795671.715   109282000.232 8
  85154824.132 7        50.500          47.500
  21995484.898                    21995490.832    21995490.887   115587053.756 8
  90067896.375 7        48.800          45.300
  21528187.750                    21528193.273    21528193.328   113131350.408 8
  88154357.082 7        49.700          46.400
 14  1  2  1 21  0.0000000  0  7G02G04G14G25G29G12G31
  22861322.484                                    22861325.543   120136985.436 7
  93613327.13744        44.100          29.100
  24319417.523                                                   127799400.506 5
                        34.900
  22871265.586                                    22871272.863   120189290.549 6
  93654011.62043        40.600          23.000
  20209523.578                    20209532.559                   106201856.385 8
  82754696.392 8        52.100          51.100
  20784666.977                    20784674.258    20784674.137   109224207.623 8
  85109790.962 7        50.600          46.800
  22011140.273                    22011146.617    22011146.789   115669322.438 8
  90132001.832 7        48.300          45.100
  21516577.000                    21516582.816    21516582.695   113070336.692 8
  88106813.923 7        49.000          46.900
 14  1  2  1 21 30.0000000  0  7G02G04G14G25G29G12G31
  22859513.742                                    22859517.621   120127481.756 7
  93605921.68644        43.600          29.700
  24333238.000                                                   127872026.701 5
                        33.400
  22887730.414                                    22887737.340   120275811.556 6
  93721430.52843        41.300          22.900
  20212815.313                    20212824.352                   106219156.801 8
  82768177.240 8        52.000          50.900
  20773763.648                    20773770.520    20773770.398   109166909.290 8
  85065142.952 7        49.700          47.700
  22026839.211                    22026845.027    22026845.141   115751822.330 8
  90196287.455 7        48.100          45.300
  21505042.977                    21505048.910    21505048.730   113009725.186 7
  88059584.179 7        47.700          46.000
 14  1  2  1 22  0.0000000  0  7G02G04G14G25G29G12G31
  22857807.633                                    22857812.039   120118521.974 7
  93598940.05644        43.000          29.900
  24347149.500                                                   127945125.402 5
                        33.600
  22904260.641                                    22904267.859   120362677.227 6
  93789118.03343        40.600          22.300
  20216189.063                    20216198.512                   106236885.774 8
  82781992.026 8        51.900          50.700
  20762954.695                    20762961.566    20762961.563   109110108.603 8
  85020882.681 7        50.300          47.600
  22042582.680                    22042588.906    22042588.961   115834554.735 8
  90260754.259 7        48.500          45.100
  21493586.438                    21493591.961    21493591.898   112949520.392 8
  88012671.354 7        48.500          46.300
 14  1  2  1 22 30.0000000  0  7G02G04G14G25G29G12G31
  22856206.828                                    22856210.648   120110104.530 7
  93592381.01745        44.100          30.600
  24361148.406                                                   128018692.155 5
                        33.700
  22920854.570                                    22920861.672   120449882.655 6
  93857070.24943        41.000          22.300
  20219643.836                    20219652.758                   106255041.198 8
  82796139.124 8        51.600          51.200
  20752240.719                    20752248.117    20752248.113   109053805.218 8
  84977009.927 7        50.900          47.600
  22058369.938                    22058376.281    22058376.160   115917516.346 8
  90325399.657 7        49.300          44.500
  21482207.086                    21482212.727    21482212.781   112889722.090 8
  87966075.286 7        49.700          46.600
 14  1  2  1 23  0.0000000  0  7G02G04G14G25G29G12G31
  22854709.773                                    22854712.656   120102234.463 7
  93586248.51545        45.300          30.600
  24375236.258                                                   128092728.967 5
                        32.800
  22937514.039                                    22937521.668   120537429.419 6
  93925288.43943        40.700          22.000
  20223180.781                    20223189.527                   106273627.177 8
  82810621.717 8        52.600          50.100
  20741622.156                    20741628.852    20741628.730   108998004.932 8
  84933529.216 8        49.200          48.200
  22074201.109                    22074207.863    22074207.566   116000710.509 8
  90390226.269 7        48.000          44.900
  21470906.359                    21470912.762    21470912.641   112830337.020 7
  87919801.197 7        47.300          45.800
 14  1  2  1 23 30.0000000  0  7G02G04G14G25G29G12G31
  22853315.172                                    22853318.875   120094907.201 7
  93580538.96845        44.600          30.700
  24389411.773                                                   128167228.682 5
                        33.500
  22954238.320                                    22954245.363   120625309.725 6
  93993766.54243        41.300          22.300
  20226798.797                    20226807.953                   106292638.277 8
  82825435.558 8        51.900          51.400
  20731098.727                    20731105.070    20731105.008   108942703.931 8
  84890437.546 7        50.500          47.300
  22090075.641                    22090081.457    22090081.629   116084130.982 8
  90455229.221 7        48.500          45.000
  21459683.742                    21459689.617    21459689.555   112771362.190 8
  87873846.784 7        48.700          46.500
 14  1  2  1 24  0.0000000  0  7G02G04G14G25G29G12G31
  22852024.273                                    22852027.742   120088123.292 7
  93575252.81244        45.100          29.500
  24403678.641                                                   128242188.565 5
                        33.700
  22971024.383                                    22971031.484   120713520.873 6
  94062502.46443        41.600          21.800
  20230497.070                    20230506.227                   106312074.099 8
  82840580.358 8        51.700          51.000
  20720670.813                    20720677.566    20720677.445   108887903.293 8
  84847735.759 7        51.200          47.800
  22105992.680                    22105998.555    22105998.434   116167776.660 7
  90520407.662 7        47.700          44.300
  21448539.906                    21448545.313    21448545.250   112712799.461 8
  87828213.478 7        49.900          46.600
 14  1  2  1 24 30.0000000  0  7G02G04G14G25G29G12G31
  22850836.773                                    22850840.066   120081883.599 7
  93570390.72545        45.400          30.600
  24418030.484                                                   128317606.536 5
                        34.200
  22987872.492                                    22987879.418   120802060.321 6
  94131494.18243        40.700          22.800
  20234276.375                    20234285.063                   106331934.480 8
  82856055.966 8        51.500          51.500
  20710337.695                    20710344.332    20710344.035   108833604.543 8
  84805425.068 7        51.200          47.900
  22121952.492                    22121958.777    22121958.832   116251646.543 8
  90585760.821 7        48.100          44.300
  21437474.336                    21437480.152    21437480.148   112654651.041 8
  87782903.034 7        50.000          46.600
 14  1  2  1 25  0.0000000  0  7G02G04G14G25G29G12G31
  22849752.914                                    22849756.500   120076187.911 7
  93565952.53845        45.500          30.200
  24432467.867                                                   128393479.372 5
                        35.600
  23004782.547                                    23004789.766   120890924.365 6
  94200738.84143        41.200          21.500
  20238136.406                    20238145.621                   106352218.473 8
  82871861.670 8        51.400          51.400
  20700100.406                    20700107.688    20700107.684   108779808.463 8
  84763506.060 7        51.300          47.600
  22137954.648                    22137960.816    22137960.813   116335738.870 7
  90651287.305 7        47.000          44.500
  21426488.406                    21426494.398    21426494.277   112596918.219 8
  87737916.431 7        50.200          47.000
 14  1  2  1 25 30.0000000  0  7G02G04G14G25G29G12G31
  22848773.641                                    22848776.699   120071040.612 7
  93561941.68345        45.500          30.200
  24446993.125                                                   128469808.949 5
                        35.400
  23021755.227                                    23021761.977   120980114.280 6
  94270237.41443        41.800          22.600
  20242077.352                    20242086.566                   106372929.774 8
  82888000.341 8        53.100          51.100
  20689960.078                    20689967.125    20689967.121   108726519.964 8
  84721982.561 8        50.300          48.200
  22154000.188                    22154006.121    22154006.000   116420056.511 7
  90716989.353 7        47.100          43.900
  21415582.406                    21415588.457    21415588.453   112539607.161 8
  87693258.464 7        49.200          46.500
 14  1  2  1 26  0.0000000  0  7G02G04G14G25G29G12G31
  22847897.234                                    22847901.523   120066438.478 7
  93558355.60545        45.100          31.000
  24461604.305                                                   128546588.562 5
                        35.000
  23038788.188                                    23038795.523   121069623.590 6
  94339984.86643        40.400          21.500
  20246099.273                    20246108.254                   106394064.141 8
  82904468.665 8        51.900          51.100
  20679915.586                    20679923.043    20679922.805   108673736.848 8
  84680852.879 8        50.400          48.100
  22170087.078                    22170093.129    22170093.008   116504594.324 7
  90782862.966 7        46.300          43.900
  21404756.336                    21404762.504    21404762.383   112482715.917 8
  87648927.627 7        50.000          46.600
 14  1  2  1 26 30.0000000  0  7G02G04G14G25G29G12G31
  22847126.508                                    22847130.270   120062385.867 7
  93555197.74945        45.200          31.000
  24476299.086                                                   128623819.988 5
                        34.700
  23055882.805                                    23055889.555   121159453.536 6
  94409982.17843        41.300          21.500
  20250202.180                    20250211.688                   106415625.246 8
  82921269.525 8        52.000          51.200
  20669968.891                    20669975.586    20669975.523   108621464.041 8
  84640120.835 8        50.900          48.600
  22186216.602                    22186223.297    22186222.941   116589355.385 7
  90848910.542 7        46.400          43.400
  21394011.031                    21394017.316    21394017.254   112426250.400 8
  87604928.526 7        50.500          47.500
 14  1  2  1 27  0.0000000  0  7G02G04G14G25G29G12G31
  22846459.031                                    22846462.617   120058877.906 7
  93552464.29145        45.100          31.000
  24491081.875                                                   128701495.488 5
                        34.800
  23073036.484                                    23073042.883   121249595.923 6
  94480222.97343        40.900          22.500
  20254385.273                    20254394.605                   106437607.397 8
  82938398.469 8        52.000          51.400
  20660117.828                    20660124.582    20660124.227   108569697.495 8
  84599783.285 8        51.200          48.200
  22202387.398                    22202393.273    22202393.211   116674333.011 7
  90915126.857 7        46.800          44.100
  21383346.398                    21383351.688    21383351.742   112370207.261 8
  87561258.556 7        50.100          47.100
 14  1  2  1 27 30.0000000  0  7G02G04G14G25G29G12G31
  22845895.375                                    22845898.961   120055916.906 7
  93550157.04845        44.300          30.600
  24505946.977                                                   128779614.336 5
                        34.600
  23090248.281                                    23090255.617   121340049.838 6
  94550706.51843        41.200          22.000
  20258648.859                    20258657.605                   106460012.178 8
  82955856.730 8        52.400          51.200
  20650363.859                    20650370.613    20650370.492   108518440.274 8
  84559842.598 7        51.300          47.900
  22218599.141                    22218605.777    22218605.422   116759527.950 7
  90981512.512 7        45.900          43.800
  21372763.039                    21372768.387    21372768.617   112314590.691 8
  87517920.978 7        50.300          47.100
 14  1  2  1 28  0.0000000  0  7G02G04G14G25G29G12G31
  22845436.203                                    22845439.965   120053503.337 7
  93548276.36145        45.300          31.300
  24520896.617                                                   128858174.133 5
                        34.100
  23107520.242                                    23107527.402   121430812.685 6
  94621430.74743        40.700          22.300
  20262992.859                    20263001.664                   106482839.374 8
  82973644.150 8        51.900          50.900
  20640706.906                    20640714.188    20640714.008   108467693.853 8
  84520299.944 8        51.100          48.200
  22234852.734                    22234858.727    22234858.664   116844939.596 7
  91048067.030 7        46.000          44.100
  21362261.367                    21362266.715    21362266.828   112259402.467 8
  87474917.186 7        50.600          47.500
 14  1  2  1 28 30.0000000  0  7G02G04G14G25G29G12G31
  22845081.617                                    22845085.086   120051637.940 7
  93546822.82045        45.300          31.200
  24535930.250                                                   128937173.050 5
                        32.900
  23124851.070                                    23124858.055   121521881.988 6
  94692393.81843        41.300          22.000
  20267417.156                    20267426.313                   106506088.997 8
  82991760.735 8        51.900          51.100
  20631147.945                    20631154.465    20631154.285   108417459.531 8
  84481156.329 8        50.500          48.200
  22251147.320                    22251153.078    22251152.957   116930567.045 7
  91114789.707 7        45.800          43.600
  21351841.680                    21351846.734    21351846.672   112204645.169 8
  87432249.165 7        49.900          47.000
 14  1  2  1 29  0.0000000  0  7G02G04G14G25G29G12G31
  22844830.609                                    22844834.430   120050321.191 7
  93545796.79645        45.200          30.900
  24551046.281                                                   129016608.311 5
                        32.400
  23142237.438                                    23142244.598   121613254.691 6
  94763593.27943        41.400          22.800
  20271921.461                    20271930.617                   106529760.419 8
  83010205.993 8        50.900          51.300
  20621685.992                    20621692.688    20621692.801   108367738.105 8
  84442412.367 7        51.300          47.800
  22267482.352                    22267488.168    22267488.105   117016408.771 7
  91181679.347 7        43.300          43.600
  21341503.750                    21341509.566    21341509.621   112150320.454 8
  87389918.232 7        50.500          47.200
 14  1  2  1 29 30.0000000  0  7G02G04G14G25G29G12G31
  22844684.297                                    22844687.824   120049552.307 7
  93545197.69345        45.200          31.800
  24566244.953                                                   129096476.349 5
                        31.800
  23159683.078                                    23159690.063   121704927.060 6
  94835026.24343        41.500          22.600
  20276505.930                    20276515.496                   106553852.348 8
  83028978.922 8        51.500          51.100
  20612322.000                    20612329.105    20612328.926   108318529.900 8
  84404068.324 8        50.500          48.600
  22283858.328                    22283864.086    22283864.199   117102462.828 7
  91248734.449 7        46.400          43.700
  21331248.578                    21331254.277    21331254.273   112096429.477 8
  87347925.282 7        50.400          47.300
 14  1  2  1 30  0.0000000  0  7G02G04G14G25G29G12G31
  22844642.125                                    22844646.238   120049331.862 7
  93545025.92945        45.000          30.600
  24581525.977                                                   129176775.096 5
                        31.500
  23177184.180                                    23177190.871   121796896.524 6
  94906690.72643        41.400          22.500
  20281170.539                    20281179.695                   106578364.831 8
  83048079.553 8        51.600          51.000
  20603056.031                    20603063.313    20603063.133   108269836.636 8
  84366125.546 8        50.700          49.300
  22300273.656                    22300279.883    22300279.703   117188728.579 7
  91315954.496 7        46.100          44.300
  21321076.320                    21321082.020    21321081.898   112042974.452 8
  87306272.026 7        50.000          47.300
 14  1  2  1 30 30.0000000  0  7G02G04G14G25G29G12G31
  22844704.102                                    22844708.449   120049659.629 7
  93545281.35345        45.400          31.300
  24596885.352                                                   129257501.384 5
                        31.200
  23194740.703                                    23194748.156   121889159.596 6
  94978583.94843        41.400          22.500
  20285915.039                    20285924.195                   106603296.780 8
  83067507.039 8        51.400          51.300
  20593887.938                    20593894.926    20593894.688   108221658.548 8
  84328584.194 8        51.200          48.800
  22316729.602                    22316735.418    22316735.473   117275204.129 7
  91383338.021 7        45.500          43.700
  21310987.203                    21310993.664    21310993.250   111989956.648 8
  87264959.457 7        50.600          47.000
 14  1  2  1 31  0.0000000  0  7G02G04G14G25G29G12G31
  22844870.961                                    22844875.309   120050535.871 7
  93545964.16145        45.100          30.300
  24612327.938                                                   129338652.945 4
                        29.900
  23212354.320                                    23212360.777   121981713.913 6
  95050704.14143        41.400          21.300
  20290739.031                    20290748.656                   106628647.880 8
  83087261.146 8        51.500          50.300
  20584818.180                    20584824.699    20584824.871   108173996.619 8
  84291445.057 8        50.900          48.300
  22333224.766                    22333231.402    22333231.223   117361888.429 7
  91450884.213 7        46.100          43.900
  21300981.984                    21300987.859    21300987.621   111937378.186 8
  87223989.241 7        50.100          47.200
 14  1  2  1 31 30.0000000  0  7G02G04G14G25G29G12G31
  22845142.258                                    22845147.133   120051961.856 7
  93547075.33445        45.300          30.400
  24627852.313                                                   129420227.965 5
                        30.100
  23230021.188                                    23230028.992   122074557.192 6
  95123049.43743        40.700          21.700
  20295643.172                    20295652.621                   106654418.746 8
  83107342.348 8        51.800          51.100
  20575847.023                    20575854.188    20575853.891   108126853.124 8
  84254709.884 8        50.900          48.700
  22349760.289                    22349767.277    22349767.098   117448781.565 7
  91518593.136 7        47.200          44.200
  21291060.836                    21291066.242    21291066.414   111885241.968 8
  87183363.613 7        50.700          47.200
 14  1  2  1 32  0.0000000  0  7G02G04G14G25G29G12G31
  22845517.828                                    22845522.059   120053935.439 7
  93548613.21145        45.200          30.300
  24643455.242                                                   129502221.528 5
                        30.800
  23247742.656                                    23247750.227   122167684.431 6
  95195616.05243        40.800          21.300
  20300626.516                    20300635.730                   106680606.521 8
  83127748.398 8        52.300          51.000
  20566974.336                    20566981.852    20566981.730   108080226.465 8
  84218377.440 8        51.500          48.400
  22366334.086                    22366340.547    22366340.426   117535879.884 7
  91586461.936 7        47.000          43.600
  21281223.961                    21281229.602    21281229.480   111833547.597 8
  87143082.287 7        51.000          47.400
 14  1  2  1 32 30.0000000  0  7G02G04G14G25G29G12G31
  22845997.953                                    22846001.480   120056457.464 7
  93550578.43545        46.000          30.100
  24659137.695                                                   129584632.75415
                        30.300
  23265517.602                                    23265525.055   122261093.517 6
  95268402.25943        41.400          22.000
  20305689.133                    20305698.055                   106707211.642 8
  83148479.660 8        51.600          50.700
  20558200.453                    20558207.031    20558206.969   108034118.370 8
  84182449.081 8        50.800          48.400
  22382947.078                    22382954.242    22382954.121   117623183.368 7
  91654490.600 7        46.000          44.500
  21271471.266                    21271477.375    21271477.664   111782297.687 8
  87103147.298 7        50.700          47.200
 14  1  2  1 33  0.0000000  0  7G02G04G14G25G29G12G31
  22846582.844                                    22846586.605   120059528.407 7
  93552971.39645        45.900          31.200
  24674898.508                                                   129667457.146 4
                        29.600
  23283346.484                                    23283353.879   122354781.713 6
  95341405.98043        41.600          22.000
  20310831.133                    20310840.758                   106734233.891 8
  83169535.957 8        52.100          50.700
  20549525.125                    20549532.055    20549531.875   107988530.840 8
  84146926.351 8        51.500          48.400
  22399600.023                    22399606.426    22399606.188   117710690.633 7
  91722678.066 7        46.700          44.000
  21261803.656                    21261809.297    21261809.117   111731494.372 8
  87063560.297 7        51.400          47.300
 14  1  2  1 33 30.0000000  0  6G02G14G25G29G12G31
  22847271.414                                    22847275.879   120063151.022 7
  93555794.23244        45.700          29.900
  23301227.828                                    23301235.457   122448748.676 6
  95414626.94643        40.900          21.800
  20316053.766                    20316062.688                   106761675.079 8
  83190918.706 8        52.000          50.700
  20540949.969                    20540957.074    20540957.012   107943466.610 8
  84111811.380 8        51.100          48.500
  22416290.563                    22416297.258    22416297.137   117798402.918 7
  91791025.288 7        46.600          44.300
  21252222.047                    21252227.980    21252228.211   111681141.751 8
  87024324.498 7        50.300          47.500
 14  1  2  1 34  0.0000000  0  6G02G14G25G29G12G31
  22848065.547                                    22848069.133   120067321.702 7
  93559044.13044        45.400          29.400
  23319160.484                                    23319168.465   122542987.741 6
  95488059.92043        40.800          21.800
  20321354.352                    20321363.391                   106789531.306 8
  83212624.854 8        52.800          50.900
  20532473.227                    20532480.215    20532480.211   107898922.947 8
  84077102.049 8        51.700          48.500
  22433019.656                    22433026.293    22433026.348   117886315.885 7
  91859528.892 7        46.100          44.100
  21242725.586                    21242731.520    21242731.457   111631238.110 8
  86985438.542 7        50.200          47.800
 14  1  2  1 34 30.0000000  0  6G02G14G25G29G12G31
  22848963.438                                    22848967.082   120072042.168 7
  93562722.42944        45.800          29.900
  23337145.281                                    23337153.027   122637497.868 6
  95561704.11243        41.100          22.000
  20326734.164                    20326743.086                   106817803.686 8
  83234655.284 8        52.900          51.000
  20524096.641                    20524102.984    20524103.098   107854902.707 8
  84042800.580 8        51.300          48.900
  22449788.055                    22449794.164    22449794.160   117974429.891 7
  91928189.133 7        46.500          44.600
  21233315.383                    21233321.023    21233320.961   111581787.278 8
  86946905.435 8        50.000          48.100
 14  1  2  1 35  0.0000000  0  6G02G14G25G29G12G31
  22849966.031                                    22849970.086   120077311.039 7
  93566828.06545        45.300          31.000
  23355181.352                                    23355188.688   122732274.649 6
  95635556.08043        40.900          22.200
  20332193.016                    20332202.641                   106846490.359 8
  83257008.537 8        52.300          51.200
  20515819.203                    20515826.309    20515826.188   107811405.016 8
  84008906.306 8        51.000          48.800
  22466592.828                    22466599.289    22466599.227   118062742.602 7
  91997004.218 7        45.500          44.300
  21223991.477                    21223997.176    21223997.172   111532789.614 8
  86908725.431 7        50.500          47.800
 14  1  2  1 35 30.0000000  0  6G02G14G25G29G12G31
  22851073.070                                    22851076.480   120083127.885 7
  93571360.68844        46.100          29.600
  23373265.891                                    23373274.047   122827314.511 6
  95709613.06243        41.100          21.800
  20337730.977                    20337740.426                   106875590.248 8
  83279683.783 8        52.700          51.200
  20507641.648                    20507648.578    20507648.340   107768430.268 8
  83975419.506 8        51.900          49.000
  22483435.727                    22483442.188    22483442.242   118151251.755 7
  92065972.370 7        45.900          43.800
  21214753.961                    21214759.777    21214759.773   111484246.296 8
  86870899.473 7        50.500          47.200
 14  1  2  1 36  0.0000000  0  6G02G14G25G29G12G31
  22852284.820                                    22852287.879   120089494.546 7
  93576321.73145        45.900          31.200
  23391402.547                                    23391409.941   122922617.017 6
  95783874.67743        40.700          21.700
  20343347.086                    20343356.008                   106905105.032 8
  83302682.317 8        52.600          51.100
  20499563.602                    20499570.590    20499570.586   107725981.964 8
  83942342.920 8        51.500          49.000
  22500316.602                    22500322.828    22500322.590   118239958.996 7
  92135094.881 7        45.200          43.700
  21205603.555                    21205609.547    21205609.660   111436161.307 8
  86833430.658 8        50.300          48.000
 14  1  2  1 36 30.0000000  0  6G02G14G25G29G12G31
  22853600.797                                    22853604.207   120096410.519 7
  93581710.81045        45.900          31.000
  23409587.313                                    23409594.590   123018178.493 6
  95858338.09143        40.500          20.600
  20349042.305                    20349051.461                   106935033.577 8
  83326003.265 8        52.000          50.700
  20491586.367                    20491593.180    20491593.000   107684059.918 8
  83909676.413 8        51.400          48.400
  22517233.594                    22517240.230    22517240.227   118328862.231 7
  92204370.118 7        45.700          43.800
  21196540.492                    21196546.309    21196546.305   111388535.815 8
  86796319.887 7        50.700          47.400
 14  1  2  1 37  0.0000000  0  6G02G14G25G29G12G31
  22855021.281                                    22855024.867   120103875.426 7
  93587527.64145        45.700          30.300
  23427820.391                                    23427827.844   123113994.965 6
  95933000.23143        40.600          20.400
  20354816.156                    20354824.961                   106965374.726 8
  83349645.732 8        51.600          51.100
  20483708.992                    20483716.156    20483715.977   107642664.380 8
  83877420.167 8        51.200          49.000
  22534188.406                    22534195.219    22534194.746   118417959.682 7
  92273796.695 7        44.500          43.700
  21187565.695                    21187571.277    21187571.156   111341370.837 8
  86759567.952 7        50.000          47.900
 14  1  2  1 37 30.0000000  0  6G02G14G25G29G12G31
  22856546.070                                    22856549.305   120111888.088 7
  93593771.28845        45.300          30.400
  23446100.945                                    23446108.691   123210063.008 6
  96007858.40643        40.500          21.100
  20360667.992                    20360677.031                   106996126.803 8
  83373608.392 8        51.300          51.100
  20475931.789                    20475938.660    20475938.598   107601794.868 8
  83845573.807 8        51.500          49.400
  22551180.063                    22551186.172    22551186.461   118507249.455 7
  92343373.127 7        45.300          43.500
  21178677.852                    21178683.727    21178683.664   111294667.052 8
  86723175.403 7        50.700          47.900
 14  1  2  1 38  0.0000000  0  6G02G14G25G29G12G31
  22858175.070                                    22858178.949   120120449.051 7
  93600442.17744        45.400          29.900
  23464428.727                                    23464436.824   123306380.380 6
  96082910.91143        40.800          20.400
  20366598.227                    20366607.266                   107027290.291 8
  83397891.629 8        51.700          51.100
  20468254.773                    20468262.113    20468261.992   107561453.214 8
  83814138.778 8        51.200          49.400
  22568207.430                    22568213.832    22568213.418   118596731.108 7
  92413099.079 7        44.900          43.900
  21169878.688                    21169884.094    21169884.266   111248427.304 8
  86687144.447 7        50.300          47.800
 14  1  2  1 38 30.0000000  0  6G02G14G25G29G12G31
  22859908.234                                    22859911.879   120129558.959 7
  93607540.82644        45.600          29.900
  23482805.203                                    23482812.715   123402944.700 6
  96158155.81143        40.600          19.600
  20372606.406                    20372615.621                   107058865.050 8
  83422495.336 8        51.300          50.800
  20460679.109                    20460685.395    20460685.508   107521640.780 8
  83783116.131 8        51.300          48.800
  22585272.141                    22585278.133    22585277.895   118686404.080 7
  92482974.105 7        44.500          43.600
  21161168.750                    21161174.684    21161174.621   111202654.020 8
  86651476.952 7        50.700          47.900
 14  1  2  1 39  0.0000000  0  6G02G14G25G29G12G31
  22861746.727                                    22861750.020   120139217.241 7
  93615066.76545        45.400          30.500
  23501226.984                                    23501234.965   123499752.388 6
  96233590.40543        40.900          19.300
  20378693.273                    20378702.488                   107090850.235 8
  83447418.854 8        51.600          50.300
  20453203.453                    20453210.031    20453209.969   107482357.745 8
  83752505.996 8        51.400          49.100
  22602371.563                    22602378.844    22602378.781   118776266.563 7
  92552996.805 7        44.700          43.200
  21152546.758                    21152552.691    21152552.805   111157348.210 8
  86616173.718 7        50.300          47.700
 14  1  2  1 39 30.0000000  0  6G02G14G25G29G12G31
  22863689.141                                    22863692.375   120149424.123 7
  93623020.20044        46.000          29.900
  23519694.844                                    23519702.473   123596801.083 6
  96309212.71643        39.900          19.600
  20384857.992                    20384866.914                   107123245.907 8
  83472662.233 8        51.400          50.600
  20445829.219                    20445835.855    20445836.027   107443605.532 8
  83722309.493 8        51.600          48.800
  22619508.945                    22619515.641    22619515.578   118866318.303 7
  92623166.972 7        46.600          43.300
  21144015.109                    21144020.750    21144020.688   111112512.271 8
  86581236.612 7        50.300          47.300
 14  1  2  1 40  0.0000000  0  6G02G14G25G29G12G31
  22865734.828                                    22865738.766   120160178.265 7
  93631400.05944        45.100          29.800
  23538207.766                                    23538215.395   123694086.346 6
  96385019.35843        39.400          19.600
  20391100.125                    20391109.867                   107156049.758 8
  83498223.669 8        51.100          50.100
  20438555.875                    20438562.219    20438562.215   107405382.978 8
  83692525.733 8        50.700          48.700
  22636680.656                    22636686.004    22636686.059   118956556.449 7
  92693482.398 7        45.800          44.300
  21135572.719                    21135578.711    21135578.414   111068146.679 8
  86546666.018 7        50.900          47.300
 14  1  2  1 40 30.0000000  0  6G02G14G25G29G12G31
  22867885.586                                    22867889.465   120171480.222 7
  93640206.78544        45.600          29.900
  23556766.211                                    23556772.785   123791606.304 6
  96461008.86843        39.800          20.400
  20397420.398                    20397429.730                   107189262.339 8
  83524103.603 8        51.900          50.400
  20431383.156                    20431389.910    20431390.082   107367692.367 8
  83663156.507 8        51.100          49.500
  22653887.703                    22653893.988    22653893.926   119046980.874 7
  92763942.962 7        45.600          43.800
  21127220.148                    21127226.141    21127225.902   111024253.854 8
  86512463.823 7        50.500          47.500
 14  1  2  1 41  0.0000000  0  6G02G14G25G29G12G31
  22870140.703                                    22870143.762   120183328.869 7
  93649439.51045        45.000          30.100
  23575367.023                                    23575373.656   123889357.249 6
  96537178.38743        39.500          19.000
  20403818.109                    20403827.441                   107222882.335 8
  83550300.996 8        51.100          50.900
  20424312.180                    20424318.582    20424318.871   107330533.506 8
  83634201.628 8        51.300          49.100
  22671129.750                    22671136.445    22671136.266   119137589.659 7
  92834547.201 7        44.100          44.000
  21118958.078                    21118963.309    21118963.363   110980834.791 8
  86478630.795 7        50.500          47.800
 14  1  2  1 41 30.0000000  0  6G02G14G25G29G12G31
  22872498.656                                    22872502.535   120195725.140 7
  93659098.95545        44.700          31.000
  23594011.945                                    23594019.457   123987337.047 6
  96613526.21843        39.900          19.300
  20410293.719                    20410302.465                   107256910.039 8
  83576816.089 8        51.600          50.100
  20417342.195                    20417349.125    20417349.063   107293907.635 8
  83605662.030 8        51.400          49.000
  22688407.828                    22688413.996    22688413.465   119228382.782 7
  92905295.076 7        45.500          43.300
  21110785.844                    21110791.719    21110791.832   110937892.060 8
  86445168.934 7        50.900          47.800
 14  1  2  1 42  0.0000000  0  6G02G14G25G29G12G31
  22874962.883                                    22874966.176   120208669.446 7
  93669185.43844        44.500          29.400
  23612699.570                                    23612708.078   124085543.707 6
  96690050.84043        39.500          19.000
  20416846.383                    20416855.422                   107291345.536 8
  83603648.938 8        51.400          50.000
  20410474.320                    20410481.191    20410480.953   107257815.569 8
  83577538.396 8        51.200          49.100
  22705719.883                    22705725.523    22705725.402   119319359.449 7
  92976185.976 7        45.000          42.800
  21102705.313                    21102710.953    21102710.832   110895428.124 8
  86412080.158 7        51.000          47.600
 14  1  2  1 42 30.0000000  0  6G02G14G25G29G12G31
  22877529.172                                    22877533.109   120222157.779 7
  93679695.84745        45.500          30.500
  23631430.352                                    23631437.453   124183969.896 6
  96766746.47343        39.500          18.300
  20423475.891                    20423484.871                   107326184.609 8
  83630796.268 8        52.500          50.000
  20403707.367                    20403714.355    20403714.117   107222255.120 8
  83549828.975 8        51.500          49.500
  22723065.734                    22723072.664    22723072.543   119410515.313 7
  93047216.509 7        45.800          43.600
  21094715.492                    21094721.074    21094720.895   110853440.671 8
  86379362.667 8        50.800          48.000
 14  1  2  1 43  0.0000000  0  6G02G14G25G29G12G31
  22880200.063                                    22880204.000   120236193.222 7
  93690632.56544        44.700          29.400
  23650201.383                                    23650209.422   124282616.545 6
  96843613.91843        38.100          18.300
  20430183.172                    20430191.508                   107361430.052 8
  83658260.239 8        51.600          50.600
  20397042.539                    20397049.469    20397049.406   107187229.867 8
  83522536.606 8        51.400          50.000
  22740447.117                    22740453.168    22740452.988   119501852.412 7
  93118388.253 7        45.400          43.800
  21086817.469                    21086822.816    21086822.695   110811935.208 8
  86347020.747 7        50.800          47.900
 14  1  2  1 43 30.0000000  0  6G02G14G25G29G12G31
  22882974.789                                    22882978.434   120250774.221 7
  93701994.39244        44.600          29.800
  23669015.188                                    23669022.582   124381479.634 6
  96920650.09443        39.200          19.600
  20436966.961                    20436976.176                   107397079.955 8
  83686039.379 8        51.700          50.400
  20390479.133                    20390485.711    20390485.707   107152739.303 8
  83495660.856 8        51.900          49.300
  22757861.555                    22757868.250    22757868.070   119593368.400 7
  93189699.396 7        45.900          43.600
  21079010.586                    21079016.695    21079016.750   110770911.828 8
  86315054.477 7        51.200          47.500
 14  1  2  1 44  0.0000000  0  6G02G14G25G29G12G31
  22885853.563                                    22885857.148   120265900.012 7
  93713780.73244        45.600          29.800
  23687869.156                                    23687876.199   124480555.257 6
  96997851.79843        38.100          19.600
  20443827.758                    20443837.090                   107433133.237 8
  83714132.850 8        51.900          50.300
  20384017.156                    20384023.793    20384023.789   107118783.273 8
  83469201.628 8        52.000          49.600
  22775310.250                    22775316.652    22775316.473   119685061.494 7
  93261148.547 7        46.400          43.500
  21071296.633                    21071302.391    21071302.152   110730371.603 8
  86283464.690 7        51.300          47.600
 14  1  2  1 44 30.0000000  0  6G02G14G25G29G12G31
  22888835.500                                    22888839.496   120281571.648 7
  93725992.40944        44.900          29.400
  23706763.008                                    23706769.992   124579841.683 6
  97075217.81042        39.000          17.800
  20450765.063                    20450774.453                   107469590.424 8
  83742541.045 8        51.800          50.300
  20377657.750                    20377664.797    20377664.793   107085363.156 8
  83443159.987 8        51.400          49.300
  22792792.414                    22792799.285    22792799.164   119776931.909 7
  93332735.869 7        46.300          43.700
  21063673.891                    21063679.766    21063679.762   110690317.510 8
  86252253.702 7        51.200          47.300
 14  1  2  1 45  0.0000000  0  6G02G14G25G29G12G31
  22891920.773                                    22891924.652   120297787.027 7
  93738627.78345        44.500          30.100
  23725695.148                                    23725703.070   124679334.940 6
  97152745.00343        36.700          18.300
  20457779.211                    20457788.250                   107506449.974 8
  83771262.771 8        51.700          50.300
  20371400.477                    20371407.289    20371407.285   107052479.447 8
  83417536.313 8        51.700          49.200
  22810308.742                    22810315.379    22810315.023   119868977.503 7
  93404459.688 7        45.300          44.000
  21056144.859                    21056150.207    21056150.203   110650750.251 8
  86221422.064 8        50.500          48.000
 14  1  2  1 45 30.0000000  0  6G02G14G25G29G12G31
  22895110.422                                    22895114.301   120314547.078 7
  93751687.57045        45.300          30.200
  23744666.852                                    23744674.891   124779033.036 6
  97230431.76543        38.200          18.600
  20464869.828                    20464879.043                   107543712.161 8
  83800298.240 8        51.200          50.000
  20365244.984                    20365251.211    20365251.031   107020133.120 8
  83392331.383 8        52.200          49.300
  22827857.508                    22827863.441    22827863.496   119961198.092 7
  93476319.880 7        45.100          43.200
  21048708.375                    21048714.191    21048714.422   110611672.214 8
  86190971.651 7        50.800          47.900
 14  1  2  1 46  0.0000000  0  6G02G14G25G29G12G31
  22898403.406                                    22898406.816   120331850.346 7
  93765170.64244        45.100          29.600
  23763677.109                                    23763685.266   124878932.076 6
  97308275.15743        37.900          18.300
  20472036.781                    20472046.113                   107581375.404 8
  83829646.221 8        51.200          49.900
  20359191.969                    20359198.313    20359198.250   106988323.717 8
  83367544.832 8        50.800          49.600
  22845439.414                    22845445.523    22845445.578   120053591.667 7
  93548314.849 7        44.600          43.900
  21041365.602                    21041371.652    21041371.590   110573084.110 8
  86160902.994 7        50.800          47.300
 14  1  2  1 46 30.0000000  0  6G02G14G25G29G12G31
  22901799.070                                    22901802.949   120349697.353 7
  93779077.40245        45.200          30.200
  23782724.789                                    23782732.828   124979030.049 6
  97386273.54042        37.900          16.900
  20479280.508                    20479289.781                   107619439.876 8
  83859306.853 8        51.300          50.900
  20353241.063                    20353247.406    20353247.285   106957052.277 8
  83343177.481 8        51.000          49.200
  22863053.977                    22863060.672    22863060.609   120146157.860 7
  93620444.332 7        44.500          43.600
  21034116.000                    21034121.699    21034121.754   110534988.246 8
  86131217.912 7        51.000          47.800
 14  1  2  1 47  0.0000000  0  6G02G14G25G29G12G31
  22905298.867                                    22905302.746   120368086.367 7
  93793406.51445        45.400          30.600
  23801810.766                                    23801817.809   125079322.497 6
  97464423.46743        38.100          18.600
  20486600.063                    20486609.395                   107657903.630 8
  83889278.606 8        51.300          50.900
  20347392.500                    20347398.902    20347398.781   106926318.230 8
  83319228.884 8        51.100          49.500
  22880700.609                    22880708.242    22880708.121   120238894.038 7
  93692706.279 7        45.000          43.500
  21026960.094                    21026965.500    21026965.672   110497384.816 8
  86101916.541 7        50.900          47.600
 14  1  2  1 47 30.0000000  0  6G02G14G25G29G12G31
  22908900.820                                    22908904.641   120387016.734 7
  93808157.46045        44.600          30.500
  23820932.102                                    23820938.617   125179806.305 6
  97542722.55242        36.200          17.400
  20493995.336                    20494004.375                   107696765.892 8
  83919560.881 8        51.000          50.800
  20341646.117                    20341652.813    20341652.750   106896121.505 8
  83295698.984 8        51.100          49.700
  22898380.328                    22898386.613    22898386.727   120331799.268 7
  93765099.953 7        43.700          43.900
  21019898.445                    21019904.145    21019904.199   110460275.449 8
  86073000.162 7        50.700          47.600
 14  1  2  1 48  0.0000000  0  6G02G14G25G29G12G31
  22912606.594                                    22912610.707   120406489.912 7
  93823331.36945        45.400          30.900
  23840089.008                                    23840097.164   125280480.352 6
  97621169.82642        37.900          16.900
  20501466.375                    20501475.824                   107736027.919 8
  83950154.672 8        51.800          50.400
  20336002.703                    20336008.813    20336008.750   106866464.995 8
  83272590.027 8        51.900          49.400
  22916092.125                    22916098.586    22916098.230   120424874.588 7
  93837626.159 7        43.500          43.300
  21012931.898                    21012937.246    21012937.359   110423663.416 8
  86044471.302 7        51.100          47.500
 14  1  2  1 48 30.0000000  0  6G02G14G25G29G12G31
  22916414.883                                    22916418.762   120426503.435 7
  93838926.33345        45.400          31.000
  23859282.219                                    23859290.609   125381340.024 6
  97699761.70242        37.900          17.800
  20509013.469                    20509022.742                   107775687.224 8
  83981058.015 8        51.700          50.600
  20330461.766                    20330468.344    20330468.398   106837347.125 8
  83249900.794 8        50.800          49.900
  22933835.875                    22933842.043    22933841.805   120518116.484 7
  93910282.166 7        43.500          43.100
  21006059.063                    21006065.172    21006065.051   110387548.513 8
  86016329.825 8        50.300          48.100
 14  1  2  1 49  0.0000000  0  6G02G14G25G29G12G31
  22920326.445                                    22920330.559   120447057.798 7
  93854942.73345        44.900          31.200
  23878509.758                                    23878518.090   125482383.171 6
  97778496.58542        37.700          17.800
  20516636.352                    20516645.215                   107815744.026 8
  84012271.102 8        51.900          50.200
  20325023.656                    20325030.117    20325030.113   106808768.900 8
  83227632.059 8        51.600          49.800
  22951610.672                    22951616.488    22951616.543   120611524.968 7
  93983067.986 7        43.900          43.100
  20999281.914                    20999287.789    20999287.727   110351933.177 8
  85988577.617 7        50.400          47.800
 14  1  2  1 49 30.0000000  0  6G02G14G25G29G12G31
  22924339.789                                    22924343.492   120468148.099 7
  93871376.74145        45.600          30.800
  23897771.453                                    23897779.785   125583602.321 6
  97857368.61343        38.000          18.300
  20524333.289                    20524342.504                   107856193.430 8
  84043790.111 8        51.800          50.500
  20319687.391                    20319693.676    20319693.613   106780726.331 8
  83205780.713 8        51.200          50.200
  22969416.789                    22969423.016    22969422.777   120705094.876 7
  94055979.587 7        43.900          43.400
  20992599.047                    20992604.863    20992604.918   110316814.764 8
  85961212.626 7        50.800          47.300
 14  1  2  1 50  0.0000000  0  6G02G14G25G29G12G31
  22928456.633                                    22928460.160   120489781.621 7
  93888234.03345        45.700          30.400
  23917067.445                                    23917075.719   125685003.126 6
  97936382.23942        37.500          16.900
  20532106.602                    20532115.816                   107897042.854 8
  84075620.831 8        51.900          50.500
  20314454.297                    20314461.109    20314460.988   106753228.089 8
  83184353.515 8        51.000          50.200
  22987253.984                    22987260.621    22987260.734   120798833.033 7
  94129022.290 7        43.900          43.400
  20986012.695                    20986018.160    20986018.156   110282202.770 8
  85934242.243 8        50.500          48.100
 14  1  2  1 50 30.0000000  0  6G02G14G25G29G12G31
  22932675.547                                    22932678.898   120511953.595 7
  93905510.91045        45.600          30.800
  23936396.828                                    23936405.160   125786577.661 6
  98015531.19242        38.100          16.300
  20539955.516                    20539964.379                   107938287.296 8
  84107759.359 8        51.800          50.300
  20309324.672                    20309330.957    20309331.070   106726270.150 8
  83163347.332 8        51.100          49.800
  23005122.906                    23005129.191    23005129.188   120892733.998 7
  94202191.855 6        44.400          41.700
  20979522.109                    20979527.340    20979527.512   110248094.084 8
  85907664.052 7        50.200          47.900
 14  1  2  1 51  0.0000000  0  6G02G14G25G29G12G31
  22936997.102                                    22937001.098   120534663.635 7
  93923207.05445        45.000          30.500
  23955757.500                                    23955765.949   125888323.078 6
  98094813.28142        38.900          17.400
  20547878.641                    20547888.324                   107979926.184 8
  84140205.240 8        51.900          50.300
  20304297.570                    20304303.973    20304303.969   106699853.161 8
  83142762.666 8        51.500          50.000
  23023022.664                    23023029.125    23023029.121   120986796.882 7
  94275487.596 7        45.800          42.900
  20973127.555                    20973132.785    20973132.781   110214490.364 8
  85881479.338 7        50.000          47.700
 14  1  2  1 51 30.0000000  0  6G02G14G25G29G12G31
  22941420.539                                    22941424.125   120557908.245 7
  93941319.74245        45.200          30.000
  23975151.906                                    23975160.004   125990233.788 6
  98174224.19342        38.500          16.900
  20555876.945                    20555885.867                   108021955.997 8
  84172955.742 8        52.200          50.700
  20299372.930                    20299379.566    20299379.797   106673974.301 8
  83122597.314 8        51.900          50.200
  23040951.789                    23040958.133    23040957.777   121081017.304 7
  94348906.098 6        45.300          41.700
  20966828.531                    20966834.289    20966834.285   110181390.588 8
  85855687.301 8        50.100          48.100
 14  1  2  1 52  0.0000000  0  6G02G14G25G29G12G31
  22945945.992                                    22945950.047   120581691.141 7
  93959851.88445        45.900          30.000
  23994575.734                                    23994584.066   126092311.433 6
  98253765.19542        37.700          15.600
  20563949.961                    20563958.590                   108064380.539 8
  84206013.828 8        52.000          50.000
  20294551.492                    20294558.480    20294558.301   106648638.018 8
  83102854.750 8        51.800          50.500
  23058912.695                    23058918.570    23058918.449   121175399.586 7
  94422450.716 7        44.900          42.100
  20960627.188                    20960632.066    20960632.297   110148800.519 8
  85830292.428 8        50.200          48.600
 14  1  2  1 52 30.0000000  0  6G02G14G25G29G12G31
  22950573.477                                    22950577.414   120606009.920 7
  93978801.59044        45.600          29.400
  24014031.094                                    24014038.605   126194551.190 6
  98333432.49342        39.200          17.400
  20572097.539                    20572106.988                   108107197.135 8
  84239377.408 8        51.600          50.200
  20289833.297                    20289840.285    20289840.164   106623843.428 8
  83083534.296 8        51.900          50.200
  23076902.977                    23076908.559    23076908.496   121269940.266 7
  94496118.769 7        44.600          42.200
  20954522.008                    20954527.648    20954527.586   110116719.479 8
  85805294.215 8        49.900          48.000
 14  1  2  1 53  0.0000000  0  6G02G14G25G29G12G31
  22955303.664                                    22955306.723   120630863.590 7
  93998168.10144        44.900          29.600
  24033517.836                                    24033525.406   126296949.584 6
  98413223.41443        38.000          18.300
  20580319.891                    20580329.281                   108150405.123 8
  84273045.969 8        52.100          49.900
  20285218.250                    20285224.477    20285224.648   106599590.492 8
  83064635.901 8        51.300          50.400
  23094923.391                    23094929.266    23094929.027   121364638.111 7
  94569909.283 6        44.200          41.600
  20948514.414                    20948520.172    20948519.934   110085149.047 8
  85780693.869 8        49.900          48.100
 14  1  2  1 53 30.0000000  0  6G02G14G25G29G12G31
  22960134.219                                    22960137.922   120656250.707 7
  94017950.28844        45.000          29.200
  24053033.055                                    24053039.863   126399503.126 6
  98493135.21142        38.500          15.600
  20588616.227                    20588625.500                   108194002.863 8
  84307018.237 8        51.800          50.200
  20280705.492                    20280712.246    20280712.125   106575878.407 8
  83046158.948 8        51.000          50.900
  23112973.375                    23112979.426    23112979.188   121459491.199 7
  94643820.768 6        43.900          41.600
  20942604.086                    20942609.961    20942609.898   110054089.463 8
  85756491.592 7        49.900          47.600
 14  1  2  1 54  0.0000000  0  6G02G14G25G29G12G31
  22965067.031                                    22965070.383   120682171.581 7
  94038148.37344        44.300          29.600
  24072575.898                                    24072585.227   126502209.965 6
  98573166.45542        37.800          16.300
  20596986.828                    20596995.867                   108237990.811 8
  84341294.560 8        51.400          50.100
  20276296.789                    20276303.426    20276303.363   106552708.248 8
  83028104.283 8        51.400          50.600
  23131052.680                    23131059.023    23131059.195   121554499.437 7
  94717853.151 6        42.600          41.500
  20936791.234                    20936796.992    20936797.047   110023543.438 8
  85732689.483 8        49.700          48.100
 14  1  2  1 54 30.0000000  0  6G02G14G25G29G12G31
  22970100.867                                    22970104.160   120708624.721 7
  94058761.22744        45.100          29.300
  24092150.328                                    24092158.309   126605066.391 6
  98653314.34142        37.000          15.600
  20605431.641                    20605440.563                   108282367.488 8
  84375873.783 8        51.800          49.900
  20271990.758                    20271997.512    20271997.332   106530079.644 8
  83010471.609 8        51.600          50.300
  23149161.414                    23149167.465    23149167.461   121649661.119 7
  94792005.086 6        43.300          41.100
  20931076.484                    20931082.008    20931082.004   109993511.747 8
  85709288.160 7        50.200          47.500
 14  1  2  1 55  0.0000000  0  6G02G14G25G29G12G31
  22975235.813                                    22975239.047   120735609.729 7
  94079788.51644        44.300          29.700
  24111751.023                                    24111759.238   126708069.373 5
  98733576.31642        35.400          15.600
  20613950.086                    20613959.301                   108327132.371 8
  84410755.507 8        51.800          50.000
  20267787.805                    20267794.383    20267794.203   106507993.072 8
  82993261.293 8        51.300          50.500
  23167298.992                    23167304.867    23167305.215   121744975.307 7
  94866275.866 6        43.400          41.600
  20925459.961                    20925465.660    20925465.656   109963995.777 8
  85686288.691 8        50.200          48.000
 14  1  2  1 55 30.0000000  0  6G02G14G25G29G12G31
  22980471.766                                    22980475.586   120763124.639 7
  94101228.71744        44.800          28.900
  24131378.828                                    24131386.809   126811215.055 6
  98813949.60042        36.300          16.900
  20622542.086                    20622551.066                   108372283.802 8
  84445938.437 8        51.400          50.000
  20263687.883                    20263694.988    20263694.926   106486447.831 8
  82976472.794 8        51.300          50.600
  23185465.570                    23185471.328    23185471.266   121840440.112 6
  94940664.009 6        41.900          41.700
  20919941.781                    20919947.129    20919946.949   109934996.047 8
  85663691.490 8        50.600          48.500
 14  1  2  1 56  0.0000000  0  6G02G14G25G29G12G31
  22985808.805                                    22985812.332   120791171.603 7
  94123083.49844        43.700          29.400
  24151033.859                                    24151042.309   126914503.717 5
  98894434.26242        35.200          15.600
  20631207.797                    20631216.953                   108417823.961 8
  84481424.275 8        51.300          50.300
  20259691.500                    20259697.844    20259697.664   106465446.934 8
  82960108.461 8        51.700          50.600
  23203661.141                    23203667.191    23203667.246   121936057.380 7
  95015170.957 6        42.600          41.300
  20914521.758                    20914527.633    20914527.570   109906516.684 8
  85641499.768 8        50.500          48.400
 14  1  2  1 56 30.0000000  0  6G02G14G25G29G12G31
  22991247.000                                    22991250.469   120819748.612 7
  94145351.30144        44.100          29.300
  24170715.727                                    24170723.648   127017930.646 5
  98975026.66242        34.800          15.600
  20639947.391                    20639956.957                   108463750.722 8
  84517211.357 8        51.800          50.500
  20255798.234                    20255805.164    20255804.984   106444988.855 8
  82944167.102 8        51.500          50.800
  23221884.945                    23221891.113    23221890.758   122031824.622 7
  95089794.767 6        42.800          41.400
  20909201.719                    20909206.949    20909206.770   109878557.511 8
  85619713.391 8        49.700          48.000
 14  1  2  1 57  0.0000000  0  6G02G14G25G29G12G31
  22996785.422                                    22996789.535   120848854.504 7
  94168031.23144        44.000          29.900
  24190422.406                                    24190431.266   127121492.733 5
  99055724.39642        34.000          15.600
  20648760.633                    20648769.320                   108510063.084 8
  84553298.910 8        51.600          49.500
  20252008.727                    20252015.363    20252015.301   106425073.421 8
  82928648.588 8        52.100          50.700
  23240137.000                    23240143.168    23240143.223   122127740.481 7
  95164534.385 6        42.000          40.900
  20903980.445                    20903986.027    20903985.789   109851120.024 8
  85598333.521 7        50.100          47.900
 14  1  2  1 57 30.0000000  0  6G02G14G25G29G12G31
  23002425.094                                    23002428.621   120878486.756 7
  94191121.30445        43.800          30.000
  24210154.367                                    24210163.578   127225185.657 5
  99136524.01642        34.700          15.600
  20657646.633                    20657655.906                   108556758.960 8
  84589685.299 8        51.400          50.200
  20248322.070                    20248328.707    20248328.527   106405699.596 8
  82913552.106 8        51.000          50.800
  23258417.180                    23258423.582    23258423.461   122223802.464 7
  95239387.867 6        42.600          41.400
  20898858.523                    20898864.223    20898864.277   109824203.575 8
  85577359.665 8        50.000          48.400
 14  1  2  1 58  0.0000000  0  6G02G14G25G29G12G31
  23008162.914                                    23008167.320   120908644.475 7
  94214620.82944        44.500          29.800
  24229910.766                                    24229919.859   127329006.610 5
  99217423.48942        34.300          16.900
  20666605.172                    20666614.445                   108603837.542 8
  84626369.907 8        51.700          50.300
  20244738.594                    20244745.113    20244744.758   106386867.418 8
  82898877.693 8        51.300          51.200
  23276724.633                    23276730.742    23276730.797   122320009.633 7
  95314354.471 6        42.200          40.900
  20893835.875                    20893841.574    20893841.512   109797809.958 8
  85556793.200 8        50.300          48.500
 14  1  2  1 58 30.0000000  0  6G02G14G25G29G12G31
  23014001.758                                    23014006.105   120939327.327 7
  94238529.55645        44.600          30.200
  24249691.875                                    24249700.617   127432952.565 5
  99298420.26742        33.700          15.600
  20675636.844                    20675645.766                   108651298.456 8
  84663352.430 8        51.400          50.000
  20241257.617                    20241264.781    20241264.660   106368577.218 8
  82884625.592 8        51.400          51.100
  23295059.359                    23295065.879    23295065.758   122416361.218 7
  95389433.623 6        42.300          41.000
  20888912.813                    20888918.219    20888918.449   109771940.469 8
  85536635.158 8        50.300          48.700
 14  1  2  1 59  0.0000000  0  6G02G14G25G29G12G31
  23019940.469                                    23019944.934   120970536.119 7
  94262848.09844        43.500          29.600
  24269495.383                                                   127537022.878 5
                        33.500
  20684741.602                    20684750.465                   108699142.867 8
  84700633.778 8        52.100          50.300
  20237880.844                    20237887.129    20237887.008   106350830.897 8
  82870797.300 8        51.800          51.100
  23313422.313                    23313428.656    23313428.770   122512858.151 6
  95464626.025 6        41.700          41.700
  20884090.680                    20884096.086    20884096.258   109746598.253 8
  85516887.976 8        50.100          48.500
 14  1  2  1 59 30.0000000  0  6G02G14G25G29G12G31
  23025978.820                                    23025982.816   121002267.890 7
  94287574.15445        44.100          30.100
  24289322.047                                                   127641212.113 5
                        34.100
  20693918.250                    20693927.699                   108747367.776 8
  84738211.618 8        51.800          50.500
  20234606.711                    20234613.348    20234613.402   106333626.288 8
  82857391.124 8        52.100          50.300
  23331811.969                    23331818.488    23331818.660   122609496.956 7
  95539928.968 6        42.300          41.800
  20879367.961                    20879373.367    20879373.305   109721782.226 8
  85497550.805 8        50.300          48.300
 14  1  2  2  0  0.0000000  4  5
MORP (COGO code)                                            COMMENT
   0.033      (antenna height)                              COMMENT
 +55.21279000 (latitude)                                    COMMENT
  -1.68549700 (longitude)                                   COMMENT
0144.425      (elevation)                                   COMMENT
 14  1  2  2  0  0.0000000  0  7G02G14G25G29G21G12G31
  23032116.773                                    23032120.828   121034522.067 7
  94312707.28645        44.100          30.300
  24309171.086                                                   127745517.784 5
                        35.400
  20703167.219                    20703176.492                   108795972.814 8
  84776085.667 8        51.300          50.200
  20231435.883                    20231442.520    20231442.398   106316963.831 8
  82844407.392 8        51.600          51.200
  25324020.156                                                   133078622.517 5
                        32.400
  23350228.750                    23350234.918    23350234.973   122706277.017 7
  95615341.992 6        42.600          40.800
  20874746.367                    20874751.539    20874751.594   109697494.308 8
  85478625.147 8        51.000          48.700
 14  1  2  2  0 30.0000000  0  7G02G14G25G29G21G12G31
  23038354.508                                    23038357.918   121067299.928 7
  94338248.48644        45.000          29.300
  24329041.461                                                   127849938.970 6
                        36.300
  20712489.148                    20712498.773                   108844959.274 8
  84814256.931 8        51.000          50.100
  20228368.914                    20228375.785    20228375.664   106300845.708 8
  82831847.825 8        51.700          51.100
  25305148.766                                                   132979450.074 5
                        33.900
  23368672.695                    23368679.156    23368678.742   122803199.551 7
  95690866.030 6        42.500          41.500
  20870225.578                    20870231.453    20870231.332   109673737.675 8
  85460113.484 8        50.900          48.800
 14  1  2  2  1  0.0000000  0  7G02G14G25G29G21G12G31
  23044691.000                                    23044694.410   121100597.177 7
  94364194.40544        44.300          29.600
  24348934.094                                                   127954470.153 5
                        35.000
  20721883.109                    20721892.383                   108894323.713 8
  84852722.726 8        50.900          49.900
  20225404.727                    20225411.480    20225411.301   106285269.040 8
  82819710.165 8        51.700          50.400
  25286274.461                                                   132880265.735 5
                        32.600
  23387142.891                    23387149.469    23387149.289   122900260.600 7
  95766498.001 6        42.500          41.100
  20865805.492                    20865810.957    20865810.660   109650510.581 8
  85442014.444 8        51.200          48.000
 14  1  2  2  1 30.0000000  0  7G02G14G25G29G21G12G31
  23051125.172                                    23051129.461   121134412.258 7
  94390543.82144        43.700          29.800
  24368845.711                                                   128059107.460 5
                        35.400
  20731348.234                    20731357.918                   108944064.361 8
  84891481.659 8        51.700          49.400
  20222543.156                    20222549.969    20222549.965   106270231.970 8
  82807992.974 8        51.100          50.800
  25267398.492                                                   132781070.684 5
                        33.000
  23405638.883                    23405645.109    23405645.047   122997457.794 7
  95842236.065 6        42.100          40.900
  20861486.484                    20861491.949    20861492.004   109627813.494 8
  85424328.401 8        50.200          48.900
 14  1  2  2  2  0.0000000  0  7G02G14G25G29G21G12G31
  23057659.648                                    23057662.414   121168746.982 7
  94417298.16445        43.900          30.000
  24388775.945                                                   128163850.664 5
                        35.000
  20740885.680                    20740894.426                   108994183.283 8
  84930535.354 8        51.300          48.900
  20219785.227                    20219791.629    20219791.742   106255738.691 8
  82796699.514 8        51.400          50.100
  25248521.211                                                   132681870.116 5
                        34.000
  23424160.914                    23424167.668    23424167.371   123094793.725 6
  95918082.230 6        41.800          40.700
  20857269.117                    20857275.109    20857275.223   109605650.551 8
  85407058.572 8        50.500          48.500
 14  1  2  2  2 30.0000000  0  7G02G14G25G29G21G12G31
  23064290.680                                    23064294.734   121203597.703 7
  94444454.57445        44.100          30.700
  24408726.867                                                   128268694.766 5
                        33.700
  20750494.391                    20750503.137                   109044677.353 8
  84969881.372 8        51.200          49.400
  20217130.336                    20217136.973    20217136.793   106241786.387 8
  82785827.608 8        51.900          50.800
  25229642.781                                                   132582663.976 5
                        33.700
  23442709.180                    23442715.992    23442715.988   123192264.673 7
  95994033.600 6        42.600          41.100
  20853152.398                    20853158.918    20853158.973   109584020.181 8
  85390203.739 8        50.900          48.200
 14  1  2  2  3  0.0000000  0  7G02G14G25G29G21G12G31
  23071021.883                                    23071025.352   121238965.769 7
  94472014.10645        44.200          31.300
  24428698.047                                                   128373638.601 5
                        34.400
  20760174.750                    20760183.672                   109095548.033 8
  85009520.855 8        51.100          49.100
  20214578.398                    20214584.918    20214585.090   106228376.857 8
  82775378.636 8        51.600          50.400
  25210763.938                                                   132483456.802 5
                        34.400
  23461282.719                    23461289.473    23461289.352   123289871.169 6
  96070090.599 6        41.400          41.300
  20849138.523                    20849144.223    20849144.395   109562925.761 8
  85373766.529 8        50.800          48.800
 14  1  2  2  3 30.0000000  0  7G02G14G25G29G21G12G31
  23077849.703                                    23077852.996   121274849.056 7
  94499975.11145        45.400          30.600
  24448686.711                                                   128478678.224 5
                        34.100
  20769926.523                    20769935.680                   109146793.388 8
  85049452.289 8        50.900          49.600
  20212129.320                    20212136.250    20212136.012   106215509.031 8
  82765351.764 8        51.900          50.500
  25191885.773                                                   132384250.054 5
                        33.900
  23479883.102                    23479889.211    23479889.031   123387612.192 6
  96146252.420 6        41.200          41.100
  20845226.648                    20845232.230    20845232.227   109542367.395 8
  85357747.022 8        51.000          48.600
 14  1  2  2  4  0.0000000  0  7G02G14G25G29G21G12G31
  23084775.625                                    23084779.152   121311244.925 7
  94528335.54045        44.300          30.600
  24468692.172                                                   128583809.160 5
                        34.300
  20779749.008                    20779758.223                   109198410.973 8
  85089673.775 8        50.400          49.000
  20209783.977                    20209790.086    20209790.199   106203180.879 8
  82755745.418 8        51.600          50.400
  25173007.766                                                   132285044.053 5
                        33.700
  23498507.508                    23498513.793    23498513.672   123485484.656 6
  96222516.669 6        41.200          41.400
  20841416.422                    20841422.004    20841422.117   109522344.621 8
  85342144.858 8        50.600          48.400
 14  1  2  2  4 30.0000000  0  7G02G14G25G29G21G12G31
  23091798.930                                    23091803.043   121348153.928 7
  94557095.80545        45.100          30.400
  24488714.773                                                   128689030.446 5
                        35.200
  20789642.563                    20789651.191                   109250401.948 8
  85130186.207 8        49.800          49.800
  20207540.648                    20207546.934    20207546.988   106191393.991 8
  82746560.841 8        50.900          50.900
  25154131.820                                                   132185843.258 5
                        33.600
  23517156.914                    23517163.785    23517163.840   123583489.068 6
  96298883.721 6        41.100          40.900
  20837708.695                    20837714.219    20837714.273   109502860.230 8
  85326962.202 8        50.300          48.400
 14  1  2  2  5  0.0000000  0  7G02G14G25G29G21G12G31
  23098920.078                                    23098923.254   121385573.739 7
  94586254.10245        44.300          30.600
  24508755.188                                                   128794337.875 5
                        35.000
  20799606.617                    20799615.891                   109302764.119 8
  85170987.890 8        49.800          49.300
  20205400.492                    20205407.305    20205407.301   106180147.793 8
  82737797.578 8        50.800          51.100
  25135253.648                                                   132086648.783 5
                        33.700
  23535831.367                    23535837.418    23535837.355   123681623.313 7
  96375351.935 6        42.000          40.700
  20834103.195                    20834108.895    20834108.832   109483914.137 8
  85312199.018 8        50.900          48.100
 14  1  2  2  5 30.0000000  0  7G02G14G25G29G21G12G31
  23106137.758                                    23106141.578   121423506.088 7
  94615811.77345        44.600          30.200
  24528810.117                                                   128899731.313 5
                        33.500
  20809642.070                    20809650.875                   109355499.703 8
  85212080.545 8        49.600          49.400
  20203363.844                    20203370.656    20203370.477   106169444.293 8
  82729457.206 8        51.100          51.000
  25116380.477                                                   131987465.595 5
                        34.400
  23554530.938                    23554537.281    23554537.043   123779889.376 7
  96451922.888 6        42.300          41.400
  20830601.047                    20830606.746    20830606.742   109465510.488 8
  85297858.509 8        51.200          48.600
 14  1  2  2  6  0.0000000  0  7G02G14G25G29G21G12G31
  23113453.070                                    23113456.891   121461947.912 7
  94645766.44145        44.700          30.400
  24548881.648                                                   129005206.081 5
                        33.300
  20819747.695                    20819756.852                   109408605.985 8
  85253462.064 8        49.100          49.000
  20201430.070                    20201436.180    20201436.234   106159281.836 8
  82721538.425 8        50.900          50.600
  25097509.844                                                   131888294.251 5
                        35.400
  23573254.570                    23573261.207    23573260.852   123878284.179 7
  96528594.147 6        42.600          40.500
  20827202.008                    20827207.824    20827207.703   109447648.215 8
  85283939.852 8        51.000          48.400
 14  1  2  2  6 30.0000000  0  7G02G14G25G29G21G12G31
  23120864.219                                    23120868.449   121500896.516 7
  94676116.01044        44.300          29.700
  24568966.344                                                   129110757.823 5
                        32.500
  20829923.633                    20829932.613                   109462080.751 8
  85295130.707 8        49.300          49.300
  20199598.820                    20199605.105    20199605.102   106149658.219 8
  82714039.520 8        51.400          51.200
  25078637.953                                                   131789135.211 5
                        34.800
  23592002.922                    23592008.914    23592008.793   123976805.248 7
  96605363.787 6        42.000          40.700
  20823905.664                    20823911.773    20823911.711   109430326.955 8
  85270442.762 8        51.200          48.800
 14  1  2  2  7  0.0000000  0  8G02G14G25G29G23G21G12G31
  23128373.469                                    23128376.703   121540351.060 7
  94706859.81045        44.500          30.500
  24589067.469                                                   129216383.722 5
                        33.200
  20840169.445                    20840178.895                   109515923.142 8
  85337085.811 8        49.200          49.300
  20197870.266                    20197876.902    20197876.781   106140573.733 8
  82706960.734 8        51.600          50.900
  24951855.648                                                   131122861.028 5
                        31.200
  25059773.711                                                   131689991.266 6
                        37.200
  23610774.602                    23610781.063    23610781.059   124075451.958 7
  96682231.325 6        43.300          40.400
  20820713.031                    20820718.203    20820718.258   109413547.661 8
  85257367.975 8        50.600          48.900
 14  1  2  2  7 30.0000000  0  8G02G14G25G29G23G21G12G31
  23135977.133                                    23135980.953   121580313.087 7
  94737999.06544        44.500          29.700
  24609180.844                                                   129322083.627 5
                        33.000
  20850485.648                    20850495.215                   109570135.196 7
  85379328.971 8        47.600          49.400
  20196244.586                    20196251.281    20196251.160   106132031.062 8
  82700304.136 8        49.500          51.000
  24938990.648                                                   131055253.534 5
                        30.800
  25040910.156                                                   131590867.358 6
                        36.800
  23629570.234                    23629576.402    23629576.340   124174225.825 7
  96759197.967 6        42.600          40.000
  20817623.711                    20817629.586    20817629.582   109397314.349 8
  85244718.639 8        50.500          48.700
 14  1  2  2  8  0.0000000  0  8G02G14G25G29G23G21G12G31
  23143677.453                                    23143681.039   121620779.066 7
  94769531.00544        44.500          29.600
  24629307.281                                                   129427852.790 5
                        32.600
  20860871.531                    20860880.570                   109624713.944 8
  85421857.857 8        48.900          49.700
  20194721.367                    20194727.477    20194727.531   106124027.449 8
  82694067.585 8        51.200          51.000
  24926207.813                                                   130988084.14615
                        30.800
  25022050.492                                    25022058.121   131491763.583 6
 102461142.70742        36.200          16.300
  23648389.703                    23648396.047    23648396.160   124273123.626 7
  96836261.176 6        42.500          39.800
  20814638.602                    20814644.242    20814643.945   109381625.756 8
  85232493.759 8        50.500          48.300
 14  1  2  2  8 30.0000000  0  8G02G14G25G29G23G21G12G31
  23151473.625                                    23151477.152   121661747.151 7
  94801454.18744        44.100          29.800
  24649447.406                                                   129533687.621 5
                        32.300
  20871327.203                    20871335.949                   109679658.147 8
  85464671.519 8        48.900          49.000
  20193300.836                    20193307.063    20193307.059   106116562.411 8
  82688250.701 8        50.700          50.700
  24913511.359                                                   130921353.589 5
                        30.700
  25003195.289                                    25003203.621   131392681.961 6
 102383936.33942        36.200          16.300
  23667232.539                    23667239.059    23667239.172   124372144.000 7
  96913419.890 6        42.800          40.100
  20811756.867                    20811762.566    20811762.445   109366482.332 8
  85220693.690 8        50.700          48.600
 14  1  2  2  9  0.0000000  0  8G02G14G25G29G23G21G12G31
  23159365.352                                    23159368.469   121703215.851 7
  94833767.47244        44.100          29.500
  24669599.617                                                   129639584.474 5
                        32.600
  20881851.898                    20881861.348                   109734966.463 7
  85507768.899 8        47.800          49.700
  20191982.195                    20191988.305    20191988.477   106109634.637 8
  82682852.464 8        50.300          51.200
  24900894.984                                                   130855064.856 4
                        29.400
  24984346.805                                    24984354.141   131293624.350 6
 102306748.64142        36.200          15.600
  23686099.867                    23686105.508    23686105.855   124471285.689 7
  96990673.140 6        43.400          40.100
  20808978.977                    20808984.383    20808984.438   109351884.497 8
  85209318.757 8        50.800          48.900
 14  1  2  2  9 30.0000000  0  8G02G14G25G29G23G21G12G31
  23167350.914                                    23167355.438   121745185.944 7
  94866471.44344        44.300          29.000
  24689762.914                                                   129745542.739 5
                        32.000
  20892446.344                    20892455.734                   109790640.027 8
  85551150.894 8        48.700          49.200
  20190766.836                    20190772.828    20190772.883   106103245.950 8
  82677874.289 8        51.200          51.500
  24888367.359                                                   130789222.46114
                        28.600
  24965502.234                                    24965508.926   131194594.740 5
 102229582.73742        35.100          16.300
  23704989.016                    23704994.188    23704994.535   124570549.372 7
  97068021.438 6        42.500          39.700
  20806305.039                    20806310.973    20806310.852   109337835.194 8
  85198371.246 8        50.900          49.000
 14  1  2  2 10  0.0000000  0  7G02G14G25G29G21G12G31
  23175432.766                                    23175436.410   121787653.271 7
  94899562.86844        44.100          29.900
  24709936.141                                                   129851556.790 5
                        31.800
  20903109.406                    20903118.914                   109846675.305 7
  85594814.741 8        47.700          49.100
  20189652.930                    20189659.273    20189659.387   106097393.932 8
  82673314.297 8        50.200          51.100
  24946662.203                                    24946669.949   131095593.077 6
 102152438.64442        37.100          14.800
  23723900.406                    23723906.398    23723906.395   124669931.248 7
  97145461.841 6        43.000          39.400
  20803735.875                    20803741.398    20803741.453   109324332.574 8
  85187849.727 8        50.400          48.400
 14  1  2  2 10 30.0000000  0  7G02G14G25G29G21G12G31
  23183608.750                                    23183612.219   121830619.422 7
  94933042.98344        44.700          28.400
  24730119.898                                                   129957626.66115
                        30.100
  20913841.727                    20913851.293                   109903074.178 8
  85638761.909 8        49.200          49.400
  20188642.141                    20188648.660    20188648.715   106092081.014 8
  82669174.379 8        51.900          51.000
  24927829.211                                    24927837.191   130996624.490 6
 102075320.32242        36.400          16.300
  23742835.273                    23742841.383    23742841.086   124769433.085 7
  97222995.716 6        43.200          39.400
  20801271.234                    20801276.641    20801276.695   109311380.298 8
  85177757.044 8        50.900          48.500
 14  1  2  2 11  0.0000000  0  7G02G14G25G29G21G12G31
  23191879.484                                    23191883.363   121874081.430 7
  94966909.47944        44.600          29.100
  24750315.133                                                   130063747.662 5
                        30.500
  20924642.625                    20924652.016                   109959834.171 8
  85682990.472 8        48.600          49.300
  20187732.969                    20187739.547    20187739.660   106087304.159 8
  82665452.167 8        50.700          51.000
  24909002.383                                    24909010.070   130897689.546 6
 101998228.11542        36.600          15.600
  23761791.586                    23761798.340    23761798.043   124869052.301 7
  97300621.057 6        42.100          39.300
  20798911.055                    20798916.344    20798916.633   109298977.604 8
  85168092.601 8        50.700          48.400
 14  1  2  2 11 30.0000000  0  7G02G14G25G29G21G12G31
  23200244.320                                    23200247.965   121918038.666 7
  95001161.88644        44.900          28.700
  24770517.227                                                   130169917.933 4
                        29.600
  20935512.836                    20935521.699                   110016955.263 8
  85727500.411 8        49.500          49.600
  20186926.234                    20186932.930    20186932.926   106083064.889 8
  82662148.854 8        51.800          51.200
  24890183.180                                    24890190.516   130798790.890 6
 101921164.26742        36.300          16.900
  23780771.156                    23780777.500    23780777.438   124968789.109 7
  97378338.026 6        42.600          39.400
  20796655.891                    20796661.355    20796661.469   109287126.141 8
  85158857.695 8        50.600          48.100
 14  1  2  2 12  0.0000000  0  8G02G14G25G29G23G21G12G31
  23208703.617                                    23208707.027   121962491.229 7
  95035800.25044        45.200          29.600
  24790732.031                                                   130276135.696 4
                        29.100
  20946451.359                    20946460.750                   110074438.058 8
  85772292.194 8        50.000          48.600
  20186221.859                    20186228.379    20186228.434   106079363.795 8
  82659264.890 8        51.300          51.200
  24827002.656                                                   130466751.053 5
                        32.900
  24871370.172                                    24871377.859   130699932.810 6
 101844131.99642        37.100          15.600
  23799773.484                    23799778.773    23799778.711   125068643.292 7
  97456146.455 6        43.100          38.900
  20794506.070                    20794511.125    20794511.238   109275828.293 8
  85150054.176 8        51.000          48.900
 14  1  2  2 12 30.0000000  0  8G02G14G25G29G23G21G12G31
  23217256.703                                    23217259.645   122007436.854 7
  95070822.81344        45.300          29.400
  24810952.547                                                   130382397.274 4
                        29.100
  20957458.492                    20957467.648                   110132280.705 8
  85817364.377 8        50.200          49.300
  20185619.867                    20185626.211    20185626.031   106076199.211 8
  82656798.986 8        51.700          51.200
  24814989.523                                                   130403624.32115
                        31.300
  24852565.930                                    24852573.441   130601116.703 5
 101767132.41642        35.700          16.900
  23818796.547                    23818802.422    23818802.594   125168613.133 7
  97534045.015 6        42.300          38.800
  20792461.742                    20792466.680    20792466.734   109265083.826 8
  85141681.862 8        50.800          48.800
 14  1  2  2 13  0.0000000  0  8G02G14G25G29G23G21G12G31
  23225901.797                                    23225905.441   122052870.313 7
  95106225.50844        45.300          28.800
  24831179.273                                                   130488696.47914
                        28.900
  20968533.555                    20968542.418                   110190478.704 8
  85862713.460 8        49.600          49.300
  20185118.797                    20185124.965    20185124.961   106073567.628 8
  82654748.406 8        51.400          51.800
  24803064.414                                                   130340953.99215
                        31.600
  24833770.016                                    24833777.410   130502341.346 6
 101690164.64142        37.300          16.900
  23837841.000                    23837847.168    23837847.398   125268694.078 7
  97612030.148 6        42.800          38.400
  20790521.469                    20790527.051    20790527.164   109254890.043 8
  85133738.659 8        50.900          48.600
 14  1  2  2 13 30.0000000  0  8G02G14G25G29G23G21G12G31
  23234640.609                                    23234643.902   122098792.280 7
  95142008.86144        45.600          29.100
  24851415.578                                                   130595032.189 5
                        30.700
  20979675.711                    20979684.867                   110249033.254 8
  85908340.380 8        50.700          49.200
  20184719.984                    20184726.152    20184725.973   106071470.501 8
  82653114.287 8        51.900          50.800
  24791225.438                                                   130278744.352 5
                        32.400
  24814983.539                                    24814989.527   130403611.042 6
 101613231.89242        37.900          16.900
  23856907.563                    23856913.379    23856913.492   125368887.112 7
  97690102.613 6        43.000          38.300
  20788687.023                    20788692.664    20788692.602   109245249.619 8
  85126226.632 8        51.200          48.400
 14  1  2  2 14  0.0000000  0  7G02G25G29G23G21G12G31
  23243472.281                                    23243475.926   122145204.106 7
  95178173.91744        45.300          28.900
  20990886.492                    20990895.473                   110307946.094 8
  85954246.476 8        50.200          48.700
  20184422.828                    20184429.465    20184429.402   106069909.540 8
  82651897.956 8        51.100          51.100
  24779476.523                                                   130217001.87515
                        32.800
  24796204.305                                    24796211.289   130304930.516 6
 101536338.02542        38.000          16.900
  23875995.320                    23876001.254    23876000.957   125469193.910 7
  97768263.741 6        42.500          38.300
  20786958.453                    20786963.977    20786963.621   109236165.774 8
  85119148.314 8        51.000          48.600
 14  1  2  2 14 30.0000000  0  8G02G14G25G29G23G21G12G31
  23252396.664                                    23252400.367   122192100.576 7
  95214716.62744        45.300          29.900
  24891905.430                                                   130807812.599 5
                        30.100
  21002164.555                    21002173.770                   110367212.225 8
  86000427.869 8        50.200          48.700
  20184226.922                    20184233.441    20184233.438   106068880.609 8
  82651096.189 8        51.400          51.000
  24767815.188                                                   130155722.679 5
                        33.800
  24777435.414                                    24777441.637   130206297.973 6
 101459481.42542        36.800          17.400
  23895103.867                    23895109.273    23895109.035   125569609.406 7
  97846509.573 6        42.200          37.900
  20785335.039                    20785340.797    20785340.969   109227635.179 8
  85112501.092 8        51.600          48.200
 14  1  2  2 15  0.0000000  0  8G02G14G25G29G23G21G12G31
  23261413.742                                    23261417.152   122239483.025 7
  95251638.00544        46.600          29.300
  24912159.266                                                   130914243.793 4
                        29.400
  21013509.820                    21013519.445                   110426833.848 8
  86046886.269 8        50.400          48.800
  20184133.461                    20184139.922    20184139.859   106068386.261 8
  82650710.985 8        51.600          51.100
  24756245.727                                                   130094912.841 5
                        33.200
  24758676.531                                    24758683.105   130107719.119 6
 101382666.75542        37.400          17.400
  23914233.141                    23914239.309    23914238.895   125670135.565 6
  97924841.617 6        41.600          37.700
  20783818.367                    20783823.188    20783823.066   109219661.854 8
  85106288.107 8        51.200          48.500
 14  1  2  2 15 30.0000000  0  8G02G14G25G29G23G21G12G31
  23270521.555                                    23270525.258   122287347.409 7
  95288934.92444        45.100          29.600
  24932416.484                                                   131020699.375 4
                        29.900
  21024922.477                    21024931.926                   110486807.615 8
  86093619.070 8        50.800          48.700
  20184139.820                    20184146.574    20184146.629   106068423.704 8
  82650740.162 8        51.300          51.200
  24744762.047                                                   130034570.93715
                        33.800
  24739927.703                                    24739934.512   130009193.711 6
 101305893.69942        37.300          17.800
  23933382.898                    23933388.773    23933389.063   125770768.891 6
  98003257.170 6        41.500          37.500
  20782406.234                    20782411.934    20782411.754   109212244.208 8
  85100508.130 8        51.300          48.500
 14  1  2  2 16  0.0000000  0  8G02G14G25G29G23G21G12G31
  23279721.227                                    23279725.281   122335693.456 7
  95326607.15244        45.500          29.600
  24952678.547                                                   131127177.767 5
                        30.700
  21036402.227                    21036411.441                   110547134.067 8
  86140626.680 8        50.100          48.900
  20184248.578                    20184255.391    20184255.211   106068993.452 8
  82651184.118 8        50.900          51.500
  24733369.523                                                   129974702.52815
                        33.800
  24721190.117                                    24721196.574   129910725.413 6
 101229165.15642        36.000          16.300
  23952552.914                    23952559.316    23952559.488   125871509.837 6
  98081756.602 6        41.700          36.600
  20781100.859                    20781106.559    20781106.496   109205384.010 8
  85095162.518 8        50.700          48.800
 14  1  2  2 16 30.0000000  0  8G02G14G25G29G23G21G12G31
  23289013.250                                    23289016.836   122384519.733 7
  95364653.60644        45.900          29.700
  24972944.789                                                   131233676.040 4
                        28.600
  21047949.141                    21047958.473                   110607812.042 8
  86187908.210 8        50.200          48.600
  20184458.000                    20184464.813    20184464.809   106070094.192 8
  82652041.833 8        51.900          51.200
  24722066.555                                                   129915308.40515
                        33.600
  24702463.055                                    24702470.273   129812316.274 6
 101152482.74442        36.400          16.900
  23971743.461                    23971749.980    23971749.449   125972357.187 6
  98160338.932 6        40.800          37.100
  20779901.758                    20779906.871    20779906.926   109199081.941 8
  85090251.802 8        51.100          48.800
 14  1  2  2 17  0.0000000  0  8G02G14G25G29G23G21G12G31
  23298395.375                                    23298398.961   122433823.184 7
  95403071.88545        46.000          30.200
  24993214.055                                                   131340189.982 4
                        28.600
  21059562.242                    21059571.340                   110668838.928 8
  86235461.626 8        50.200          48.900
  20184768.414                    20184775.227    20184775.281   106071724.827 8
  82653312.459 8        52.000          51.600
  24710854.523                                                   129856388.732 5
                        34.300
  24683747.664                                    24683754.883   129713966.948 6
 101075846.90242        36.300          16.300
  23990953.211                    23990960.375    23990959.785   126073308.218 6
  98239002.060 6        40.500          36.900
  20778808.148                    20778813.965    20778813.902   109193336.446 8
  85085774.786 8        51.100          48.800
 14  1  2  2 17 30.0000000  0  8G02G14G25G29G23G21G12G31
  23307868.188                                    23307872.008   122483603.796 7
  95441861.98044        45.600          29.600
  25013483.688                                                   131446717.982 4
                        28.000
  21071241.492                    21071250.766                   110730215.483 8
  86283287.502 8        48.500          49.100
  20185179.492                    20185186.129    20185186.066   106073886.274 8
  82654996.702 8        51.200          51.200
  24699733.836                                                   129797947.246 5
                        33.700
  24665044.250                                    24665052.113   129615681.643 6
 100999260.92842        36.400          16.900
  24010184.680                    24010190.555    24010190.023   126174363.650 6
  98317746.531 6        40.800          37.500
  20777821.594                    20777827.176    20777827.230   109188150.211 8
  85081733.559 8        51.300          48.300
 14  1  2  2 18  0.0000000  0  8G02G14G25G29G23G21G12G31
  23317431.469                                    23317434.645   122533858.585 7
  95481021.54144        44.900          28.600
  25033758.102                                                   131553256.199 4
                        29.900
  21082987.602                    21082996.875                   110791939.547 8
  86331384.168 8        49.600          48.500
  20185691.688                    20185697.797    20185697.617   106076576.212 8
  82657092.751 8        51.400          51.200
  24688702.563                                                   129739984.438 5
                        34.500
  24646353.930                                    24646360.738   129517461.195 6
 100922725.55642        37.300          16.900
  24029433.875                    24029440.336    24029440.332   126275521.108 6
  98396570.506 6        41.100          37.100
  20776940.531                    20776946.582    20776946.461   109183522.508 8
  85078127.549 8        50.300          48.300
 14  1  2  2 18 30.0000000  0  8G02G14G25G29G23G21G12G31
  23327085.117                                    23327088.527   122584589.020 7
  95520551.75944        45.500          29.100
  25054034.102                                                   131659804.780 4
                        29.900
  21094799.609                    21094808.766                   110854013.188 8
  86379753.233 8        49.500          48.500
  20186304.297                    20186310.992    20186310.988   106079797.203 8
  82659602.613 8        51.800          51.400
  24677766.320                                                   129682505.758 5
                        35.200
  24627676.523                                    24627683.156   129419310.986 6
 100846244.88942        37.500          16.900
  24048702.836                    24048709.297    24048709.586   126376782.736 6
  98475475.648 6        39.800          37.100
  20776167.023                    20776172.488    20776172.719   109179456.964 8
  85074959.589 8        51.200          48.800
 14  1  2  2 19  0.0000000  0  8G02G14G25G29G23G21G12G31
  23336828.242                                    23336832.180   122635791.025 7
  95560449.43544        45.300          29.400
  25074309.484                                                   131766358.174 4
                        28.600
  21106677.883                    21106686.980                   110916432.617 8
  86428391.740 8        49.400          48.900
  20187018.250                    20187024.594    20187024.414   106083545.889 8
  82662523.660 8        51.600          51.700
  24666920.805                                                   129625510.096 5
                        34.600
  24609012.281                                    24609019.148   129321230.494 6
 100769818.60642        38.100          17.800
  24067991.617                    24067998.020    24067998.602   126478144.501 6
  98554458.816 6        39.800          37.400
  20775500.109                    20775505.867    20775505.629   109175951.122 8
  85072227.756 8        51.400          48.900
 14  1  2  2 19 30.0000000  0  8G02G14G25G29G23G21G12G31
  23346661.273                                    23346665.270   122687463.742 7
  95600713.88444        44.900          28.500
  25094586.508                                                   131872914.355 4
                        26.400
  21118621.633                    21118630.965                   110979197.867 8
  86477299.722 8        48.000          48.300
  20187831.469                    20187837.988    20187837.984   106087821.838 8
  82665855.567 8        51.200          51.800
  24656165.633                                                   129569000.463 5
                        35.000
  24590361.953                                    24590368.645   129223222.655 6
 100693448.88042        38.900          17.800
  24087298.859                    24087305.672    24087305.609   126579606.535 6
  98633520.125 6        39.900          36.600
  20774939.516                    20774945.566    20774945.563   109173006.576 8
  85069933.301 8        51.200          49.100
 14  1  2  2 20  0.0000000  0  8G02G14G25G29G23G21G12G31
  23356583.086                                    23356587.199   122739605.540 7
  95641343.83244        45.100          28.700
  25114865.219                                                   131979470.99614
                        27.300
  21130631.172                    21130640.504                   111042307.983 8
  86526476.428 8        48.600          48.100
  20188745.492                    20188752.012    20188751.949   106092625.447 8
  82669598.641 8        51.700          51.700
  24645505.820                                                   129512978.678 5
                        35.600
  24571726.070                                    24571732.762   129125290.228 6
 100617137.89242        38.900          17.400
  24106625.008                    24106632.699    24106632.578   126681167.769 6
  98712658.736 6        39.600          37.500
  20774486.125                    20774491.941    20774491.879   109170623.733 8
  85068076.538 8        51.800          49.200
 14  1  2  2 20 30.0000000  0  7G02G25G29G23G21G12G31
  23366594.344                                    23366598.457   122792213.682 7
  95682337.17844        45.000          28.900
  21142705.625                    21142715.074                   111105761.016 8
  86575920.343 8        48.100          48.700
  20189759.727                    20189765.895    20189765.891   106097954.540 8
  82673751.177 8        50.800          50.800
  24634937.469                                                   129457445.683 5
                        34.400
  24553104.516                                    24553111.441   129027434.667 6
 100540886.80943        39.300          18.300
  24125971.461                    24125977.043    24125976.863   126782826.296 6
  98791873.162 6        40.400          37.600
  20774139.586                    20774145.754    20774145.633   109168802.325 8
  85066657.250 8        51.100          48.800
 14  1  2  2 21  0.0000000  0  7G02G25G29G23G21G12G31
  23376694.375                                    23376698.137   122845287.940 7
  95723693.73344        44.600          28.900
  21154846.023                    21154855.297                   111169557.350 8
  86625631.763 8        48.300          48.500
  20190873.992                    20190880.336    20190880.332   106103809.570 8
  82678313.538 8        51.200          51.700
  24624464.758                                                   129402404.725 5
                        33.400
  24534499.055                                    24534505.629   128929659.085 6
 100464698.03042        39.500          17.400
  24145334.938                    24145341.457    24145341.277   126884582.227 6
  98871163.479 6        39.600          37.300
  20773900.172                    20773906.281    20773906.336   109167543.815 8
  85065676.591 8        50.300          48.500
 14  1  2  2 21 30.0000000  0  7G02G25G29G23G21G12G31
  23386881.766                                    23386886.816   122898827.274 7
  95765412.67344        44.700          28.500
  21167051.172                    21167060.621                   111233696.567 8
  86675610.363 8        49.500          48.500
  20192088.523                    20192094.691    20192094.395   106110190.418 8
  82683285.624 8        51.900          51.300
  24614084.477                                                   129347858.132 5
                        33.300
  24515908.383                                    24515915.543   128831966.380 6
 100388573.87942        38.600          17.800
  24164715.727                    24164722.539    24164722.594   126986434.947 6
  98950529.202 6        39.400          37.700
  20773767.891                    20773773.766    20773773.586   109166849.404 8
  85065135.491 8        49.700          48.200
 14  1  2  2 22  0.0000000  0  7G02G25G29G23G21G12G31
  23397158.484                                    23397162.012   122952828.321 7
  95807491.41044        44.600          27.700
  21179321.391                    21179330.723                   111298176.103 7
  86725854.154 8        47.800          48.100
  20193402.195                    20193408.480    20193408.477   106117094.839 8
  82688665.690 8        51.100          51.400
  24603798.820                                                   129293806.371 5
                        33.800
  24497334.125                                    24497341.344   128734357.674 6
 100312515.11342        39.300          15.600
  24184115.945                    24184122.758    24184122.461   127088382.071 6
  99029968.509 6        39.000          37.000
  20773742.969                    20773748.434    20773748.488   109166718.063 8
  85065033.141 8        50.300          48.900
 14  1  2  2 22 30.0000000  0  7G02G25G29G23G21G12G31
  23407521.547                                    23407525.660   123007288.292 7
  95849927.73044        44.600          28.800
  21191655.695                    21191664.676                   111362993.951 8
  86776361.566 8        48.800          48.000
  20194815.367                    20194822.180    20194822.059   106124521.387 8
  82694452.612 8        52.100          51.700
  24593607.406                                                   129240250.213 5
                        34.600
  24478775.703                                    24478782.395   128636834.153 6
 100236522.74842        39.000          17.400
  24203534.289                    24203539.930    24203539.984   127190421.841 6
  99109480.000 6        39.800          37.200
  20773824.930                    20773830.336    20773830.332   109167148.961 8
  85065368.900 8        50.800          48.800
 14  1  2  2 23  0.0000000  0  7G02G25G29G23G21G12G31
  23417972.273                                    23417976.563   123062206.512 7
  95892721.13944        44.600          28.800
  21204054.313                    21204062.941                   111428150.034 8
  86827132.530 7        48.600          47.800
  20196327.484                    20196334.531    20196334.645   106132469.810 8
  82700646.191 8        51.900          51.700
  24583508.930                                                   129187192.269 5
                        33.400
  24460234.352                                    24460241.277   128539398.844 6
 100160599.11042        39.000          16.900
  24222969.078                    24222975.539    24222975.242   127292553.804 6
  99189063.333 6        39.200          37.100
  20774014.258                    20774019.840    20774019.660   109168143.288 8
  85066143.700 8        50.000          49.000
 14  1  2  2 23 30.0000000  0  7G02G25G29G23G21G12G31
  23428510.328                                    23428514.090   123117583.617 7
  95935872.11344        44.100          28.400
  21216517.789                    21216527.121                   111493645.624 8
  86878168.049 8        48.500          48.400
  20197939.719                    20197946.531    20197946.293   106140941.591 8
  82707247.580 8        51.100          51.800
  24573509.414                                                   129134636.706 5
                        34.400
  24441711.328                                    24441717.551   128442056.440 6
 100084747.86743        38.900          18.300
  24242421.242                    24242428.465    24242428.402   127394779.350 6
  99268719.578 6        38.300          37.100
  20774310.891                    20774316.883    20774316.762   109169703.678 8
  85067359.583 8        51.000          48.600
 14  1  2  2 24  0.0000000  0  7G02G25G29G23G21G12G31
  23439135.070                                    23439138.656   123173415.355 7
  95979377.33644        44.300          27.700
  21229045.477                    21229054.164                   111559477.406 8
  86929465.535 8        48.100          48.100
  20199651.156                    20199657.559    20199657.672   106149933.862 8
  82714254.546 8        52.000          51.300
  24563603.461                                                   129082582.840 5
                        32.900
  24423204.008                                    24423212.047   128344806.492 6
 100008968.69742        39.400          17.800
  24261891.195                    24261898.359    24261898.180   127497094.812 6
  99348445.887 6        37.600          36.500
  20774715.242                    20774720.883    20774720.938   109171828.368 8
  85069015.186 8        50.200          48.500
