     2.11           OBSERVATION DATA    G (GPS)             RINEX VERSION / TYPE
teqc  2013Mar15                         20140109 02:03:15UTCPGM / RUN BY / DATE
Linux 2.4.20-8|Pentium IV|gcc -static|Linux|486/DX+         COMMENT
   0.033      (antenna height)                              COMMENT
 +55.21279000 (latitude)                                    COMMENT
  -1.68549700 (longitude)                                   COMMENT
0144.425      (elevation)                                   COMMENT
BIT 2 OF LLI FLAGS DATA COLLECTED UNDER A/S CONDITION       COMMENT
MORP (COGO code)                                            COMMENT
MORP                                                        MARKER NAME
13299S001                                                   MARKER NUMBER
Matt King           NCL                                     OBSERVER / AGENCY
4843K3347           TRIMBLE NETR8       4.19                REC # / TYPE / VERS
221                 AOAD/M_T        NONE                    ANT # / TYPE
  3645667.8584  -107277.2886  5215053.4919                  APPROX POSITION XYZ
        0.0330        0.0000        0.0000                  ANTENNA: DELTA H/E/N
     1     1                                                WAVELENGTH FACT L1/2
     8    C1    P1    C2    P2    L1    L2    S1    S2      # / TYPES OF OBSERV
    30.0000                                                 INTERVAL
    16                                                      LEAP SECONDS
Forced Modulo Decimation to 30 seconds                      COMMENT
 SNR is mapped to RINEX snr flag value [0-9]                COMMENT
  L1 & L2: min(max(int(snr_dBHz/6), 0), 9)                  COMMENT
  2014     1     8     0     0    0.0000000     GPS         TIME OF FIRST OBS
                                                            END OF HEADER
 14  1  8  0  0  0.0000000  0  9G04G02G14G12G29G32G24G31G25
  23429115.094                                    23429121.902   123121002.677 6
  95938341.89543        41.800          22.200
  23684634.297                                    23684639.289   124463602.671 7
  96984649.85244        42.300          25.700
  21553043.008                                    21553048.820   113261996.834 7
  88256128.66645        47.300          32.000
  20579678.055                    20579683.285    20579683.398   108146977.992 8
  84270402.782 8        51.200          49.600
  22569126.297                    22569132.758    22569132.871   118601507.550 7
  92416844.880 7        45.500          42.400
  25049421.117                                                   131635596.145 5
                        30.500
  23311228.016                    23311237.348                   122501320.071 7
  95455647.473 7        42.500          43.700
  23240990.891                    23240996.531    23240996.293   122132231.677 7
  95167997.204 6        42.100          41.400
  20370605.422                    20370613.758                   107048259.356 8
  83414287.553 8        51.700          49.800
 14  1  8  0  0 30.0000000  0  9G04G02G14G12G29G32G24G31G25
  23430588.422                                    23430595.523   123128745.510 7
  95944375.26543        42.000          22.200
  23672604.742                                    23672609.500   124400388.292 6
  96935391.90144        41.700          26.400
  21559240.500                                    21559246.020   113294561.362 7
  88281503.60545        47.100          32.500
  20588761.000                    20588766.582    20588766.461   108194709.950 8
  84307596.510 8        51.400          49.400
  22549586.406                    22549593.570    22549593.391   118498825.954 7
  92336833.280 7        45.000          42.100
  25056113.828                                                   131670761.463 4
                        25.300
  23330775.266                    23330784.832                   122604044.127 6
  95535692.155 7        41.500          43.400
  23223143.570                    23223149.504    23223149.383   122038445.251 6
  95094916.874 7        41.700          42.100
  20364524.398                    20364532.852                   107016303.680 8
  83389387.023 8        51.500          50.500
 14  1  8  0  1  0.0000000  0  9G04G02G14G12G29G32G24G31G25
  23432181.992                                    23432189.504   123137119.634 7
  95950900.55743        42.200          22.000
  23660645.461                                    23660649.984   124337540.776 6
  96886419.85244        41.500          25.300
  21565548.086                                    21565553.840   113327709.105 7
  88307332.97445        47.000          32.700
  20597916.742                    20597922.441    20597922.262   108242824.255 8
  84345088.174 8        51.600          49.900
  22530099.750                    22530106.680    22530106.852   118396424.004 7
  92257039.576 7        45.400          42.400
  25062900.203                                                   131706415.289 4
                        27.600
  23350360.883                    23350370.508                   122706964.785 7
  95615890.038 7        42.200          43.200
  23205331.875                    23205337.047    23205337.102   121944840.128 7
  95021977.813 6        42.600          41.600
  20358525.461                    20358533.621                   106984778.517 8
  83364821.958 8        51.000          49.800
 14  1  8  0  1 30.0000000  0  9G04G02G14G12G29G32G24G31G25
  23433895.742                                    23433903.078   123146125.547 7
  95957918.12443        42.600          22.800
  23648756.961                                    23648760.957   124275062.985 7
  96837735.90344        42.100          26.200
  21571966.734                                    21571972.840   113361439.647 7
  88333616.48045        47.200          32.700
  20607145.406                    20607151.340    20607151.336   108291320.287 8
  84382877.278 8        51.500          49.700
  22510666.398                    22510673.914    22510673.852   118294304.501 7
  92177465.985 7        44.600          42.000
  25069775.555                                                   131742556.738 5
                        30.100
  23369982.789                    23369992.590                   122810080.807 6
  95696240.146 7        41.800          44.000
  23187554.047                    23187559.453    23187559.625   121851418.549 7
  94949181.776 6        42.100          41.700
  20352608.703                    20352616.922                   106953684.823 8
  83340593.107 8        51.600          50.400
 14  1  8  0  2  0.0000000  0  9G04G02G14G12G29G32G24G31G25
  23435730.297                                    23435737.223   123155761.482 7
  95965426.64243        42.900          22.300
  23636938.172                                    23636942.285   124212955.713 7
  96789340.67044        42.200          26.000
  21578495.930                                    21578501.918   113395750.519 7
  88360352.17745        47.600          32.700
  20616445.742                    20616451.324    20616451.262   108340195.465 8
  84420961.833 8        51.300          49.500
  22491288.484                    22491295.590    22491295.410   118192468.600 7
  92098113.371 6        45.000          41.900
  25076745.875                                                   131779182.619 5
                        30.100
  23389642.195                    23389652.055                   122913389.698 7
  95776740.538 7        42.200          43.500
  23169811.266                    23169816.789    23169817.020   121758180.851 7
  94876529.028 6        42.300          41.600
  20346773.445                    20346782.191                   106923021.542 8
  83316699.641 8        51.600          49.600
 14  1  8  0  2 30.0000000  0  9G04G02G14G12G29G32G24G31G25
  23437683.508                                    23437690.668   123166028.353 7
  95973426.79343        42.800          23.000
  23625190.484                                    23625194.539   124151222.432 7
  96741236.84944        42.000          26.200
  21585135.430                                    21585141.477   113430641.389 7
  88387539.83145        47.900          31.900
  20625818.688                    20625824.738    20625824.617   108389449.198 8
  84459341.361 8        51.600          49.700
  22471964.391                    22471971.203    22471970.848   118090919.421 7
  92018984.193 6        45.300          41.800
  25083808.391                                                   131816292.265 4
                        29.600
  23409337.031                    23409347.594                   123016890.528 6
  95857390.519 7        41.800          43.600
  23152104.508                    23152110.090    23152109.969   121665129.934 7
  94804021.828 7        43.000          42.200
  20341020.727                    20341029.180                   106892790.017 8
  83293142.605 8        51.100          51.100
 14  1  8  0  3  0.0000000  0  9G04G02G14G12G29G32G24G31G25
  23439757.875                                    23439764.801   123176927.618 7
  95981919.73743        42.800          22.600
  23613514.953                                    23613518.539   124089866.825 6
  96693427.36744        41.000          25.800
  21591885.492                                    21591891.480   113466112.795 7
  88415179.85545        47.400          32.700
  20635263.195                    20635268.895    20635268.598   108439081.374 8
  84498015.778 8        51.900          49.400
  22452694.633                    22452702.266    22452702.145   117989660.877 7
  91940081.475 7        44.600          42.100
  25090961.063                                                   131853885.495 4
                        26.800
  23429069.656                    23429079.809                   123120583.028 6
  95938189.836 7        41.300          44.000
  23134433.508                    23134439.793    23134439.613   121572269.351 7
  94731662.934 6        42.300          41.700
  20335350.070                    20335358.992                   106862992.118 8
  83269923.470 8        51.600          50.600
 14  1  8  0  3 30.0000000  0  9G04G02G14G12G29G32G24G31G25
  23441951.820                                    23441958.512   123188455.439 7
  95990902.44743        42.400          22.300
  23601910.750                                    23601914.805   124028887.554 6
  96645911.11044        40.900          26.700
  21598745.047                                    21598750.859   113502159.500 7
  88443268.17845        47.900          32.500
  20644778.820                    20644784.871    20644784.750   108489087.585 8
  84536981.650 8        51.700          49.100
  22433481.398                    22433488.094    22433488.324   117888691.699 7
  91861404.227 6        45.200          41.600
  25098206.836                                                   131891957.139 5
                        30.500
  23448836.820                    23448847.500                   123224462.213 6
  96019134.624 7        41.600          43.300
  23116799.336                    23116804.625    23116804.270   121479597.257 7
  94659450.914 7        43.400          42.000
  20329761.734                    20329770.539                   106833624.450 8
  83247039.568 8        51.300          51.000
 14  1  8  0  4  0.0000000  0  9G04G02G14G12G29G32G24G31G25
  23444264.563                                    23444271.371   123200612.635 7
  96000375.60943        43.300          22.300
  23590379.156                                    23590383.328   123968288.122 6
  96598690.83944        41.200          26.400
  21605714.086                                    21605720.133   113538781.574 7
  88471804.84345        47.700          31.600
  20654366.344                    20654372.277    20654372.098   108539467.584 8
  84576238.786 8        51.700          48.800
  22414323.219                    22414330.207    22414330.027   117788015.306 7
  91782955.120 7        45.200          42.000
  25105541.227                                                   131930506.492 4
                        29.600
  23468640.297                    23468649.746                   123328527.713 7
  96100224.598 7        42.300          43.400
  23099200.680                    23099206.027    23099206.023   121387116.461 7
  94587387.964 6        43.200          41.700
  20324255.406                    20324264.797                   106804688.527 8
  83224492.092 8        52.300          49.400
 14  1  8  0  4 30.0000000  0  9G04G02G14G12G29G32G24G31G25
  23446698.227                                    23446704.742   123213400.995 7
  96010340.56843        43.000          21.700
  23578920.016                                    23578924.480   123908072.761 6
  96551769.83544        40.600          26.000
  21612792.492                                    21612798.715   113575979.438 7
  88500790.15445        47.800          32.100
  20664024.672                    20664030.430    20664029.957   108590221.842 8
  84615787.552 8        51.000          48.900
  22395221.352                    22395228.809    22395229.039   117687636.041 7
  91704737.556 6        44.500          41.600
  25112969.516                                                   131969533.907 5
                        31.000
  23488479.055                    23488488.738                   123432779.822 6
  96181459.962 7        41.700          42.600
  23081638.344                    23081644.219    23081644.098   121294830.699 7
  94515476.983 7        42.000          42.100
  20318831.820                    20318840.859                   106776186.744 8
  83202282.916 8        51.200          50.500
 14  1  8  0  5  0.0000000  0  9G04G02G14G12G29G32G24G31G25
  23449250.406                                    23449258.445   123226817.618 7
  96020795.08543        42.800          21.500
  23567533.727                                    23567538.426   123848241.179 6
  96505147.87444        40.900          25.900
  21619980.125                                    21619985.762   113613749.992 7
  88530221.72645        47.900          33.000
  20673753.406                    20673759.223    20673758.926   108641346.504 8
  84655624.949 8        51.300          49.600
  22376176.930                    22376184.270    22376184.090   117587554.040 7
  91626751.614 6        44.600          41.700
  25120484.820                                                   132009035.149 5
                        30.300
  23508352.234                    23508362.152                   123537214.521 6
  96262837.626 7        41.800          43.000
  23064113.953                    23064120.004    23064120.000   121202739.620 7
  94443717.702 7        43.200          42.100
  20313490.227                    20313499.207                   106748116.938 8
  83180410.337 8        51.900          50.400
 14  1  8  0  5 30.0000000  0  9G04G02G14G12G29G32G24G31G25
  23451923.570                                    23451931.492   123240864.104 7
  96031740.36043        42.000          20.900
  23556222.680                                    23556227.203   123788797.394 6
  96458828.07644        40.600          26.000
  21627276.500                                    21627282.605   113652093.237 8
  88560099.55345        48.000          32.200
  20683552.375                    20683558.191    20683557.895   108692841.904 8
  84695751.231 8        51.800          48.600
  22357188.555                    22357195.777    22357195.480   117487772.878 7
  91549000.090 7        44.500          42.300
  25128093.039                                                   132049010.172 4
                        29.900
  23528259.773                    23528270.512                   123641831.709 7
  96344357.489 7        42.000          43.000
  23046627.523                    23046633.574    23046633.336   121110846.495 7
  94372112.671 7        43.300          42.100
  20308231.414                    20308240.160                   106720481.006 8
  83158875.847 8        52.200          50.400
 14  1  8  0  6  0.0000000  0  9G04G02G14G12G29G32G24G31G25
  23454716.047                                    23454723.500   123255540.096 7
  96043176.17943        42.200          20.600
  23544985.492                                    23544990.016   123729743.775 6
  96412812.28544        40.500          25.800
  21634681.938                                    21634687.633   113691007.463 8
  88590422.28645        48.000          32.000
  20693422.227                    20693427.516    20693427.570   108744706.563 8
  84736165.248 8        51.400          49.300
  22338259.086                    22338265.723    22338265.602   117388294.979 7
  91471484.882 7        45.000          42.100
  25135790.227                                                   132089457.251 5
                        31.000
  23548202.344                    23548212.965                   123746630.241 7
  96426018.669 7        42.600          42.700
  23029179.813                    23029185.102    23029184.922   121019153.352 7
  94300663.471 7        43.800          42.100
  20303055.148                    20303063.953                   106693279.399 8
  83137679.787 8        51.500          50.400
 14  1  8  0  6 30.0000000  0  9G04G02G14G12G29G32G24G31G25
  23457628.945                                    23457636.633   123270844.765 6
  96055101.87743        41.600          20.600
  23533821.680                                    23533826.262   123671081.961 6
  96367101.81344        41.400          26.000
  21642195.336                                    21642200.973   113730491.390 8
  88621188.95145        48.000          32.200
  20703361.406                    20703367.164    20703366.926   108796939.024 8
  84776865.863 8        50.800          49.100
  22319386.781                    22319394.121    22319393.824   117289122.017 7
  91394207.283 7        44.900          42.300
  25143577.023                                                   132130373.984 5
                        31.000
  23568178.719                    23568189.340                   123851607.345 7
  96507818.980 7        42.400          43.400
  23011768.414                    23011773.996    23011773.992   120927661.425 7
  94229371.058 6        43.900          41.700
  20297961.195                    20297970.176                   106666511.788 8
  83116821.913 8        52.300          50.000
 14  1  8  0  7  0.0000000  0  9G04G02G14G12G29G32G24G31G25
  23460660.008                                    23460668.340   123286777.819 6
  96067517.26543        40.600          19.600
  23522734.258                                    23522738.664   123612814.417 6
  96321698.53744        40.500          26.300
  21649816.805                                    21649822.969   113770543.438 7
  88652398.32445        47.400          32.300
  20713370.375                    20713376.133    20713376.070   108849538.219 8
  84817852.248 8        50.900          49.300
  22300573.320                    22300580.133    22300580.012   117190256.594 7
  91317169.303 7        45.100          42.600
  25151453.289                                                   132171758.79615
                        30.100
  23588189.109                    23588199.086                   123956762.208 7
  96589757.785 7        42.200          42.900
  22994397.500                    22994402.672    22994402.844   120836373.126 7
  94158237.320 6        44.200          41.800
  20292950.477                    20292958.930                   106640178.754 8
  83096302.663 8        52.000          50.600
 14  1  8  0  7 30.0000000  0  9G04G02G14G12G29G32G24G31G25
  23463812.266                                    23463819.074   123303338.695 6
  96080421.80843        40.900          19.000
  23511721.172                                    23511725.344   123554943.070 6
  96276604.02444        41.200          25.800
  21657546.313                                    21657552.066   113811162.503 7
  88684049.52845        47.800          32.000
  20723449.445                    20723455.203    20723455.258   108902502.118 8
  84859122.816 8        50.700          48.900
  22281818.914                    22281826.020    22281826.074   117091700.811 7
  91240372.625 7        44.900          42.600
  25159415.203                                                   132213609.791 5
                        32.500
  23608233.352                    23608242.859                   124062092.528 6
  96671833.290 7        41.500          43.200
  22977064.477                    22977069.941    22977069.762   120745290.152 7
  94087263.574 7        44.200          42.000
  20288022.047                    20288031.145                   106614280.222 8
  83076121.988 8        52.000          50.100
 14  1  8  0  8  0.0000000  0  9G04G02G14G12G29G32G24G31G25
  23467082.500                                    23467089.543   123320526.550 6
  96093814.95943        41.300          19.600
  23500784.563                                    23500789.027   123497469.831 6
  96231819.72644        41.300          26.400
  21665383.422                                    21665389.352   113852346.367 7
  88716140.82545        47.800          32.200
  20733597.016                    20733603.359    20733603.238   108955829.381 8
  84900676.525 8        50.800          49.100
  22263123.461                    22263130.391    22263130.211   116993456.969 7
  91163818.979 7        45.400          42.600
  25167466.922                                                   132255924.726 5
                        32.000
  23628310.352                    23628320.387                   124167596.479 6
  96754044.106 7        41.800          42.800
  22959771.023                    22959776.313    22959776.367   120654413.730 7
  94016450.782 7        43.800          42.200
  20283175.922                    20283185.020                   106588816.260 8
  83056279.930 8        52.500          50.000
 14  1  8  0  8 30.0000000  0  9G04G02G14G12G29G32G24G31G25
  23470473.430                                    23470480.121   123338342.122 6
  96107697.17543        41.800          20.400
  23489924.641                                    23489928.813   123440398.126 6
  96187348.30444        41.400          25.000
  21673328.352                                    21673333.754   113894095.437 8
  88748672.55145        48.000          32.200
  20743814.016                    20743819.832    20743819.711   109009519.785 8
  84942513.202 8        50.800          49.400
  22244488.375                    22244495.305    22244495.301   116895528.300 7
  91087510.924 7        45.500          42.400
  25175608.766                                                   132298702.918 5
                        33.400
  23648419.773                    23648429.574                   124273274.173 6
  96836390.291 7        41.300          43.400
  22942518.352                    22942524.344    22942524.516   120563747.065 7
  93945801.436 7        44.300          42.000
  20278413.320                    20278422.594                   106563788.308 8
  83036777.622 8        51.900          50.700
 14  1  8  0  9  0.0000000  0  9G04G02G14G12G29G32G24G31G25
  23473983.172                                    23473990.156   123356782.660 7
  96122066.41043        42.600          21.300
  23479141.273                                    23479144.801   123383727.780 7
  96143189.61244        42.800          25.800
  21681379.477                                    21681385.699   113936405.005 7
  88781641.02545        47.200          32.900
  20754099.523                    20754104.813    20754104.809   109063569.818 8
  84984630.104 8        51.000          49.100
  22225912.820                    22225920.043    22225919.922   116797914.626 7
  91011448.351 7        45.700          42.500
  25183836.047                                                   132341940.214 5
                        32.500
  23668561.109                    23668572.023                   124379121.043 6
  96918868.326 7        40.600          42.500
  22925304.930                    22925311.039    22925310.977   120473289.839 7
  93875315.293 7        44.900          42.500
  20273733.383                    20273742.656                   106539194.347 8
  83017613.497 8        52.600          50.100
 14  1  8  0  9 30.0000000  0  9G04G02G14G12G29G32G24G31G25
  23477611.586                                    23477618.336   123375849.672 7
  96136923.81143        42.400          21.300
  23468433.414                                    23468437.293   123327462.708 6
  96099346.70844        41.900          26.400
  21689537.148                                    21689543.254   113979275.777 8
  88815046.81245        48.200          32.000
  20764453.500                    20764458.965    20764458.785   109117979.614 8
  85027027.345 8        50.900          48.800
  22207398.523                    22207405.336    22207405.098   116700620.031 7
  90935634.391 7        45.500          42.900
  25192151.539                                                   132385636.603 5
                        31.800
  23688735.766                    23688746.621                   124485137.951 6
  97001478.854 7        41.300          42.900
  22908131.734                    22908137.551    22908137.371   120383045.887 7
  93804995.329 7        44.500          42.600
  20269136.336                    20269145.375                   106515036.444 8
  82998789.151 8        51.800          51.000
 14  1  8  0 10  0.0000000  0  9G04G02G14G12G29G32G24G31G25
  23481359.477                                    23481365.758   123395543.730 7
  96152269.79943        42.700          22.500
  23457803.781                                    23457808.656   123271606.622 7
  96055822.53344        42.600          26.300
  21697802.586                                    21697808.691   114022707.887 7
  88848890.01545        47.500          32.600
  20774875.742                    20774881.266    20774881.145   109172749.620 8
  85069705.263 8        50.700          48.300
  22188945.688                    22188951.797    22188952.203   116603648.790 7
  90860072.417 7        44.900          42.500
  25200554.242                                                   132429791.589 5
                        31.200
  23708943.461                    23708952.734                   124591324.242 6
  97084221.389 7        41.100          42.700
  22891000.305                    22891005.066    22891005.297   120293018.200 7
  93734843.885 7        44.300          42.400
  20264622.805                    20264631.785                   106491316.194 8
  82980305.841 8        52.100          49.600
 14  1  8  0 10 30.0000000  0  9G04G02G14G12G29G32G24G31G25
  23485225.367                                    23485232.527   123415863.217 7
  96168103.15043        42.800          22.300
  23447253.281                                    23447257.453   123216160.409 6
  96012617.73544        41.200          26.200
  21706173.547                                    21706179.477   114066698.535 7
  88883168.41845        46.800          31.800
  20785365.898                    20785371.070    20785370.949   109227876.708 8
  85112661.434 8        51.000          48.800
  22170554.438                    22170560.840    22170560.719   116507001.367 7
  90784762.762 7        45.300          42.900
  25209042.086                                                   132474402.098 4
                        29.900
  23729181.531                    23729191.508                   124697677.320 6
  97167093.891 7        41.600          43.000
  22873910.141                    22873915.137    22873915.250   120203207.692 7
  93664861.680 7        44.500          42.500
  20260191.984                    20260200.730                   106468032.746 8
  82962162.899 8        51.800          50.700
 14  1  8  0 11  0.0000000  0  9G04G02G14G12G29G32G24G31G25
  23489211.484                                    23489218.469   123436806.685 7
  96184422.72343        42.700          23.500
  23436780.492                                    23436784.371   123161125.494 6
  95969733.40844        41.600          25.600
  21714650.672                                    21714656.543   114111245.277 7
  88917880.12045        47.600          32.700
  20795923.969                    20795929.609    20795929.605   109283359.241 8
  85155894.571 8        50.300          49.100
  22152224.672                    22152231.836    22152231.773   116410679.559 7
  90709706.823 7        45.100          43.000
  25217617.172                                                   132519465.505 5
                        30.500
  23749451.781                    23749461.055                   124804194.585 6
  97250094.340 7        41.100          42.500
  22856860.688                    22856865.977    22856865.797   120113615.414 7
  93595049.520 7        45.600          42.900
  20255844.273                    20255853.313                   106445185.593 8
  82944359.913 8        51.900          50.700
 14  1  8  0 11 30.0000000  0  9G04G02G14G12G29G32G24G31G25
  23493315.094                                    23493322.313   123458373.787 7
  96201228.21843        42.900          22.200
  23426387.211                                    23426389.918   123106503.989 7
  95927171.22444        42.200          27.400
  21723233.289                                    21723239.043   114156346.695 7
  88953024.04645        47.500          31.200
  20806549.539                    20806555.180    20806555.234   109339196.145 8
  85199403.840 8        50.500          48.600
  22133957.563                    22133964.668    22133964.430   116314685.315 7
  90634906.119 7        44.900          42.900
  25226279.883                                                   132564979.848 5
                        30.800
  23769751.391                    23769760.840                   124910874.091 6
  97333221.221 7        41.000          43.100
  22839853.750                    22839859.859    22839859.621   120024243.465 7
  93525409.051 7        45.000          43.000
  20251579.969                    20251588.539                   106422774.950 8
  82926897.072 8        51.500          50.500
 14  1  8  0 12  0.0000000  0  9G04G02G14G12G29G32G24G31G25
  23497538.109                                    23497545.152   123480564.104 6
  96218519.33743        40.900          22.500
  23416071.422                                    23416075.594   123052298.681 6
  95884933.34444        40.900          26.300
  21731920.914                                    21731926.375   114202001.652 7
  88988599.31645        47.300          31.800
  20817242.195                    20817247.660    20817247.773   109395385.886 8
  85243188.052 8        50.800          48.700
  22115753.313                    22115760.242    22115760.180   116219021.631 7
  90560362.993 7        45.100          43.100
  25235026.250                                                   132610943.62514
                        29.900
  23790082.570                    23790092.898                   125017715.406 6
  97416474.186 7        41.400          42.700
  22822889.141                    22822894.664    22822894.719   119935094.068 7
  93455941.991 7        44.900          42.900
  20247398.180                    20247407.395                   106400801.511 8
  82909774.912 8        51.900          50.700
 14  1  8  0 12 30.0000000  0  8G04G02G14G12G29G24G31G25
  23501879.445                                    23501886.078   123503375.454 7
  96236294.39043        42.200          22.900
  23405835.789                                    23405839.492   122998510.139 6
  95843020.23344        41.400          26.200
  21740713.695                                    21740719.566   114248207.008 7
  89024603.46145        47.100          31.400
  20828001.063                    20828006.762    20828006.641   109451925.629 8
  85287244.982 8        50.500          48.700
  22097612.086                    22097619.074    22097618.895   116123689.114 7
  90486077.941 7        45.600          43.800
  23810443.961                    23810453.469                   125124715.091 6
  97499850.544 7        40.600          42.700
  22805967.023                    22805972.957    22805972.719   119846167.559 7
  93386648.595 7        45.200          43.200
  20243299.875                    20243308.387                   106379263.888 8
  82892992.346 8        52.100          50.800
 14  1  8  0 13  0.0000000  0  8G04G02G14G12G29G24G31G25
  23506338.039                                    23506345.082   123526808.017 6
  96254553.52043        40.500          21.700
  23395680.070                                    23395684.125   122945140.975 7
  95801433.91244        43.200          27.300
  21749610.633                                    21749616.680   114294962.046 7
  89061035.96345        46.500          32.400
  20838826.688                    20838832.504    20838832.324   109508815.325 8
  85331574.611 8        50.000          49.100
  22079534.727                    22079541.422    22079541.242   116028690.927 7
  90412053.416 7        45.200          43.400
  23830834.906                    23830845.234                   125231872.283 6
  97583349.656 7        41.400          42.100
  22789088.180                    22789093.879    22789093.582   119757467.112 7
  93317531.367 7        45.200          43.400
  20239284.547                    20239293.410                   106358163.182 8
  82876550.243 8        51.600          50.300
 14  1  8  0 13 30.0000000  0  8G04G02G14G12G29G24G31G25
  23510915.109                                    23510922.328   123550863.088 6
  96273297.72643        40.600          21.700
  23385604.727                                    23385608.547   122892195.352 7
  95760177.60444        42.000          27.100
  21758612.836                                    21758618.707   114342266.845 7
  89097896.83045        46.500          31.500
  20849719.281                    20849724.805    20849724.977   109566055.686 8
  85376177.491 8        50.300          48.700
  22061521.250                    22061527.945    22061527.824   115934030.905 7
  90338292.395 7        45.600          43.000
  23851256.852                    23851266.652                   125339187.433 6
  97666971.826 7        41.200          42.100
  22772252.820                    22772258.285    22772258.398   119668996.204 7
  93248593.002 7        45.300          43.400
  20235352.641                    20235361.680                   106337501.513 8
  82860450.250 8        51.600          50.500
 14  1  8  0 14  0.0000000  0  8G04G02G14G12G29G24G31G25
  23515611.156                                    23515618.199   123575539.476 6
  96292526.03643        41.400          22.000
  23375610.602                                    23375613.953   122839674.933 7
  95719252.63844        43.000          27.400
  21767718.273                                    21767724.086   114390119.377 7
  89135184.49945        46.400          30.700
  20860678.055                    20860683.461    20860683.691   109623644.655 8
  85421052.006 8        49.900          48.500
  22043572.688                    22043579.617    22043579.789   115839711.130 7
  90264796.533 7        44.600          43.100
  23871707.273                    23871716.957                   125446658.280 6
  97750715.322 7        41.200          42.300
  22755460.961                    22755466.719    22755466.715   119580756.510 7
  93179834.804 7        44.900          43.200
  20231504.523                    20231513.680                   106317278.651 8
  82844692.180 8        52.100          51.400
 14  1  8  0 14 30.0000000  0  8G04G02G14G12G29G24G31G25
  23520424.641                                    23520432.035   123600835.337 6
  96312237.09543        40.100          21.700
  23365697.414                                    23365700.707   122787580.550 7
  95678659.65144        42.900          27.400
  21776928.617                                    21776934.605   114438516.995 7
  89172896.91845        46.500          31.600
  20871702.680                    20871709.082    20871708.902   109681579.267 8
  85466195.852 8        50.000          49.500
  22025689.180                    22025695.699    22025695.813   115745733.044 7
  90191566.922 7        45.400          43.400
  23892187.883                    23892197.742                   125554282.184 6
  97834578.093 7        40.500          42.500
  22738713.930                    22738719.453    22738719.332   119492748.672 7
  93111257.267 7        45.300          43.400
  20227739.273                    20227748.488                   106297493.698 8
  82829275.333 8        52.200          51.200
 14  1  8  0 15  0.0000000  0  8G04G02G14G12G29G24G31G25
  23525356.273                                    23525362.906   123626749.499 6
  96332429.91643        39.400          22.000
  23355865.844                                    23355869.254   122735914.065 7
  95638400.08144        42.300          27.200
  21786241.297                                    21786247.109   114487457.724 7
  89211032.51745        46.000          30.900
  20882793.109                    20882798.867    20882798.863   109739858.657 8
  85511608.363 8        50.500          48.900
  22007871.141                    22007877.953    22007878.066   115652098.190 7
  90118604.731 7        45.800          43.600
  23912696.703                    23912706.387                   125662057.573 6
  97918558.893 7        40.900          42.600
  22722010.641                    22722016.750    22722016.688   119404974.707 7
  93042861.969 7        45.200          43.800
  20224057.875                    20224066.504                   106278146.612 8
  82814199.674 8        51.800          51.300
 14  1  8  0 15 30.0000000  0  8G04G02G14G12G29G24G31G25
  23530404.031                                    23530411.953   123653281.468 6
  96353104.13543        40.900          21.300
  23346115.102                                    23346118.570   122684678.066 6
  95598475.94044        40.400          27.700
  21795657.898                                    21795663.594   114536940.318 7
  89249590.38045        46.000          31.000
  20893948.625                    20893954.559    20893954.320   109798481.849 8
  85557288.772 8        50.400          48.700
  21990118.914                    21990125.902    21990125.723   115558809.267 7
  90045912.092 7        45.800          43.400
  23933234.109                    23933244.496                   125769982.787 6
  98002656.436 6        40.700          41.700
  22705353.008                    22705358.824    22705358.703   119317436.891 7
  92974650.686 7        45.500          44.100
  20220460.094                    20220468.605                   106259238.026 8
  82799465.713 8        51.600          50.800
 14  1  8  0 16  0.0000000  0  8G04G02G14G12G29G24G31G25
  23535571.875                                    23535578.684   123680431.099 6
  96374259.70343        40.800          20.600
  23336448.461                                    23336451.578   122633874.784 7
  95558888.99244        43.000          27.900
  21805176.906                                    21805182.543   114586963.381 7
  89288569.37545        46.200          31.000
  20905169.344                    20905175.102    20905175.039   109857447.032 8
  85603235.660 8        50.200          48.400
  21972432.891                    21972439.703    21972439.699   115465868.898 7
  89973491.051 7        46.100          43.600
  23953800.078                    23953810.289                   125878057.091 6
  98086870.147 6        40.300          41.400
  22688740.797                    22688746.906    22688746.668   119230137.700 7
  92906625.346 7        45.200          43.800
  20216944.820                    20216953.684                   106240768.458 8
  82785073.838 8        51.900          51.300
 14  1  8  0 16 30.0000000  0  8G04G02G14G12G29G24G31G25
  23540854.891                                    23540861.699   123708195.651 6
  96395894.40843        41.200          22.000
  23326863.430                                    23326866.430   122583504.675 7
  95519639.56844        43.000          27.800
  21814797.758                                    21814804.273   114637523.066 7
  89327966.54245        46.000          31.000
  20916454.852                    20916460.199    20916460.137   109916751.532 8
  85649446.955 8        50.200          48.600
  21954813.391                    21954819.969    21954820.082   115373277.460 7
  89901341.923 7        45.800          43.900
  23974393.547                    23974403.992                   125986276.694 6
  98171197.067 7        40.400          42.000
  22672173.555                    22672178.961    22672178.840   119143076.938 7
  92838785.798 7        45.000          43.700
  20213513.688                    20213523.137                   106222736.110 8
  82771022.651 8        51.900          51.100
 14  1  8  0 17  0.0000000  0  8G04G02G14G12G29G24G31G25
  23546255.672                                    23546262.188   123736577.061 6
  96418009.73943        41.800          21.700
  23317361.406                                    23317364.992   122533572.480 7
  95480731.36744        43.100          25.800
  21824522.289                                    21824527.750   114688620.908 7
  89367783.02345        46.700          31.600
  20927805.102                    20927810.977    20927810.855   109976397.717 8
  85695924.500 8        50.700          48.800
  21937261.734                    21937267.492    21937267.488   115281040.028 7
  89829468.652 7        46.200          43.700
  23995015.055                    23995025.324                   126094642.841 6
  98255638.206 6        40.100          41.600
  22655652.664                    22655658.188    22655657.949   119056259.826 7
  92771136.101 7        44.900          44.100
  20210166.063                    20210174.691                   106205144.376 8
  82757314.806 8        52.100          51.100
 14  1  8  0 17 30.0000000  0  8G04G02G14G12G29G24G31G25
  23551773.578                                    23551780.035   123765571.721 6
  96440602.98243        41.600          21.800
  23307942.453                                    23307946.449   122484077.620 7
  95442163.95544        42.600          27.300
  21834346.766                                    21834353.047   114740252.198 7
  89408015.16145        46.300          31.200
  20939219.375                    20939225.191    20939225.070   110036381.064 8
  85742664.763 8        50.000          48.600
  21919775.938                    21919782.398    21919782.688   115189156.045 7
  89757870.772 7        45.900          44.000
  24015664.273                    24015674.484                   126203151.535 6
  98340190.377 6        41.000          41.600
  22639178.391                    22639184.383    22639184.320   118969685.711 7
  92703675.756 7        44.600          44.300
  20206901.383                    20206910.363                   106187990.491 8
  82743948.133 8        51.800          51.200
 14  1  8  0 18  0.0000000  0  8G04G02G14G12G29G24G31G25
  23557408.031                                    23557414.840   123795179.823 7
  96463674.20443        42.200          22.000
  23298608.047                                    23298611.164   122435022.966 7
  95403939.56644        43.200          28.500
  21844272.875                                    21844279.273   114792416.193 7
  89448662.38345        45.900          31.100
  20950697.664                    20950703.773    20950703.652   110096700.485 8
  85789666.901 8        50.900          48.600
  21902358.805                    21902365.852    21902365.496   115097628.717 7
  89686550.811 7        46.100          43.500
  24036339.453                    24036348.668                   126311801.381 6
  98424852.554 6        40.800          41.800
  22622750.242                    22622755.941    22622755.645   118883357.042 7
  92636406.667 7        45.000          44.000
  20203720.922                    20203730.020                   106171275.611 8
  82730923.554 8        52.300          50.500
 14  1  8  0 18 30.0000000  0  8G04G02G14G12G29G24G31G25
  23563158.695                                    23563165.328   123825400.147 6
  96487222.47143        40.900          20.400
  23289357.063                                    23289360.180   122386410.174 7
  95366059.48944        43.900          27.800
  21854300.461                                    21854306.566   114845110.811 7
  89489723.06545        46.800          30.100
  20962240.445                    20962245.559    20962245.320   110157355.106 8
  85836930.238 8        50.700          48.200
  21885010.031                    21885016.199    21885016.430   115006460.023 7
  89615510.312 7        45.900          43.600
  24057041.344                    24057051.379                   126420591.666 6
  98509624.168 6        40.600          41.600
  22606369.805                    22606375.445    22606375.383   118797275.861 7
  92569330.424 7        44.900          44.300
  20200623.773                    20200632.637                   106154999.785 8
  82718241.091 8        52.700          51.100
 14  1  8  0 19  0.0000000  0  8G04G02G14G12G29G24G31G25
  23569025.391                                    23569033.020   123856231.588 6
  96511246.96743        40.400          21.100
  23280190.766                                    23280194.176   122338241.183 7
  95328525.22744        43.200          26.800
  21864429.109                                    21864435.508   114898334.314 7
  89531195.83945        45.800          30.200
  20973845.703                    20973850.816    20973850.754   110218343.830 8
  85884453.917 8        50.300          48.200
  21867729.805                    21867737.203    21867736.965   114915652.330 7
  89544751.107 7        45.600          44.700
  24077769.406                    24077779.441                   126529520.069 6
  98594503.393 6        40.300          41.700
  22590036.828                    22590042.234    22590042.348   118711444.583 7
  92502448.909 7        44.900          44.000
  20197610.023                    20197618.594                   106139163.166 8
  82705900.871 8        52.100          50.500
 14  1  8  0 19 30.0000000  0  8G04G02G14G12G29G24G31G25
  23575007.672                                    23575016.004   123887674.193 6
  96535747.64343        40.200          20.400
  23271109.984                                    23271113.570   122290519.233 7
  95291339.32544        42.400          28.300
  21874657.250                                    21874664.000   114952086.000 7
  89573080.22745        45.700          30.400
  20985514.922                    20985520.445    20985520.266   110279665.899 8
  85932237.341 8        50.000          48.400
  21850519.523                    21850526.395    21850526.332   114825208.834 7
  89474275.676 7        46.400          44.400
  24098524.914                    24098534.715                   126638586.288 6
  98679490.009 6        40.100          41.200
  22573751.586                    22573756.582    22573756.754   118625866.360 7
  92435764.574 7        45.000          44.100
  20194680.398                    20194689.145                   106123766.775 8
  82693903.675 8        51.500          51.100
 14  1  8  0 20  0.0000000  0  8G04G02G14G12G29G24G31G25
  23581106.930                                    23581114.969   123919725.661 6
  96560722.77443        39.600          20.900
  23262113.680                                    23262117.734   122243244.437 7
  95254501.85444        44.500          27.800
  21884985.688                                    21884992.086   115006362.287 7
  89615373.40145        46.300          30.000
  20997246.953                    20997252.535    20997252.531   110341318.675 8
  85980278.460 8        50.300          48.400
  21833377.461                    21833383.629    21833383.801   114735129.924 7
  89404084.390 7        46.500          44.000
  24119304.180                    24119314.977                   126747786.943 6
  98764581.379 6        40.200          41.400
  22557514.422                    22557520.238    22557520.000   118540540.847 7
  92369277.164 7        44.700          44.500
  20191834.008                    20191842.988                   106108809.315 8
  82682248.515 8        52.100          50.700
 14  1  8  0 20 30.0000000  0  8G04G02G14G12G29G24G31G25
  23587322.477                                    23587330.047   123952384.291 6
  96586171.02943        38.900          19.600
  23253203.039                                    23253206.273   122196418.546 7
  95218014.15944        44.100          28.600
  21895413.359                                    21895419.875   115061161.078 7
  89658073.71545        45.900          30.800
  21009041.813                    21009047.805    21009047.684   110403300.376 8
  86028575.879 7        50.400          47.800
  21816306.242                    21816312.938    21816312.523   114645417.479 7
  89334178.633 7        46.800          44.100
  24140110.344                    24140120.320                   126857120.079 6
  98849775.981 6        40.500          41.100
  22541326.125                    22541331.941    22541331.879   118455470.124 7
  92302988.295 7        45.000          44.400
  20189071.086                    20189079.773                   106094290.565 8
  82670935.207 8        51.900          50.900
 14  1  8  0 21  0.0000000  0  8G04G02G14G12G29G24G31G25
  23593653.164                                    23593660.734   123985653.364 6
  96612094.93343        39.400          20.600
  23244379.008                                    23244382.359   122150047.611 6
  95181880.98644        41.800          28.500
  21905941.445                                    21905947.902   115116484.676 7
  89701182.96145        46.000          30.700
  21020899.695                    21020905.453    21020905.625   110465613.882 8
  86077131.857 7        50.000          47.600
  21799304.719                    21799311.355    21799311.352   114556077.859 7
  89264563.385 7        46.800          43.900
  24160940.992                    24160951.320                   126966588.330 6
  98935075.878 6        40.200          40.800
  22525187.320                    22525192.902    22525193.074   118370660.283 7
  92236902.713 7        45.200          44.100
  20186392.719                    20186401.230                   106080214.834 8
  82659967.101 8        50.900          50.900
 14  1  8  0 21 30.0000000  0  8G04G02G14G12G29G24G31G25
  23600099.258                                    23600107.707   124019527.858 6
  96638490.61243        38.100          19.600
  23235640.609                                    23235644.078   122104129.404 7
  95146100.59844        43.000          29.600
  21916567.891                                    21916574.055   115172326.815 7
  89744696.25644        46.200          29.700
  21032819.680                    21032825.379    21032825.375   110528252.887 8
  86125941.466 7        49.900          47.600
  21782374.883                    21782381.930    21782381.984   114467109.113 7
  89195237.104 7        47.400          44.100
  24181796.773                    24181807.160                   127076185.830 6
  99020476.476 6        39.000          40.900
  22509097.891                    22509103.648    22509103.703   118286109.383 7
  92171018.904 7        44.900          44.200
  20183797.508                    20183806.723                   106066578.069 8
  82649341.050 8        51.500          51.000
 14  1  8  0 22  0.0000000  0  8G04G02G14G12G29G24G31G25
  23606659.727                                    23606668.293   124054005.884 6
  96665356.54743        39.300          20.600
  23226989.164                                    23226992.867   122058665.461 7
  95110674.17344        43.900          29.000
  21927292.883                                    21927298.988   115228685.202 7
  89788611.85945        46.400          31.300
  21044801.297                    21044806.820    21044806.816   110591216.890 8
  86175004.316 8        50.000          48.000
  21765515.953                    21765522.648    21765522.527   114378512.940 7
  89126201.148 7        47.000          44.300
  24202677.195                    24202686.820                   127185910.924 6
  99105976.503 6        39.000          41.200
  22493057.969                    22493062.906    22493062.961   118201819.024 7
  92105338.109 7        45.500          44.100
  20181286.273                    20181294.961                   106053380.064 8
  82639056.890 8        52.100          51.200
 14  1  8  0 22 30.0000000  0  8G04G02G14G12G29G24G31G25
  23613336.859                                    23613344.488   124089088.956 6
  96692693.91843        39.100          20.600
  23218425.031                                    23218428.617   122013659.857 6
  95075604.88544        41.400          28.900
  21938115.289                                    21938121.746   115285560.580 7
  89832930.32145        45.600          30.100
  21056844.586                    21056850.520    21056850.398   110654506.935 8
  86224321.227 8        49.500          48.000
  21748727.961                    21748734.305    21748734.359   114290294.337 7
  89057459.473 7        47.200          44.100
  24223580.828                    24223591.156                   127295764.142 6
  99191576.363 6        38.600          40.900
  22477068.391                    22477073.621    22477073.676   118117793.740 7
  92039863.858 7        44.400          44.300
  20178858.578                    20178867.500                   106040623.306 8
  82629116.556 8        50.900          51.200
 14  1  8  0 23  0.0000000  0  8G04G02G14G12G29G24G31G25
  23620127.188                                    23620134.465   124124773.108 6
  96720499.75243        40.200          20.600
  23209947.828                                    23209951.297   121969111.764 7
  95040892.12544        43.000          29.600
  21949036.047                                    21949042.621   115342948.173 7
  89877647.90945        45.800          31.200
  21068949.805                    21068955.504    21068955.207   110718118.542 8
  86273888.701 7        49.700          47.900
  21732012.555                    21732018.898    21732018.895   114202451.910 7
  88989010.910 7        47.200          44.300
  24244509.281                    24244519.668                   127405741.098 6
  99277272.645 6        38.300          40.200
  22461129.242                    22461134.766    22461134.996   118034032.475 7
  91974595.344 7        44.500          43.900
  20176514.500                    20176522.953                   106028305.035 8
  82619517.902 8        51.700          51.400
 14  1  8  0 23 30.0000000  0  8G04G02G14G12G29G24G31G25
  23627032.977                                    23627039.727   124161059.674 6
  96748774.96143        40.700          19.900
  23201558.148                                    23201562.438   121925025.687 7
  95006539.35644        42.400          28.900
  21960054.328                                    21960060.316   115400848.222 7
  89922764.81045        45.500          30.400
  21081115.930                    21081121.512    21081121.273   110782052.733 8
  86323707.530 8        49.900          48.300
  21715368.820                    21715375.809    21715375.688   114114990.218 7
  88920859.010 7        47.900          44.500
  24265460.578                    24265471.141                   127515842.892 6
  99363066.203 6        37.800          39.800
  22445241.023                    22445246.488    22445246.543   117950539.880 7
  91909536.191 7        45.100          44.100
  20174254.367                    20174263.465                   106016427.858 8
  82610262.954 8        51.400          51.500
 14  1  8  0 24  0.0000000  0  8G04G02G14G12G29G24G31G25
  23634051.727                                    23634059.063   124197946.981 6
  96777518.28543        40.200          20.900
  23193257.719                                    23193261.539   121881402.965 6
  94972547.62744        41.800          29.600
  21971169.609                                    21971175.363   115459258.414 7
  89968279.17845        46.200          30.300
  21093343.297                    21093349.172    21093348.992   110846308.140 8
  86373776.661 7        49.100          47.600
  21698798.156                    21698804.910    21698804.848   114027911.607 7
  88853005.618 7        47.600          43.800
  24286435.281                    24286446.547                   127626067.370 6
  99448955.379 6        37.700          39.900
  22429404.453                    22429410.211    22429410.324   117867317.793 7
  91844687.813 7        44.500          43.700
  20172078.102                    20172086.906                   106004991.570 8
  82601351.555 8        51.200          51.400
 14  1  8  0 24 30.0000000  0  8G04G02G14G12G29G24G31G25
  23641184.961                                    23641191.125   124235431.057 6
  96806726.59243        40.800          20.400
  23185044.023                                    23185048.020   121838242.574 7
  94938916.18544        44.000          29.700
  21982380.727                                    21982386.656   115518174.070 7
  90014187.47944        45.700          29.400
  21105631.000                    21105637.051    21105637.164   110910880.566 8
  86424092.827 7        49.100          47.500
  21682300.438                    21682307.191    21682307.305   113941214.961 7
  88785449.783 7        47.300          44.700
  24307433.219                    24307443.605                   127736410.048 6
  99534936.637 6        38.700          40.000
  22413619.570                    22413625.445    22413625.617   117784365.324 7
  91780049.536 7        44.300          43.500
  20169985.523                    20169994.797                   105993993.391 8
  82592781.538 8        51.700          51.400
 14  1  8  0 25  0.0000000  0  8G04G02G14G12G29G24G31G25
  23648432.453                                    23648438.793   124273514.462 6
  96836401.93843        40.200          20.100
  23176920.141                                    23176923.434   121795550.236 7
  94905649.44144        43.500          29.800
  21993688.672                                    21993694.484   115577596.786 7
  90060490.87844        46.200          29.900
  21117979.617                    21117985.434    21117985.137   110975771.877 8
  86474657.481 8        49.500          48.000
  21665876.563                    21665882.672    21665882.785   113854906.247 8
  88718196.210 7        48.500          44.300
  24328453.820                    24328464.266                   127846873.318 6
  99621011.888 6        37.900          39.900
  22397886.547                    22397892.012    22397891.891   117701688.282 7
  91715625.871 7        45.800          44.200
  20167976.453                    20167985.141                   105983437.183 8
  82584555.918 8        51.800          51.600
 14  1  8  0 25 30.0000000  0  8G04G02G14G12G29G24G31G25
  23655792.891                                    23655799.465   124312193.244 6
  96866541.18643        41.000          20.100
  23168884.188                                    23168888.242   121753325.044 6
  94872746.71844        41.800          29.300
  22005091.922                                    22005097.969   115637522.348 7
  90107186.12744        45.800          29.700
  21130388.305                    21130393.711    21130393.531   111040979.447 8
  86525468.577 8        50.200          48.300
  21649526.195                    21649532.891    21649532.887   113768985.210 7
  88651244.725 7        47.800          45.000
  24349496.914                    24349507.301                   127957453.081 6
  99707177.905 6        37.900          39.200
  22382205.758                    22382211.281    22382211.395   117619286.361 7
  91651416.580 7        44.800          44.100
  20166051.375                    20166060.238                   105973320.598 8
  82576672.862 8        51.300          51.200
 14  1  8  0 26  0.0000000  0  8G04G02G14G12G29G24G31G25
  23663266.320                                    23663272.074   124351466.124 6
  96897143.39043        40.800          20.600
  23160938.344                                    23160942.398   121711568.648 7
  94840209.28844        44.600          29.700
  22016591.039                                    22016596.734   115697947.851 7
  90154270.92444        45.800          29.400
  21142856.625                    21142862.383    21142862.438   111106501.144 8
  86576524.435 8        50.000          48.000
  21633250.141                    21633257.012    21633257.125   113683453.792 8
  88584596.937 7        48.100          44.400
  24370561.594                    24370571.336                   128068147.262 6
  99793433.069 6        37.700          38.700
  22366577.680                    22366583.145    22366582.730   117537161.306 7
  91587423.030 7        45.100          44.000
  20164209.758                    20164218.855                   105963643.432 8
  82569132.206 8        51.900          51.000
 14  1  8  0 26 30.0000000  0  8G04G02G14G12G29G24G31G25
  23670851.906                                    23670859.359   124391333.217 6
  96928208.59243        40.800          19.900
  23153082.320                                    23153086.375   121670284.048 7
  94808039.49244        43.300          29.400
  22028184.688                                    22028190.500   115758873.121 7
  90201745.14244        46.300          29.900
  21155384.766                    21155390.230    21155390.168   111172336.553 8
  86627824.745 7        50.100          47.000
  21617048.992                    21617055.629    21617055.508   113598315.050 8
  88518255.108 7        48.400          44.200
  24391646.703                    24391656.914                   128178955.411 6
  99879777.043 6        36.700          38.600
  22351003.453                    22351009.621    22351009.266   117455316.716 7
  91523648.025 7        45.100          44.300
  20162452.484                    20162461.406                   105954407.059 8
  82561935.036 8        51.700          51.200
 14  1  8  0 27  0.0000000  0  8G04G02G14G12G29G24G31G25
  23678551.945                                    23678558.344   124431793.468 6
  96959736.00943        40.700          19.000
  23145316.234                                    23145320.055   121629473.554 7
  94776239.12144        43.800          29.900
  22039872.641                                    22039878.629   115820296.493 7
  90249607.45745        46.000          30.100
  21167972.375                    21167978.250    21167978.070   111238485.610 8
  86679369.466 7        50.000          47.500
  21600922.383                    21600929.488    21600929.367   113513571.838 8
  88452221.453 7        48.400          44.600
  24412754.016                    24412764.754                   128289876.882 6
  99966209.311 6        36.400          38.000
  22335482.461                    22335487.633    22335487.980   117373754.905 7
  91460093.369 7        44.600          43.900
  20160778.469                    20160787.508                   105945612.139 8
  82555081.849 8        52.100          51.000
 14  1  8  0 27 30.0000000  0  8G04G02G14G12G29G24G31G25
  23686363.688                                    23686371.316   124472846.057 6
  96991724.98343        39.600          19.900
  23137641.219                                    23137645.684   121589139.236 7
  94744809.80644        42.800          29.700
  22051655.344                                    22051661.859   115882215.812 7
  90297856.23644        46.100          29.400
  21180619.461                    21180625.336    21180625.332   111304946.593 8
  86731157.231 7        50.500          47.100
  21584872.328                    21584878.965    21584879.078   113429226.382 8
  88386497.701 7        48.400          44.600
  24433884.094                    24433893.953                   128400910.079 6
 100052728.633 6        36.600          37.800
  22320016.172                    22320022.047    22320021.809   117292478.211 7
  91396760.880 7        45.700          44.100
  20159189.023                    20159198.180                   105937258.855 8
  82548572.800 8        51.900          50.900
 14  1  8  0 28  0.0000000  0  8G04G02G14G12G29G24G31G25
  23694287.625                                    23694294.785   124514486.792 6
  97024172.25243        39.300          19.000
  23130056.242                                    23130060.121   121549279.770 7
  94713750.50344        42.900          29.400
  22063532.328                                    22063538.434   115944626.388 7
  90346487.83744        46.400          29.200
  21193325.328                    21193330.793    21193330.965   111371715.872 8
  86783185.219 7        50.000          47.400
  21568897.250                    21568903.828    21568903.941   113345277.772 7
  88321083.233 7        47.400          45.700
  24455032.836                    24455043.164                   128512050.288 6
 100139331.333 6        36.000          38.300
  22304604.141                    22304609.137    22304608.898   117211485.798 7
  91333649.912 7        43.900          43.900
  20157682.805                    20157691.902                   105929344.387 8
  82542405.678 8        51.400          50.400
 14  1  8  0 28 30.0000000  0  8G04G02G14G12G29G24G31G25
  23702322.758                                    23702330.738   124556714.197 6
  97057076.62043        38.400          18.300
  23122562.211                                    23122565.855   121509897.360 7
  94683062.91445        43.900          30.200
  22075502.391                                    22075508.203   116007526.290 7
  90395500.68944        45.600          29.100
  21206089.648                    21206095.699    21206095.461   111438792.560 8
  86835452.755 8        50.300          48.000
  21552998.188                    21553005.176    21553005.055   113261728.373 8
  88255979.848 7        48.600          45.500
  24476201.891                    24476212.805                   128623296.767 5
 100226016.862 6        35.400          38.800
  22289245.859                    22289251.676    22289252.023   117130780.305 7
  91270762.518 7        45.800          43.800
  20156260.531                    20156269.219                   105921869.252 8
  82536580.904 8        51.600          51.800
 14  1  8  0 29  0.0000000  0  8G04G02G14G12G29G24G31G25
  23710469.945                                    23710478.395   124599529.617 6
  97090439.22443        38.900          19.300
  23115159.648                                    23115163.176   121470995.956 7
  94652750.13745        43.400          30.300
  22087564.445                                    22087570.375   116070915.539 7
  90444894.78344        45.000          29.100
  21218912.469                    21218918.578    21218918.340   111506176.958 8
  86887960.076 7        49.800          47.200
  21537176.414                    21537183.285    21537182.988   113178582.692 8
  88191191.030 7        48.000          45.400
  24497392.219                    24497402.254                   128734649.749 5
 100312785.379 6        35.200          37.800
  22273943.789                    22273949.254    22273949.191   117050366.097 7
  91208102.103 7        46.000          43.900
  20154921.883                    20154930.395                   105914835.663 8
  82531100.187 8        51.600          50.700
 14  1  8  0 29 30.0000000  0  8G04G02G14G12G29G24G31G25
  23718729.914                                    23718737.191   124642929.537 6
  97124257.28943        39.200          19.600
  23107848.469                                    23107852.465   121432575.390 7
  94622812.05644        43.000          29.900
  22099719.516                                    22099724.859   116134790.578 7
  90494667.51944        45.600          29.200
  21231793.242                    21231799.176    21231798.996   111573866.480 8
  86940705.152 7        50.600          47.300
  21521431.367                    21521437.066    21521437.063   113095841.123 8
  88126717.138 7        48.500          45.100
  24518602.547                    24518611.820                   128846106.240 5
 100399634.558 6        35.400          37.400
  22258697.125                    22258702.590    22258702.410   116970243.384 7
  91145668.820 7        45.700          44.300
  20153666.766                    20153675.980                   105908242.012 8
  82525962.274 8        51.000          50.900
 14  1  8  0 30  0.0000000  0  8G04G02G14G12G29G24G31G25
  23727099.367                                    23727107.055   124686913.600 6
  97158530.55043        40.900          20.400
  23100628.859                                    23100632.504   121394638.383 7
  94593250.77044        43.100          29.400
  22111966.141                                    22111972.480   116199150.176 7
  90544817.83544        44.900          29.000
  21244732.383                    21244737.613    21244737.551   111641861.190 8
  86993688.042 7        50.000          47.700
  21505763.016                    21505769.711    21505769.590   113013506.364 7
  88062560.212 7        47.500          45.800
  24539831.109                    24539841.262                   128957665.415 5
 100486563.746 6        34.800          37.400
  22243506.734                    22243512.023    22243512.020   116890415.105 7
  91083464.969 7        44.800          44.700
  20152496.344                    20152505.090                   105902089.162 8
  82521167.843 8        51.500          51.200
 14  1  8  0 30 30.0000000  0  8G04G02G14G12G29G24G31G25
  23735580.516                                    23735588.145   124731480.251 6
  97193257.72643        40.900          20.100
  23093501.742                                    23093505.504   121357186.448 7
  94564067.45345        43.200          31.000
  22124305.445                                    22124311.609   116263992.080 7
  90595343.91744        45.300          28.900
  21257728.891                    21257735.059    21257734.762   111710159.302 8
  87046907.346 8        50.000          48.000
  21490172.938                    21490179.281    21490179.160   112931580.251 8
  87998721.699 7        48.300          45.700
  24561078.336                    24561088.957                   129069325.492 5
 100573571.569 6        34.800          36.900
  22228371.516                    22228377.449    22228377.211   116810883.703 7
  91021492.454 7        46.100          44.000
  20151409.398                    20151418.496                   105896377.147 8
  82516716.913 8        51.900          50.700
 14  1  8  0 31  0.0000000  0  8G04G02G14G12G29G24G31G25
  23744171.602                                    23744178.469   124776625.860 6
  97228436.06843        40.700          20.100
  23086467.656                                    23086471.184   121320219.458 7
  94535262.01945        43.600          30.900
  22136735.242                                    22136741.699   116329311.912 7
  90646242.41844        45.400          28.900
  21270782.703                    21270788.637    21270788.574   111778757.658 8
  87100360.610 7        49.900          47.300
  21474660.703                    21474667.516    21474667.277   112850062.990 7
  87935201.733 7        47.600          45.400
  24582345.734                    24582356.121                   129181083.216 5
 100660655.483 6        34.900          36.700
  22213293.852                    22213300.020    22213299.781   116731648.925 7
  90959751.070 7        45.800          44.100
  20150405.883                    20150415.098                   105891103.988 8
  82512607.956 8        51.900          51.000
 14  1  8  0 31 30.0000000  0  8G04G02G14G12G29G24G31G25
  23752872.563                                    23752880.074   124822349.442 6
  97264064.73243        41.700          20.900
  23079524.945                                    23079529.410   121283738.955 7
  94506835.66245        43.600          30.800
  22149256.328                                    22149262.492   116395107.445 7
  90697511.56844        45.800          29.000
  21283893.281                    21283899.391    21283899.445   111847654.605 8
  87154046.530 7        49.700          47.100
  21459226.719                    21459234.117    21459233.820   112768956.887 8
  87872002.192 7        48.200          45.800
  24603631.367                    24603641.051                   129292936.664 5
 100747813.990 6        35.000          36.400
  22198273.195                    22198278.484    22198278.539   116652713.268 7
  90898242.766 7        45.700          43.900
  20149486.211                    20149495.367                   105886269.789 8
  82508841.051 8        51.400          51.300
 14  1  8  0 32  0.0000000  0  8G04G02G14G12G29G24G31G25
  23761684.516                                    23761691.148   124868651.201 6
  97300143.94743        41.300          19.300
  23072676.383                                    23072680.320   121247748.750 7
  94478791.35745        43.800          30.000
  22161867.227                                    22161873.449   116461378.954 7
  90749151.64944        45.200          28.600
  21297061.258                    21297066.957    21297066.895   111916851.927 8
  87207966.513 7        50.200          47.500
  21443871.227                    21443878.859    21443878.563   112688265.808 8
  87809126.057 7        48.300          45.300
  24624935.039                    24624944.430                   129404887.039 5
 100835048.013 6        35.600          37.200
  22183309.906                    22183315.020    22183315.074   116574080.865 7
  90836970.771 7        46.600          43.800
  20148650.281                    20148658.969                   105881876.845 8
  82505417.971 8        51.600          51.400
 14  1  8  0 32 30.0000000  0  8G04G02G14G12G29G24G31G25
  23770604.695                                    23770612.207   124915529.859 6
  97336672.70943        41.400          19.900
  23065920.961                                    23065925.250   121212250.326 7
  94451130.26345        44.400          30.900
  22174568.625                                    22174574.203   116528124.451 7
  90801161.11744        45.300          27.700
  21310285.852                    21310291.727    21310291.488   111986347.997 8
  87262119.282 7        50.200          47.000
  21428596.031                    21428602.727    21428602.840   112607992.210 8
  87746575.219 7        48.400          45.400
  24646256.383                    24646266.184                   129516932.546 5
 100922356.172 6        35.000          36.300
  22168404.547                    22168410.188    22168410.066   116495753.648 7
  90775936.571 7        46.600          43.800
  20147898.281                    20147907.027                   105877925.253 8
  82502338.806 8        51.500          51.000
 14  1  8  0 33  0.0000000  0  8G04G02G14G12G29G24G31G25
  23779634.406                                    23779641.449   124962981.831 6
  97373648.16143        40.700          19.000
  23059260.281                                    23059263.867   121177243.365 7
  94423852.11245        44.100          31.300
  22187359.109                                    22187365.332   116595339.413 7
  90853536.38944        43.700          27.700
  21323566.594                    21323572.645    21323572.523   112056139.273 8
  87316502.080 7        49.300          47.100
  21413400.086                    21413407.074    21413407.012   112528135.434 8
  87684349.176 7        48.300          45.700
  24667594.477                    24667605.156                   129629069.510 5
 101009735.604 6        35.300          36.100
  22153557.531                    22153562.996    22153563.051   116417731.840 7
  90715140.365 7        46.400          43.700
  20147229.844                    20147238.941                   105874412.747 8
  82499601.788 8        51.700          51.100
 14  1  8  0 33 30.0000000  0  8G04G02G14G12G29G24G31G25
  23788772.797                                    23788780.133   125011006.143 6
  97411069.65743        40.800          18.600
  23052692.477                                    23052696.121   121142730.078 7
  94396958.65145        44.800          30.800
  22200238.695                                    22200245.152   116663022.328 7
  90906276.26744        44.600          28.300
  21336903.680                    21336909.145    21336909.023   112126225.397 8
  87371114.642 7        49.900          47.300
  21398283.617                    21398290.781    21398290.602   112448698.522 8
  87622450.298 7        48.800          46.300
  24688950.672                    24688961.000                   129741296.874 5
 101097185.480 5        35.700          35.900
  22138769.094                    22138774.617    22138774.496   116340018.453 7
  90654584.473 7        46.100          43.800
  20146645.180                    20146653.574                   105871340.186 8
  82497207.581 8        52.600          50.800
 14  1  8  0 34  0.0000000  0  8G04G02G14G12G29G24G31G25
  23798019.586                                    23798026.102   125059598.696 6
  97448933.91742        39.500          17.800
  23046218.859                                    23046222.387   121108709.304 7
  94370448.96345        44.100          30.600
  22213206.352                                    22213212.867   116731167.498 7
  90959376.37444        44.100          27.700
  21350295.813                    21350301.395    21350301.332   112196602.148 8
  87425953.657 7        49.500          47.500
  21383246.523                    21383254.156    21383253.801   112369680.675 7
  87560878.025 7        46.600          45.700
  24710323.625                    24710333.953                   129853610.552 5
 101184702.605 5        35.100          35.600
  22124038.828                    22124044.703    22124044.406   116262612.606 7
  90594268.236 7        45.200          44.000
  20146143.594                    20146152.691                   105868704.684 8
  82495153.938 8        51.600          50.900
 14  1  8  0 34 30.0000000  0  8G04G02G14G12G29G24G31G25
  23807375.164                                    23807382.090   125108761.680 6
  97487242.72442        40.400          16.300
  23039839.570                                    23039842.746   121075186.644 7
  94344327.41745        44.600          30.100
  22226261.875                                    22226268.273   116799777.359 7
  91012838.59744        44.700          26.200
  21363744.188                    21363750.180    21363750.117   112267272.521 8
  87481021.462 7        49.500          47.500
  21368291.289                    21368297.574    21368297.570   112291087.548 8
  87499636.655 7        48.200          45.700
  24731712.422                    24731723.043                   129966012.403 5
 101272288.446 5        35.300          35.200
  22109368.844                    22109374.484    22109374.656   116185520.779 7
  90534196.679 7        46.100          43.900
  20145726.211                    20145734.781                   105866510.263 8
  82493443.999 8        52.400          51.500
 14  1  8  0 35  0.0000000  0  8G04G02G14G12G29G24G31G25
  23816838.148                                    23816845.953   125158491.035 6
  97525992.77342        39.000          16.900
  23033554.258                                    23033558.605   121042160.845 7
  94318593.04245        43.600          30.700
  22239405.883                                    22239412.164   116868846.898 7
  91066659.01444        43.700          27.200
  21377247.172                    21377253.164    21377253.160   112338232.521 8
  87536314.976 7        49.700          46.900
  21353415.766                    21353422.285    21353422.574   112212918.759 8
  87438725.969 7        48.500          45.900
  24753118.188                    24753128.809                   130078498.374 5
 101359939.841 5        35.300          35.200
  22094758.664                    22094764.363    22094764.301   116108741.826 7
  90474368.921 7        47.000          44.300
  20145392.102                    20145401.141                   105864754.304 8
  82492075.717 8        52.100          51.300
 14  1  8  0 35 30.0000000  0  8G04G02G14G12G29G24G31G25
  23826408.813                                    23826416.559   125208786.340 6
  97565183.88242        39.400          16.900
  23027364.609                                    23027369.133   121009634.530 7
  94293247.85944        44.300          29.900
  22252636.320                                    22252642.836   116938375.346 7
  91120837.04244        43.900          26.900
  21390805.781                    21390811.480    21390811.594   112409482.555 8
  87591834.458 7        49.000          47.300
  21338622.242                    21338628.820    21338628.816   112135177.410 8
  87378148.326 7        48.800          45.800
  24774539.984                    24774550.020                   130191068.540 5
 101447656.832 5        35.400          35.200
  22080208.461                    22080213.691    22080213.746   116032279.586 7
  90414787.963 7        46.600          43.800
  20145141.242                    20145150.105                   105863438.102 8
  82491050.104 8        51.600          51.200
 14  1  8  0 36  0.0000000  0  8G04G02G14G12G29G24G31G25
  23836087.672                                    23836094.949   125259645.800 6
  97604814.51642        39.100          16.900
  23021270.703                                    23021274.641   120977609.699 7
  94268293.44845        43.100          30.500
  22265954.430                                    22265960.184   117008360.191 7
  91175370.71744        44.000          27.800
  21404419.305                    21404425.004    21404424.883   112481021.297 8
  87647578.910 7        49.000          46.900
  21323909.914                    21323916.727    21323916.723   112057865.523 8
  87317905.360 7        48.900          46.200
  24795977.836                    24795986.992                   130303721.088 5
 101535438.025 5        35.400          35.500
  22065718.766                    22065723.938    22065724.109   115956136.311 7
  90355455.542 7        47.300          43.700
  20144974.555                    20144983.535                   105862561.702 8
  82490367.191 8        52.000          51.200
 14  1  8  0 36 30.0000000  0  8G04G02G14G12G29G24G31G25
  23845872.211                                    23845880.309   125311068.079 6
  97644883.76542        38.900          17.800
  23015272.531                                    23015276.000   120946087.850 7
  94243730.96944        44.600          29.600
  22279358.406                                    22279364.395   117078799.152 7
  91230258.23844        44.500          28.200
  21418086.938                    21418092.930    21418092.750   112552847.684 8
  87703547.531 7        49.300          47.100
  21309280.258                    21309287.656    21309287.418   111980985.276 8
  87257998.737 7        48.500          46.000
  24817428.797                    24817439.477                   130416455.164 5
 101623282.754 5        34.800          35.700
  22051290.609                    22051295.840    22051295.895   115880314.474 7
  90296373.587 7        47.200          43.800
  20144891.578                    20144900.969                   105862125.350 8
  82490027.184 8        51.600          51.600
 14  1  8  0 37  0.0000000  0  8G04G02G14G12G29G24G31G25
  23855764.438                                    23855771.949   125363048.981 6
  97685388.30642        39.400          17.400
  23009369.586                                    23009373.113   120915067.873 7
  94219559.56545        44.700          30.000
  22292847.750                                    22292854.148   117149687.721 7
  91285496.10744        44.100          26.900
  21431808.813                    21431815.449    21431815.035   112624957.542 8
  87759737.017 7        49.500          47.100
  21294732.531                    21294739.109    21294739.164   111904536.050 8
  87198427.910 7        48.700          46.100
  24838896.406                    24838907.086                   130529266.699 5
 101711187.844 5        34.600          35.400
  22036923.352                    22036928.406    22036928.461   115804813.789 7
  90237541.884 7        46.700          43.900
  20144892.055                    20144900.625                   105862126.478 8
  82490028.060 8        51.300          51.700
 14  1  8  0 37 30.0000000  0  8G04G02G14G12G29G24G31G25
  23865762.656                                    23865769.934   125415588.504 6
  97726328.17342        40.000          17.400
  23003562.922                                    23003566.391   120884553.262 7
  94195781.96545        45.100          30.400
  22306423.133                                    22306428.711   117221025.113 7
  91341083.66244        43.600          27.600
  21445585.578                    21445591.863    21445591.801   112697352.058 8
  87816148.323 7        48.500          47.300
  21280267.742                    21280274.379    21280274.258   111828521.530 8
  87139195.825 7        48.800          45.700
  24860378.844                    24860389.289                   130642155.322 5
 101799153.010 5        35.200          35.200
  22022617.523                    22022623.340    22022623.277   115729637.608 7
  90178963.040 7        47.000          44.100
  20144975.758                    20144984.270                   105862566.876 8
  82490371.228 8        51.800          51.200
 14  1  8  0 38  0.0000000  0  8G04G02G14G12G29G24G31G25
  23875866.453                                    23875873.730   125468684.398 6
  97767701.55142        40.800          17.800
  22997852.133                                    22997856.012   120854544.476 7
  94172398.50745        44.900          30.900
  22320083.023                                    22320089.363   117292808.491 7
  91397018.73244        44.300          26.000
  21459415.289                    21459421.281    21459421.219   112770029.214 8
  87872779.862 7        48.800          46.500
  21265885.102                    21265892.031    21265891.793   111752943.155 7
  87080303.631 7        47.800          46.300
  24881874.391                    24881885.363                   130755119.263 5
 101887176.854 5        35.100          35.100
  22008373.922                    22008379.738    22008380.027   115654787.606 7
  90120638.359 7        46.300          43.900
  20145142.781                    20145151.586                   105863445.841 8
  82491056.136 8        51.700          51.400
 14  1  8  0 38 30.0000000  0  8G04G02G14G12G29G24G31G25
  23886076.508                                    23886083.961   125522334.918 6
  97809507.03843        40.800          18.300
  22992238.422                                    22992242.242   120825043.348 7
  94149410.62745        44.800          31.300
  22333827.500                                    22333833.430   117365035.521 7
  91453299.51944        43.300          26.800
  21473299.234                    21473305.051    21473304.988   112842987.610 8
  87929630.541 7        48.500          46.700
  21251586.250                    21251593.121    21251593.234   111677802.574 8
  87021752.551 7        48.100          45.800
  24903385.055                    24903396.555                   130868157.044 5
 101975258.236 5        34.800          34.800
  21994193.250                    21994198.773    21994199.063   115580266.399 7
  90062569.879 7        46.100          43.300
  20145393.750                    20145402.730                   105864763.466 8
  82492082.854 8        52.000          51.000
 14  1  8  0 39  0.0000000  0  8G04G02G14G12G29G24G31G25
  23896390.867                                    23896397.734   125576537.666 6
  97851742.86743        41.100          19.300
  22986721.109                                    22986724.578   120796050.153 7
  94126818.53044        45.400          29.900
  22347655.789                                    22347661.484   117437703.263 7
  91509923.71444        42.900          26.200
  21487236.188                    21487241.418    21487241.297   112916225.185 8
  87986698.767 7        48.200          46.300
  21237371.352                    21237377.754    21237377.750   111603101.036 8
  86963543.638 7        48.400          46.600
  24924909.328                    24924920.008                   130981266.267 5
 102063395.294 5        34.900          35.200
  21980074.922                    21980080.152    21980080.266   115506075.145 7
  90004758.524 7        46.300          44.900
  20145727.672                    20145736.477                   105866518.870 8
  82493450.702 8        52.300          51.400
 14  1  8  0 39 30.0000000  0  8G04G02G14G12G29G24G31G25
  23906810.125                                    23906817.578   125631289.914 6
  97894406.88143        40.200          19.000
  22981300.781                                    22981304.016   120767565.613 7
  94104622.80245        45.200          30.900
  22361567.133                                    22361572.887   117510808.153 7
  91566888.56544        42.900          26.800
  21501224.898                    21501230.891    21501230.711   112989740.345 8
  88043983.286 7        48.400          46.000
  21223239.672                    21223246.484    21223246.363   111528839.681 8
  86905677.758 7        48.400          46.300
  24946446.242                    24946456.863                   131094444.330 5
 102151586.020 5        34.600          35.200
  21966020.086                    21966025.727    21966025.547   115432215.251 7
  89947205.360 7        46.900          45.000
  20146144.922                    20146153.844                   105868711.101 8
  82495158.930 8        52.500          51.100
 14  1  8  0 40  0.0000000  0  8G04G02G14G12G29G24G31G25
  23917332.570                                    23917341.078   125686593.669 6
  97937500.65042        40.000          17.800
  22975977.695                                    22975981.867   120739594.882 7
  94082827.42544        44.800          29.900
  22375561.211                                    22375567.434   117584351.690 7
  91624195.18344        43.000          26.600
  21515268.492                    21515274.016    21515273.895   113063535.564 8
  88101486.044 7        48.300          46.000
  21209193.086                    21209199.605    21209199.543   111455023.832 8
  86848159.021 7        48.800          46.400
  24967997.461                    24968006.383                   131207693.563 5
 102239832.182 5        34.300          34.800
  21952028.859                    21952034.617    21952034.555   115358692.558 7
  89889914.944 7        46.800          44.300
  20146646.117                    20146654.805                   105871344.009 8
  82497210.540 8        52.100          51.200
 14  1  8  0 40 30.0000000  0  8G04G02G14G12G29G24G31G25
  23927961.430                                    23927969.527   125742444.002 6
  97981020.34743        40.200          18.300
  22970752.328                                    22970756.441   120712135.963 7
  94061430.87745        45.300          30.400
  22389639.250                                    22389645.414   117658328.283 7
  91681839.24644        42.900          26.800
  21529363.242                    21529369.176    21529369.055   113137606.659 8
  88159203.766 7        48.500          46.200
  21195230.680                    21195237.668    21195237.605   111381652.406 7
  86790986.556 7        47.800          46.700
  24989562.031                    24989570.484                   131321009.537 5
 102328130.336 5        35.000          35.200
  21938101.844                    21938107.660    21938107.598   115285505.983 7
  89832886.445 7        47.600          44.600
  20147230.250                    20147239.406                   105874414.345 8
  82499603.003 8        52.500          51.000
 14  1  8  0 41  0.0000000  0  8G04G02G14G12G29G24G31G25
  23938693.180                                    23938701.102   125798837.101 6
  98024962.97242        39.200          17.800
  22965624.258                                    22965628.547   120685188.489 7
  94040432.85744        45.000          29.400
  22403797.875                                    22403804.215   117732733.801 7
  91739817.50444        43.000          25.500
  21543510.672                    21543516.137    21543516.016   113211950.211 8
  88217133.799 7        48.600          45.800
  21181353.016                    21181359.242    21181359.355   111308725.293 8
  86734160.291 7        48.700          46.400
  25011136.078                    25011145.938                   131434388.575 5
 102416477.661 5        34.500          34.700
  21924239.617                    21924244.965    21924244.961   115212655.962 7
  89776120.198 7        47.600          45.100
  20147897.711                    20147906.164                   105877920.095 8
  82502334.742 8        52.100          51.600
 14  1  8  0 41 30.0000000  0  8G04G02G14G12G29G24G31G25
  23949528.367                                    23949535.996   125855774.077 6
  98069329.36842        39.600          16.900
  22960594.813                                    22960599.102   120658756.744 7
  94019836.69844        45.700          29.600
  22418038.727                                    22418044.539   117807568.662 7
  91798130.33844        42.700          25.500
  21557709.914                    21557715.672    21557715.492   113286567.379 8
  88275277.034 7        48.700          45.800
  21167561.336                    21167567.270    21167567.324   111236247.355 8
  86677684.036 7        48.900          46.500
  25032722.977                    25032733.891                   131547832.083 5
 102504875.201 5        35.300          35.900
  21910441.156                    21910447.148    21910447.145   115140147.610 7
  89719620.183 7        47.300          45.000
  20148647.820                    20148657.211                   105881864.217 8
  82505408.083 8        52.300          51.000
 14  1  8  0 42  0.0000000  0  8G04G02G14G12G29G24G31G25
  23960465.820                                    23960473.098   125913251.613 6
  98114116.99442        38.700          17.400
  22955663.203                                    22955666.086   120632840.624 7
  93999642.32145        45.500          30.200
  22432360.375                                    22432367.008   117882828.843 7
  91856774.60944        43.000          24.300
  21571960.141                    21571966.016    21571965.953   113361456.106 8
  88333631.871 7        48.400          46.000
  21153854.609                    21153861.246    21153861.125   111164218.897 8
  86621558.039 7        49.400          46.200
  25054322.461                    25054333.141                   131661337.031 5
 102593320.612 5        33.700          35.000
  21896708.570                    21896713.859    21896714.031   115067981.501 7
  89663386.849 7        47.100          44.600
  20149481.656                    20149490.285                   105886245.135 8
  82508821.789 8        52.400          51.300
 14  1  8  0 42 30.0000000  0  8G04G02G14G12G29G24G31G25
  23971505.203                                    23971514.063   125971269.377 6
  98159325.54342        38.400          16.900
  22950830.266                                    22950833.676   120607442.742 7
  93979851.78044        45.600          29.700
  22446762.508                                    22446768.965   117958513.731 7
  91915749.80344        42.100          25.800
  21586263.453                    21586269.270    21586268.914   113436617.337 8
  88392199.045 7        48.500          46.300
  21140233.617                    21140240.664    21140240.602   111092643.179 8
  86565784.835 7        48.900          46.500
  25075933.578                    25075944.141                   131774902.949 5
 102681813.540 5        34.500          35.100
  21883041.617                    21883047.668    21883047.371   114996161.318 7
  89607423.080 7        47.200          45.200
  20150398.570                    20150408.020                   105891064.358 8
  82512577.029 8        51.900          50.800
 14  1  8  0 43  0.0000000  0  8G04G02G14G12G29G24G31G25
  23982648.281                                    23982656.730   126029822.848 6
  98204951.53742        38.400          16.300
  22946095.648                                    22946099.527   120582561.702 7
  93960463.95945        45.600          30.300
  22461245.164                                    22461251.445   118034618.096 7
  91975051.85344        42.000          25.800
  21600616.750                    21600622.742    21600622.621   113512046.677 8
  88450975.139 7        48.100          45.900
  21126699.898                    21126706.184    21126705.945   111021519.378 8
  86510363.749 7        48.900          46.700
  25097555.914                    25097566.359                   131888526.340 5
 102770351.275 5        33.200          35.400
  21869440.281                    21869445.570    21869445.801   114924686.644 7
  89551728.526 7        47.600          44.700
  20151398.492                    20151407.297                   105896319.119 8
  82516671.650 8        51.700          51.000
 14  1  8  0 43 30.0000000  0  8G04G02G14G12G29G24G31G25
  23993892.180                                    23993900.512   126088911.343 6
  98250994.42942        37.500          15.600
  22941460.063                                    22941463.473   120558199.761 7
  93941480.63045        45.400          30.600
  22475806.578                                    22475813.094   118111140.494 7
  92034679.64244        42.200          24.200
  21615021.625                    21615027.383    21615027.320   113587743.986 8
  88509960.042 7        49.100          46.000
  21113251.742                    21113257.969    21113258.082   110950850.257 8
  86455296.895 7        48.900          45.600
  25119187.938                    25119198.207                   132002206.402 5
 102858933.147 5        33.400          35.000
  21855906.047                    21855910.926    21855910.805   114853560.689 7
  89496305.707 7        47.200          45.900
  20152481.563                    20152490.191                   105902010.426 8
  82521106.437 8        52.000          51.200
 14  1  8  0 44  0.0000000  0  8G04G02G14G12G29G24G31G25
  24005238.578                                    24005245.387   126148531.760 6
  98297451.80742        37.900          15.600
  22936922.266                                    22936925.910   120534357.274 7
  93922902.07345        46.000          30.200
  22490447.031                                    22490453.488   118188077.557 6
  92094630.57244        41.600          24.500
  21629476.516                    21629482.742    21629482.504   113663706.727 8
  88569151.764 7        48.300          46.600
  21099890.445                    21099897.199    21099896.668   110880636.686 8
  86400585.036 7        49.100          46.900
  25140830.547                    25140841.578                   132115940.746 5
 102947557.312 5        32.900          34.900
  21842437.445                    21842443.320    21842443.434   114782784.660 7
  89441155.552 7        46.500          45.200
  20153647.094                    20153656.191                   105908137.057 8
  82525880.427 8        52.300          51.100
 14  1  8  0 44 30.0000000  0  8G04G02G14G12G29G24G31G25
  24016684.945                                    24016692.398   126208684.178 6
  98344323.73342        38.600          15.600
  22932485.313                                    22932489.133   120511037.637 7
  93904730.92945        45.400          30.100
  22505166.633                                    22505173.500   118265428.854 6
  92154904.28244        41.800          24.400
  21643982.836                    21643988.359    21643988.297   113739936.396 8
  88628551.484 7        48.600          46.400
  21086616.789                    21086623.074    21086623.070   110810882.447 8
  86346231.085 7        49.600          47.200
  25162484.953                    25162494.930                   132229729.904 5
 103036224.193 5        32.600          34.500
  21829036.727                    21829042.426    21829042.422   114712362.785 7
  89386281.365 7        47.800          45.000
  20154896.250                    20154905.348                   105914701.179 8
  82530995.327 8        51.400          51.300
 14  1  8  0 45  0.0000000  0  8G04G02G14G12G29G24G31G25
  24028231.852                                    24028240.477   126269365.957 6
  98391608.25242        38.300          16.300
  22928146.727                                    22928150.840   120488241.233 7
  93886967.49445        45.500          30.000
  22519964.461                                    22519970.684   118343190.747 6
  92215497.97644        41.500          25.700
  21658539.156                    21658545.148    21658544.793   113816431.221 8
  88688157.834 7        48.400          46.400
  21073430.492                    21073437.129    21073436.715   110741588.534 8
  86292235.817 7        50.200          46.500
  25184147.516                    25184158.313                   132343571.272 5
 103124931.780 5        31.300          34.900
  21815703.430                    21815708.777    21815708.891   114642296.344 8
  89331684.141 7        48.200          45.900
  20156228.688                    20156237.316                   105921701.693 8
  82536450.274 8        51.300          51.100
 14  1  8  0 45 30.0000000  0  8G04G02G14G12G29G24G31G25
  24039879.609                                    24039887.004   126330572.312 6
  98439301.43642        38.900          16.300
  22923908.078                                    22923912.309   120465966.454 7
  93869610.53045        46.300          30.100
  22534839.438                                    22534845.367   118421358.593 7
  92276407.98844        42.000          25.200
  21673145.359                    21673151.879    21673151.758   113893186.668 8
  88747967.244 7        48.400          45.800
  21060331.828                    21060337.996    21060337.992   110672753.919 8
  86238598.461 7        50.200          46.600
  25205819.266                    25205829.887                   132457460.719 5
 103213676.798 5        30.700          34.000
  21802437.969                    21802443.023    21802443.195   114572584.750 7
  89277363.429 7        47.900          45.900
  20157643.617                    20157652.422                   105929135.873 8
  82542243.141 8        52.000          51.400
 14  1  8  0 46  0.0000000  0  8G04G02G14G12G29G24G31G25
  24051627.461                                    24051635.266   126392304.891 6
  98487404.66942        38.600          16.300
  22919769.633                                    22919773.043   120444217.728 7
  93852663.47144        45.700          29.900
  22549791.703                                    22549797.516   118499933.065 6
  92337634.86844        41.700          25.800
  21687801.484                    21687807.770    21687807.941   113970204.953 8
  88807981.461 7        49.400          46.400
  21047321.391                    21047327.676    21047327.672   110604383.615 8
  86185322.822 7        50.500          46.900
  25227501.023                    25227513.051                   132571400.348 5
 103302460.936 5        30.800          33.800
  21789241.016                    21789246.363    21789246.242   114503233.827 8
  89223323.751 7        48.100          45.500
  20159141.125                    20159150.105                   105937007.052 8
  82548376.530 8        52.500          51.600
 14  1  8  0 46 30.0000000  0  8G04G02G14G12G29G24G31G25
  24063473.570                                    24063481.199   126454557.831 6
  98535913.43442        38.300          16.900
  22915730.414                                    22915734.352   120422992.421 7
  93836124.28145        45.900          30.900
  22564819.773                                    22564826.641   118578907.691 6
  92399173.52244        41.800          24.300
  21702507.000                    21702512.699    21702512.754   114047481.659 8
  88868197.059 7        49.100          46.300
  21034399.047                    21034405.801    21034405.680   110536475.729 8
  86132407.548 7        50.700          46.500
  25249191.672                    25249203.055                   132685385.004 5
 103391280.170 5        30.700          33.900
  21776111.734                    21776117.961    21776117.781   114434241.569 8
  89169563.554 7        48.300          46.000
  20160721.195                    20160730.293                   105945311.294 8
  82554847.365 8        51.700          51.200
 14  1  8  0 47  0.0000000  0  8G04G02G14G12G29G24G31G25
  24075419.445                                    24075427.074   126517332.552 6
  98584828.77042        38.400          17.400
  22911792.313                                    22911796.250   120402295.587 7
  93819996.87545        45.800          31.800
  22579924.797                                    22579931.313   118658283.899 6
  92461025.08143        41.800          23.400
  21717261.820                    21717267.695    21717267.457   114125019.273 8
  88928615.956 7        49.300          46.700
  21021565.422                    21021572.352    21021571.938   110469035.552 8
  86079856.751 7        50.600          47.000
  25270892.047                    25270902.375                   132799416.382 4
 103480135.815 5        29.100          33.600
  21763052.461                    21763058.512    21763058.273   114365614.138 8
  89116087.638 7        48.600          45.800
  20162384.672                    20162393.242                   105954052.211 8
  82561658.469 8        52.100          51.500
 14  1  8  0 47 30.0000000  0  8G04G02G14G12G29G24G31G25
  24087463.805                                    24087471.727   126580628.117 6
  98634149.94742        38.400          16.300
  22907954.672                                    22907958.199   120382128.789 7
  93804282.48745        46.200          31.700
  22595105.414                                    22595112.281   118738059.648 6
  92523187.98044        41.700          24.100
  21732066.469                    21732072.168    21732072.281   114202817.248 8
  88989237.734 7        48.600          46.300
  21008821.992                    21008828.043    21008828.156   110402065.800 8
  86027672.564 7        50.600          46.600
  25292601.367                    25292610.582                   132913494.04815
 103569027.53415        30.300          33.600
  21750062.992                    21750068.809    21750068.629   114297354.437 8
  89062898.267 7        48.400          45.700
  20164131.609                    20164140.063                   105963230.345 8
  82568810.263 8        52.100          51.500
 14  1  8  0 48  0.0000000  0  8G04G02G14G12G29G24G31G25
  24099605.953                                    24099614.578   126644437.136 6
  98683871.13542        37.900          15.600
  22904216.828                                    22904220.473   120362488.321 7
  93788978.23345        45.600          31.000
  22610361.039                                    22610366.969   118818227.517 6
  92585656.42644        41.600          24.800
  21746919.008                    21746925.293    21746925.055   114280868.831 8
  89050057.125 7        49.200          46.100
  20996166.375                    20996173.012    20996172.949   110335562.986 8
  85975852.232 7        49.400          47.300
  25314315.688                    25314326.484                   133027610.62514
 103657949.56415        29.600          32.900
  21737143.000                    21737148.523    21737148.461   114229459.357 7
  89009993.019 7        47.300          46.200
  20165960.016                    20165969.113                   105972840.488 8
  82576298.685 8        52.400          51.400
 14  1  8  0 48 30.0000000  0  8G04G02G14G12G29G24G31G25
  24111845.289                                    24111853.738   126708759.676 6
  98733992.55642        37.500          15.600
  22900580.328                                    22900583.855   120343377.144 7
  93774086.40845        45.800          30.100
  22625691.250                                    22625697.707   118898786.966 6
  92648430.02343        41.000          23.900
  21761820.047                    21761826.215    21761826.270   114359175.488 8
  89111075.276 7        49.400          45.400
  20983600.641                    20983607.512    20983607.391   110269530.798 8
  85924398.619 7        48.900          47.100
  25336039.289                    25336049.559                   133141767.708 5
 103746903.136 5        31.300          34.600
  21724293.586                    21724298.992    21724299.105   114161933.432 7
  88957375.415 7        46.500          45.900
  20167871.500                    20167880.656                   105982884.615 8
  82584125.269 8        52.100          51.400
 14  1  8  0 49  0.0000000  0  8G04G02G14G12G29G24G31G25
  24124182.727                                    24124191.469   126773592.575 5
  98784511.65242        35.600          15.600
  22897044.734                                    22897048.203   120324795.176 7
  93759606.96445        44.900          31.000
  22641095.164                                    22641100.801   118979734.119 6
  92711505.72444        41.100          24.700
  21776769.516                    21776775.625    21776775.563   114437734.537 8
  89172290.101 7        49.100          45.600
  20971125.266                    20971131.375    20971131.488   110203969.485 8
  85873311.853 7        51.000          46.500
  25357771.094                    25357779.898                   133255962.068 5
 103835885.779 5        30.800          34.000
  21711513.680                    21711518.969    21711518.848   114094777.074 8
  88905045.791 7        48.800          46.100
  20169864.984                    20169874.258                   105993361.319 8
  82592288.926 8        52.700          50.500
 14  1  8  0 49 30.0000000  0  8G04G02G14G12G29G24G31G25
  24136627.297                                    24136636.977   126838991.060 5
  98835471.57742        35.500          15.600
  22893620.125                                    22893624.180   120306800.844 7
  93745585.40145        45.000          30.200
  22656582.688                                    22656588.734   119061124.078 6
  92774926.46743        40.400          22.600
  21791777.898                    21791783.891    21791783.711   114516602.740 8
  89233745.836 7        49.300          45.200
  20958749.813                    20958756.508    20958756.328   110138938.128 8
  85822638.042 7        50.600          46.500
  25379517.453                    25379528.660                   133370249.54714
 103924940.97615        29.600          32.300
  21698816.578                    21698821.633    21698821.453   114028050.290 8
  88853050.904 7        48.900          45.600
  20171951.719                    20171960.699                   106004327.946 8
  82600834.340 8        52.300          50.500
 14  1  8  0 50  0.0000000  0  7G04G02G14G12G29G31G25
  24149169.508                                    24149178.953   126904899.780 5
  98886828.85042        35.000          14.800
  22890297.906                                    22890301.551   120289341.891 7
  93731981.03245        45.000          31.000
  22672144.258                                    22672150.598   119142900.724 6
  92838648.52843        41.300          23.200
  21806834.516                    21806840.273    21806839.918   114595725.467 8
  89295399.896 7        49.400          45.300
  20946465.961                    20946472.773    20946472.418   110074385.376 8
  85772337.202 7        51.000          47.400
  21686190.648                    21686196.230    21686196.461   113961701.737 8
  88801350.736 7        48.900          46.000
  20174121.836                    20174130.289                   106015731.007 8
  82609719.824 8        52.200          50.700
 14  1  8  0 50 30.0000000  0  7G04G02G14G12G29G31G25
  24161805.531                                    24161815.152   126971302.907 5
  98938571.50642        35.800          15.600
  22887074.570                                    22887078.625   120272405.298 7
  93718783.69545        43.700          31.200
  22687776.305                                    22687782.996   119225047.861 6
  92902659.25043        39.700          22.300
  21821936.375                    21821942.133    21821942.012   114675087.736 8
  89357240.609 7        49.100          45.500
  20934270.609                    20934277.188    20934277.242   110010298.954 8
  85722399.756 7        50.200          46.700
  21673634.508                    21673639.738    21673639.734   113895719.912 8
  88749936.327 7        49.300          45.900
  20176372.422                    20176380.992                   106027556.493 8
  82618934.477 8        52.300          50.900
 14  1  8  0 51  0.0000000  0  7G04G02G14G12G29G31G25
  24174524.148                                    24174532.480   127038133.510 5
  98990647.24142        35.400          16.900
  22883938.953                                    22883942.773   120255927.718 7
  93705944.03445        45.100          30.000
  22703465.094                                    22703472.781   119307498.252 6
  92966906.29143        40.900          22.900
  21837071.844                    21837078.012    21837077.832   114754623.734 8
  89419216.691 7        48.700          45.800
  20922152.352                    20922159.047    20922158.984   109946615.723 8
  85672776.464 7        49.800          47.200
  21661136.266                    21661142.141    21661142.313   113830042.300 8
  88698758.972 7        48.500          45.900
  20178690.734                    20178699.188                   106039739.780 8
  82628427.956 8        51.800          51.000
 14  1  8  0 51 30.0000000  0  7G04G02G14G12G29G31G25
  24187335.586                                    24187345.734   127105462.200 6
  99043111.11442        36.200          13.900
  22880905.156                                    22880908.801   120239982.637 7
  93693519.30145        44.100          30.500
  22719226.742                                    22719233.375   119390321.697 6
  93031443.99243        39.000          22.900
  21852253.680                    21852259.848    21852259.492   114834404.955 8
  89481383.848 7        48.900          45.300
  20910124.586                    20910131.047    20910130.984   109883409.594 8
  85623524.919 7        50.000          46.600
  21648710.453                    21648716.035    21648715.855   113764743.628 8
  88647876.893 7        48.500          46.300
  20181090.914                    20181100.305                   106052353.244 8
  82638256.632 8        51.600          50.700
 14  1  8  0 52  0.0000000  0  7G04G02G14G12G29G31G25
  24200258.469                                    24200268.266   127173368.443 6
  99096025.03542        37.400          16.300
  22877987.766                                    22877991.469   120224652.613 7
  93681573.85045        45.000          30.300
  22735073.563                                    22735080.078   119473597.444 6
  93096334.12743        39.600          22.800
  21867497.797                    21867503.438    21867503.316   114914511.965 8
  89543804.878 7        49.100          45.400
  20898203.148                    20898210.020    20898210.016   109820764.041 8
  85574710.199 7        49.800          46.800
  21636372.703                    21636378.227    21636378.281   113699907.863 8
  88597355.517 7        48.500          46.300
  20183588.484                    20183597.523                   106065478.242 8
  82648483.877 8        52.300          50.800
 14  1  8  0 52 30.0000000  0  7G04G02G14G12G29G31G25
  24213259.398                                    24213269.137   127241691.815 6
  99149263.91142        37.200          15.600
  22875157.391                                    22875160.918   120209780.455 7
  93669985.16945        42.600          30.200
  22750976.273                                    22750983.082   119557164.823 6
  93161451.50543        40.500          22.600
  21882772.734                    21882778.844    21882778.664   114994785.214 8
  89606355.448 7        49.100          45.300
  20886359.289                    20886365.281    20886365.160   109758522.411 8
  85526210.146 7        49.500          46.700
  21624093.141                    21624099.367    21624099.070   113635378.730 8
  88547073.078 7        49.100          46.400
  20186153.422                    20186162.871                   106078956.523 8
  82658986.431 8        51.800          50.800
 14  1  8  0 53  0.0000000  0  7G04G02G14G12G29G31G25
  24226354.680                                    24226364.242   127310506.332 6
  99202885.60842        37.200          15.600
  22872429.438                                    22872433.023   120195442.841 6
  93658813.02045        41.700          30.400
  22766947.961                                    22766954.535   119641097.115 6
  93226853.27643        40.800          22.600
  21898094.570                    21898100.621    21898100.500   115075300.306 8
  89669094.484 7        49.200          45.400
  20874606.750                    20874613.035    20874612.973   109696762.671 8
  85478085.675 7        49.900          47.000
  21611886.664                    21611892.715    21611892.535   113571234.559 8
  88497090.612 7        48.800          46.200
  20188799.961                    20188808.824                   106092863.982 8
  82669823.411 8        51.700          50.900
 14  1  8  0 53 30.0000000  0  7G04G02G14G12G29G31G25
  24239558.625                                    24239568.012   127379890.962 6
  99256951.52642        37.200          14.800
  22869818.109                                    22869821.520   120181722.206 7
  93648121.62644        43.400          29.800
  22783003.758                                    22783010.859   119725472.975 6
  93292600.64043        40.600          22.800
  21913477.180                    21913483.465    21913483.520   115156136.752 8
  89732083.922 7        49.200          45.200
  20862961.500                    20862968.723    20862968.367   109635567.309 8
  85430400.938 7        49.200          47.300
  21599769.836                    21599775.242    21599775.121   113507558.785 7
  88447473.122 7        47.900          46.400
  20191543.398                    20191552.730                   106107281.739 8
  82681058.016 8        52.200          50.900
 14  1  8  0 54  0.0000000  0  7G04G02G14G12G29G31G25
  24252841.195                                                   127449686.001 6
                        37.100
  22867294.820                                    22867298.992   120168461.679 7
  93637788.76845        42.400          30.400
  22799114.430                                    22799120.652   119810132.350 6
  93358568.98043        40.900          22.300
  21928890.836                    21928896.652    21928896.590   115237136.394 8
  89795200.516 7        48.700          45.500
  20851394.313                    20851400.949    20851401.004   109574780.368 8
  85383034.427 7        50.700          47.300
  21587712.164                    21587717.922    21587717.801   113444195.904 8
  88398099.455 7        49.000          46.700
  20194354.016                    20194362.820                   106122051.897 8
  82692567.197 8        51.600          51.500
 14  1  8  0 54 30.0000000  0  7G04G02G14G12G29G31G25
  24266213.953                                                   127519966.979 6
                        36.600
  22864873.141                                    22864877.547   120155739.981 6
  93627875.76245        41.100          30.200
  22815292.070                                    22815299.172   119895150.190 6
  93424816.62243        41.100          22.000
  21944350.094                    21944356.730    21944356.727   115318375.605 8
  89858503.765 7        48.900          45.500
  20839919.648                    20839926.285    20839926.047   109514481.250 8
  85336048.111 7        50.200          47.300
  21575729.367                    21575735.008    21575734.887   113381225.975 8
  88349031.987 7        49.100          46.600
  20197246.703                    20197255.508                   106137252.202 8
  82704411.615 8        51.900          51.000
 14  1  8  0 55  0.0000000  0  7G04G02G14G12G29G31G25
  24279695.102                                                   127590806.678 5
                        35.900
  22862569.688                                    22862573.566   120143632.906 6
  93618441.69245        41.800          30.100
  22831553.273                                    22831559.613   119980598.701 6
  93491399.84343        41.300          22.300
  21959869.195                    21959874.953    21959874.773   115399927.929 8
  89922050.995 7        48.900          45.400
  20828552.586                    20828559.105    20828559.160   109454746.201 8
  85289501.411 7        49.900          47.000
  21563836.180                    21563841.703    21563841.699   113318725.981 8
  88300330.692 7        48.400          47.000
  20200235.633                    20200244.320                   106152957.269 8
  82716649.328 8        52.000          51.100
 14  1  8  0 55 30.0000000  0  7G04G02G14G12G29G31G25
  24293252.141                                                   127662051.730 5
                        35.800
  22860354.477                                    22860358.824   120131990.094 7
  93609369.37944        42.100          29.600
  22847866.203                                    22847872.543   120066324.458 6
  93558199.10043        41.000          22.600
  21975418.602                    21975424.828    21975424.824   115481641.893 8
  89985724.194 7        48.100          45.400
  20817264.516                    20817270.684    20817270.621   109395425.930 8
  85243277.937 7        50.000          46.300
  21552003.367                    21552009.008    21552009.063   113256547.155 8
  88251879.666 7        49.000          46.800
  20203291.281                    20203299.852                   106169015.823 8
  82729162.448 8        51.800          51.300
 14  1  8  0 56  0.0000000  0  7G04G02G14G12G29G31G25
  24306900.039                                                   127733775.001 5
                        34.600
  22858241.609                                    22858245.488   120120887.221 7
  93600717.80144        43.300          29.700
  22864245.414                                    22864251.988   120152399.531 6
  93625270.54843        40.200          22.300
  21991013.008                    21991019.117    21991018.879   115563590.798 8
  90049580.474 7        48.300          45.800
  20806069.414                    20806075.582    20806075.461   109336596.355 8
  85197436.764 7        50.700          46.700
  21540247.680                    21540253.496    21540253.375   113194766.213 8
  88203738.678 7        48.900          46.300
  20206428.516                    20206437.262                   106185502.622 8
  82742009.313 8        51.400          50.900
 14  1  8  0 56 30.0000000  0  7G04G02G14G12G29G31G25
  24320655.391                                                   127806051.368 5
                        34.100
  22856246.453                                    22856250.566   120110402.688 7
  93592548.03144        42.600          29.600
  22880706.195                                    22880712.887   120238898.835 6
  93692672.55143        40.700          22.600
  22006666.273                    22006672.676    22006672.789   115645851.035 8
  90113679.337 7        48.400          45.200
  20794982.836                    20794989.121    20794989.059   109278336.579 8
  85152039.569 7        49.900          47.200
  21528581.625                    21528587.441    21528587.438   113133462.774 8
  88155969.764 7        49.600          46.900
  20209662.000                    20209670.688                   106202494.819 8
  82755249.963 8        52.100          51.500
 14  1  8  0 57  0.0000000  0  7G04G02G14G12G29G31G25
  24334484.109                                                   127878726.381 5
                        34.300
  22854340.414                                    22854343.824   120100385.137 7
  93584742.15545        42.100          30.400
  22897218.797                                    22897223.789   120325667.307 6
  93760284.32443        40.900          22.300
  22022350.422                    22022357.059    22022356.820   115728269.450 8
  90177901.446 7        48.500          45.000
  20783975.797                    20783982.785    20783982.781   109220495.999 8
  85106969.016 7        50.900          47.900
  21516978.695                    21516984.277    21516984.449   113072487.105 8
  88108456.264 7        49.500          47.000
  20212962.633                    20212971.145                   106219840.160 8
  82768765.851 8        51.400          50.900
 14  1  8  0 57 30.0000000  0  7G04G02G14G12G29G31G25
  24348402.352                                                   127951870.836 5
                        32.900
  22852536.430                                    22852540.191   120090907.556 7
  93577357.02044        43.100          29.100
  22913793.727                                    22913800.125   120412775.216 6
  93828160.60343        40.900          21.500
  22038077.766                    22038083.875    22038083.813   115810917.609 8
  90242302.589 7        48.300          44.700
  20773063.461                    20773069.336    20773069.215   109163148.568 8
  85062282.709 7        50.700          47.800
  21505451.570                    21505457.211    21505457.207   113011913.792 8
  88061256.282 7        49.300          46.800
  20216344.383                    20216353.363                   106237611.020 8
  82782613.264 8        51.800          51.000
 14  1  8  0 58  0.0000000  0  7G04G02G14G12G29G31G25
  24362425.953                                                   128025562.053 5
                        33.100
  22850850.977                                    22850854.738   120082050.590 7
  93570455.49244        44.100          29.900
  22930449.195                                    22930455.594   120500299.744 6
  93896361.48744        40.600          24.200
  22053864.438                    22053869.844    22053869.547   115893874.312 8
  90306944.141 7        48.000          44.700
  20762259.711                    20762266.348    20762266.461   109106375.411 8
  85018043.839 7        50.400          47.800
  21494016.727                    21494022.074    21494021.953   112951824.444 8
  88014433.418 7        49.200          46.900
  20219821.984                    20219830.613                   106255886.880 8
  82796854.187 8        51.500          51.600
 14  1  8  0 58 30.0000000  0  7G04G02G14G12G29G31G25
  24376522.344                                                   128099642.116 5
                        33.800
  22849254.289                                    22849258.461   120073659.490 7
  93563916.97944        42.900          29.900
  22947153.727                                    22947160.359   120588082.200 6
  93964763.35543        40.400          23.200
  22069679.313                    22069685.246    22069685.008   115976982.519 7
  90371703.744 7        47.900          45.000
  20751536.039                    20751542.266    20751542.379   109050022.485 8
  84974132.555 8        48.100          48.400
  21482645.188                    21482650.652    21482650.824   112892065.544 7
  87967868.043 7        46.200          46.300
  20223365.992                    20223375.383                   106274511.831 8
  82811367.123 8        51.000          50.900
 14  1  8  0 59  0.0000000  0  7G04G02G14G12G29G31G25
  24390707.633                                                   128174183.520 5
                        34.300
  22847760.477                                    22847764.063   120065810.333 7
  93557800.76444        43.200          28.900
  22963920.766                                    22963927.223   120676195.087 6
  94033422.71743        41.000          22.300
  22085536.906                    22085543.309    22085543.422   116060316.790 8
  90436639.492 7        48.200          44.800
  20740907.008                    20740913.469    20740913.406   108994166.382 8
  84930608.362 7        51.000          47.600
  21471351.188                    21471357.180    21471357.176   112832714.988 8
  87921620.859 7        49.100          46.700
  20226991.156                    20227000.430                   106293561.020 8
  82826210.627 8        50.900          51.100
 14  1  8  0 59 30.0000000  0  7G04G02G14G12G29G31G25
  24404995.523                                                   128249265.069 5
                        34.000
  22846385.984                                    22846389.570   120058583.852 7
  93552169.74945        44.300          30.000
  22980766.500                                    22980772.371   120764716.596 6
  94102400.51343        41.400          22.500
  22101453.711                    22101459.059    22101458.938   116143956.542 8
  90501813.285 7        48.000          44.600
  20730387.938                    20730394.398    20730394.512   108938888.946 8
  84887535.133 7        49.400          47.900
  21460151.070                    21460156.359    21460156.355   112773855.353 7
  87875756.209 7        47.800          46.900
  20230711.945                    20230721.219                   106313114.765 8
  82841447.329 8        51.800          51.000
 14  1  8  1  0  0.0000000  4  5
MORP (COGO code)                                            COMMENT
   0.033      (antenna height)                              COMMENT
 +55.21279000 (latitude)                                    COMMENT
  -1.68549700 (longitude)                                   COMMENT
0144.425      (elevation)                                   COMMENT
 14  1  8  1  0  0.0000000  0  7G04G02G14G12G29G31G25
  24419355.563                                                   128324729.106 5
                        34.500
  22845100.023                                    22845103.902   120051825.680 7
  93546903.64444        42.800          29.900
  22997658.914                                    22997665.371   120853488.952 6
  94171573.76643        41.400          22.600
  22117397.734                    22117403.551    22117403.313   116227745.238 7
  90567103.137 7        47.500          44.600
  20719949.938                    20719956.223    20719956.219   108884036.882 8
  84844793.332 7        50.900          47.500
  21449013.977                    21449020.203    21449020.141   112715333.315 8
  87830154.618 7        49.100          47.200
  20234499.367                    20234508.875                   106333017.722 8
  82856956.142 8        50.700          51.000
 14  1  8  1  0 30.0000000  0  7G04G02G14G12G29G31G25
  24433803.180                                                   128400648.081 5
                        35.200
  22843916.398                                    22843920.805   120045611.338 7
  93542061.30844        44.300          29.800
  23014613.531                                    23014619.168   120942584.178 6
  94240998.60843        41.100          23.000
  22133384.508                    22133390.500    22133390.613   116311756.941 7
  90632566.760 7        47.100          44.100
  20709607.211                    20709613.496    20709613.434   108829685.857 8
  84802441.941 7        50.800          47.800
  21437956.797                    21437962.496    21437962.551   112657226.148 8
  87784876.311 7        48.400          46.600
  20238367.609                    20238376.707                   106353344.470 8
  82872795.175 8        51.500          51.300
 14  1  8  1  1  0.0000000  0  7G04G02G14G12G29G31G25
  24448335.258                                                   128477017.718 5
                        35.300
  22842837.547                                    22842841.250   120039939.508 7
  93537641.69845        44.500          31.000
  23031628.008                                    23031634.465   121031997.705 6
  94310671.46743        41.600          21.300
  22149413.727                    22149419.836    22149420.008   116395988.745 7
  90698201.900 7        47.600          44.800
  20699359.672                    20699365.781    20699365.777   108775835.407 8
  84760480.613 7        50.900          47.900
  21426977.945                    21426984.289    21426984.227   112599533.644 8
  87739921.115 7        49.700          46.700
  20242315.977                    20242324.840                   106374092.673 8
  82888962.602 8        51.700          51.100
 14  1  8  1  1 30.0000000  0  7G04G02G14G12G29G31G25
  24462969.422                                                   128553921.819 6
                        36.000
  22841878.711                                    22841881.887   120034896.900 7
  93533712.39545        44.700          30.600
  23048719.078                                    23048725.887   121121813.042 6
  94380657.42243        41.700          22.500
  22165500.664                    22165506.129    22165506.066   116480526.200 7
  90764075.216 7        46.300          44.300
  20689224.367                    20689230.945    20689230.883   108722572.637 8
  84718977.153 7        51.000          47.800
  21416095.445                    21416100.969    21416101.023   112542344.144 8
  87695357.869 7        49.600          47.000
  20246360.594                    20246369.809                   106395348.424 8
  82905525.529 8        51.500          51.100
 14  1  8  1  2  0.0000000  0  7G04G02G14G12G29G31G25
  24477675.172                                                   128631193.175 5
                        35.600
  22841006.898                                    22841010.660   120030319.023 7
  93530145.22445        44.900          31.000
  23065855.102                                    23065861.793   121211862.135 6
  94450825.50243        40.600          22.500
  22181614.094                    22181619.266    22181619.262   116565202.315 7
  90830056.572 7        47.200          43.900
  20679169.367                    20679175.711    20679175.824   108669733.944 8
  84677804.101 8        50.900          48.200
  21405277.805                    21405283.328    21405283.266   112485495.178 8
  87651059.976 7        49.700          47.000
  20250470.602                    20250479.699                   106416946.134 8
  82922354.900 8        52.000          51.100
 14  1  8  1  2 30.0000000  0  7G04G02G14G12G29G31G25
  24492463.352                                                   128708909.457 6
                        36.000
  22840240.141                                    22840243.727   120026286.647 7
  93527003.11045        44.500          31.600
  23083050.766                                    23083056.871   121302222.541 6
  94521236.19943        41.100          22.300
  22197768.508                    22197774.500    22197774.379   116650096.438 7
  90896207.792 7        45.800          44.100
  20669210.953                    20669217.004    20669216.883   108617401.286 8
  84637025.377 8        50.900          48.200
  21394539.961                    21394545.074    21394545.188   112429068.262 8
  87607090.950 7        49.100          47.000
  20254660.844                    20254669.238                   106438965.915 8
  82939513.168 8        51.800          51.100
 14  1  8  1  3  0.0000000  0  7G04G02G14G12G29G31G25
  24507351.859                                                   128787150.797 5
                        34.500
  22839592.469                                    22839596.172   120022883.226 7
  93524351.09945        44.300          30.600
  23100319.578                                    23100326.211   121392974.529 6
  94591952.00743        41.000          22.500
  22213980.617                    22213986.668    22213986.371   116735290.465 7
  90962592.706 7        45.800          44.300
  20659364.391                    20659370.383    20659370.555   108565658.557 8
  84596706.330 8        50.700          48.500
  21383898.523                    21383904.398    21383904.219   112373148.247 8
  87563516.916 7        50.200          46.600
  20258947.266                    20258955.836                   106461490.332 8
  82957064.659 8        51.900          50.900
 14  1  8  1  3 30.0000000  0  7G04G02G14G12G29G31G25
  24522309.727                                                   128865753.065 5
                        34.100
  22839033.250                                    22839036.777   120019946.949 7
  93522063.08745        43.600          30.700
  23117632.195                                    23117639.121   121483953.144 6
  94662844.38643        40.600          22.900
  22230218.398                    22230224.039    22230224.035   116820621.111 7
  91029084.090 7        45.600          44.100
  20649599.492                    20649606.422    20649606.418   108514345.016 8
  84556721.686 8        50.700          48.100
  21373323.891                    21373329.648    21373329.645   112317575.822 8
  87520213.730 7        50.200          47.000
  20263298.461                    20263307.617                   106484357.002 8
  82974882.835 8        50.800          51.000
 14  1  8  1  4  0.0000000  0  7G04G02G14G12G29G31G25
  24537349.359                                                   128944790.464 5
                        32.600
  22838578.289                                    22838581.934   120017554.910 7
  93520199.15645        44.600          30.700
  23135002.656                                    23135008.586   121575232.603 6
  94733971.21343        41.000          22.200
  22246496.992                    22246502.574    22246502.629   116906164.419 7
  91095741.184 7        46.200          43.500
  20639931.555                    20639937.840    20639937.836   108463538.233 8
  84517131.932 8        50.500          48.300
  21362829.563                    21362835.086    21362834.906   112262429.257 8
  87477242.382 7        51.000          47.000
  20267729.500                    20267738.480                   106507642.222 8
  82993027.153 8        52.200          51.500
 14  1  8  1  4 30.0000000  0  7G04G02G14G12G29G31G25
  24552487.602                                                   129024346.830 5
                        31.900
  22838242.953                                    22838247.125   120015794.308 7
  93518827.25745        44.600          31.400
  23152445.281                                    23152451.738   121666896.230 6
  94805397.41443        40.200          21.500
  22262832.055                    22262837.871    22262837.691   116992005.527 7
  91162630.335 7        45.600          44.600
  20630376.508                    20630383.496    20630383.082   108413326.526 8
  84478005.959 8        51.300          48.700
  21352433.633                    21352438.980    21352438.977   112207797.591 8
  87434672.254 7        49.800          47.300
  20272256.711                    20272265.574                   106531432.276 8
  83011564.845 8        50.600          51.400
 14  1  8  1  5  0.0000000  0  7G04G02G14G12G29G31G25
  24567694.375                                                   129104254.273 5
                        31.300
  22837996.523                                    22838000.871   120014499.479 7
  93517818.30545        43.600          30.600
  23169929.469                                    23169935.281   121758775.484 6
  94876991.59043        40.500          23.000
  22279192.055                    22279198.105    22279197.691   117077977.598 7
  91229621.537 7        46.500          43.500
  20620903.234                    20620910.164    20620909.926   108363544.808 8
  84439215.020 8        50.900          48.200
  21342104.289                    21342109.461    21342109.457   112153516.573 8
  87392375.363 7        50.100          47.300
  20276848.438                    20276857.008                   106555560.868 8
  83030366.343 8        51.300          50.700
 14  1  8  1  5 30.0000000  0  7G04G02G14G12G29G31G25
  24582982.703                                                   129184591.470 5
                        31.300
  22837854.477                                    22837858.180   120013752.150 7
  93517235.97345        44.900          31.500
  23187469.266                                    23187476.250   121850949.152 6
  94948815.19443        41.100          20.600
  22295592.367                    22295598.125    22295597.770   117164161.044 7
  91296777.436 7        46.100          44.300
  20611528.008                    20611534.234    20611534.172   108314275.583 8
  84400823.396 8        50.100          48.100
  21331857.328                    21331862.500    21331862.789   112099669.190 8
  87350416.361 7        49.700          47.200
  20281519.445                    20281528.602                   106580109.145 8
  83049494.892 8        51.400          51.200
 14  1  8  1  6  0.0000000  0  7G04G02G14G12G29G31G25
  24598367.508                                                   129265437.951 5
                        31.200
  22837831.938                                    22837836.227   120013634.744 7
  93517144.49145        44.200          30.400
  23205081.117                                    23205087.223   121943496.391 6
  95020929.86443        40.800          22.300
  22312047.680                    22312053.496    22312053.492   117250636.814 7
  91364161.129 7        46.000          43.900
  20602265.828                    20602272.230    20602272.109   108265601.855 8
  84362895.850 8        51.400          48.500
  21321709.211                    21321715.086    21321715.023   112046340.042 8
  87308861.186 7        50.300          47.300
  20286286.359                    20286295.340                   106605158.799 8
  83069014.123 8        51.000          50.900
 14  1  8  1  6 30.0000000  0  7G04G02G14G12G29G31G25
  24613817.586                                                   129346631.453 4
                        28.600
  22837898.813                                    22837902.926   120013987.791 7
  93517419.59045        44.500          30.900
  23222731.250                                    23222737.883   122036254.605 6
  95093208.98043        40.400          22.000
  22328528.180                    22328534.699    22328534.520   117337243.856 7
  91431647.109 7        46.700          43.800
  20593086.586                    20593092.754    20593092.750   108217365.173 8
  84325308.814 8        51.100          48.500
  21311629.516                    21311635.391    21311635.563   111993371.365 8
  87267586.897 7        50.800          47.300
  20291118.016                    20291126.703                   106630549.609 8
  83088799.162 8        51.600          50.700
 14  1  8  1  7  0.0000000  0  7G04G02G14G12G29G31G25
  24629349.227                                                   129428244.796 5
                        30.300
  22838070.320                                    22838074.434   120014887.012 7
  93518120.28844        43.900          29.900
  23240437.445                                    23240443.434   122129296.220 6
  95165708.86943        40.600          22.000
  22345048.820                    22345054.695    22345054.867   117424056.267 7
  91499293.122 7        46.300          44.100
  20584004.953                    20584011.473    20584011.410   108169641.584 8
  84288121.504 8        50.800          48.100
  21301633.023                    21301638.664    21301638.777   111940839.962 8
  87226653.338 7        50.200          46.900
  20296028.938                    20296037.625                   106656356.359 8
  83108908.313 8        52.200          50.500
 14  1  8  1  7 30.0000000  0  7G04G02G14G12G29G31G25
  24644973.992                                                   129510359.717 4
                        29.100
  22838361.000                                    22838365.699   120016416.827 7
  93519312.34945        45.300          30.500
  23258211.813                                    23258218.152   122222702.527 6
  95238492.99543        40.500          21.700
  22361623.242                    22361629.410    22361628.996   117511157.309 7
  91567164.040 7        47.200          44.300
  20575037.203                    20575043.723    20575044.070   108122517.097 8
  84251401.127 8        50.700          48.500
  21291736.492                    21291741.605    21291741.777   111888832.371 8
  87186127.948 7        50.400          47.400
  20301035.398                    20301044.203                   106682663.063 8
  83129407.014 8        51.900          50.700
 14  1  8  1  8  0.0000000  0  7G04G02G14G12G29G31G25
  24660666.719                                                   129592811.02014
                        29.600
  22838741.492                                    22838745.430   120018414.738 7
  93520869.16044        44.600          29.900
  23276024.141                                    23276030.773   122316308.003 6
  95311432.28143        40.900          22.000
  22378221.711                    22378227.703    22378227.641   117598382.922 7
  91635132.022 7        46.400          44.300
  20566153.094                    20566159.672    20566159.668   108075829.509 8
  84215021.255 8        51.300          48.500
  21281909.023                    21281914.371    21281914.484   111837187.713 8
  87145885.360 7        50.700          47.800
  20306104.828                    20306113.516                   106709306.426 8
  83150168.070 8        51.700          50.800
 14  1  8  1  8 30.0000000  0  7G04G02G14G12G29G31G25
  24676433.914                                                   129675674.461 4
                        29.400
  22839225.828                                    22839229.766   120020960.198 7
  93522852.63145        44.500          30.200
  23293889.336                                    23293896.789   122410189.409 6
  95384586.59543        40.600          22.200
  22394859.188                    22394865.648    22394865.410   117685811.694 7
  91703258.300 7        47.100          43.700
  20557366.898                    20557373.359    20557373.297   108029659.224 8
  84179044.495 8        51.400          48.500
  21272165.930                    21272171.453    21272171.156   111785987.177 8
  87105988.842 7        50.200          47.200
  20311254.086                    20311262.598                   106736365.547 8
  83171253.112 8        52.100          50.800
 14  1  8  1  9  0.0000000  0  7G04G02G14G12G29G31G25
  24692294.250                                                   129759030.886 4
                        28.600
  22839829.758                                    22839834.164   120024135.104 7
  93525326.58845        45.400          30.100
  23311821.836                                    23311828.645   122504425.350 6
  95458017.15243        41.300          21.100
  22411549.891                    22411556.469    22411556.406   117773524.144 7
  91771605.615 7        47.000          43.900
  20548695.563                    20548702.258    20548702.313   107984088.780 8
  84143535.055 8        51.400          48.200
  21262522.961                    21262528.484    21262528.422   111735314.554 8
  87066503.683 7        50.700          47.200
  20316498.305                    20316506.758                   106763921.648 8
  83192725.367 8        52.200          50.800
 14  1  8  1  9 30.0000000  0  7G04G02G14G12G29G31G25
  24708221.156                                                   129842717.78614
                        28.300
  22840523.695                                    22840528.277   120027780.960 7
  93528167.51645        45.800          30.400
  23329791.500                                    23329798.309   122598854.286 6
  95531598.08343        40.800          21.500
  22428265.141                    22428271.133    22428271.070   117861360.780 7
  91840049.682 7        46.500          44.200
  20540107.805                    20540114.734    20540114.730   107938961.699 8
  84108371.247 8        51.000          49.000
  21252950.586                    21252956.461    21252956.516   111685012.932 8
  87027307.612 7        50.500          47.500
  20321806.047                    20321814.441                   106791815.630 8
  83214460.916 8        52.100          50.800
 14  1  8  1 10  0.0000000  0  7G04G02G14G12G29G31G25
  24724221.641                                                   129926807.16714
                        27.300
  22841321.656                                    22841325.477   120031972.501 7
  93531433.65745        45.200          30.200
  23347811.469                                    23347817.867   122693548.071 6
  95605385.40243        41.300          21.300
  22445017.352                    22445023.695    22445023.457   117949394.721 7
  91908647.515 7        46.000          44.200
  20531618.398                    20531625.328    20531625.383   107894352.039 8
  84073610.553 8        51.200          48.800
  21243464.063                    21243469.996    21243469.816   111635158.557 8
  86988460.045 7        50.500          47.600
  20327192.313                    20327200.766                   106820121.444 8
  83236517.383 8        52.300          50.700
 14  1  8  1 10 30.0000000  0  6G02G14G12G29G31G25
  22842239.328                                    22842242.914   120036795.819 7
  93535192.09045        45.100          30.700
  23365897.156                                    23365903.496   122788589.946 6
  95679443.96343        41.600          21.100
  22461823.367                    22461829.594    22461829.590   118037711.057 7
  91977465.418 7        46.100          43.900
  20523245.227                    20523251.922    20523251.801   107850346.080 8
  84039319.743 7        50.200          47.000
  21234079.219                    21234084.684    21234084.797   111585839.479 8
  86950029.602 7        50.800          47.300
  20332673.531                    20332682.746                   106848924.795 8
  83258961.553 8        52.500          50.800
 14  1  8  1 11  0.0000000  0  6G02G14G12G29G31G25
  22843247.383                                    22843250.441   120042088.339 7
  93539316.12645        45.700          30.500
  23384016.938                                    23384024.625   122883814.132 6
  95753644.57943        40.800          20.600
  22478652.258                    22478657.840    22478658.012   118126145.650 7
  92046375.457 7        45.600          44.100
  20514955.641                    20514962.570    20514962.625   107806783.640 8
  84005374.783 8        51.500          48.900
  21224765.219                    21224770.039    21224770.270   111536895.015 8
  86911891.060 7        50.700          47.500
  20338218.313                    20338227.059                   106878062.625 8
  83281666.370 8        52.100          50.600
 14  1  8  1 11 30.0000000  0  6G02G14G12G29G31G25
  22844357.820                                    22844361.875   120047927.490 7
  93543866.12344        45.600          29.900
  23402187.055                                    23402193.805   122979294.754 6
  95828045.03343        41.300          20.900
  22495517.680                    22495523.848    22495524.078   118214774.861 7
  92115437.130 7        45.800          43.200
  20506765.531                    20506771.641    20506771.637   107763743.282 8
  83971837.074 8        51.400          48.200
  21215537.578                    21215542.516    21215542.746   111488404.244 8
  86874106.049 7        50.300          46.900
  20343841.633                    20343850.203                   106907611.672 8
  83304691.599 8        51.800          49.800
 14  1  8  1 12  0.0000000  0  6G02G14G12G29G31G25
  22845588.859                                    22845592.504   120054397.961 7
  93548908.05145        46.200          30.400
  23420420.375                                    23420427.418   123075113.867 6
  95902709.21043        40.800          19.900
  22512435.461                    22512441.512    22512441.859   118303681.708 7
  92184715.137 7        46.200          43.600
  20498690.297                    20498696.758    20498696.402   107721309.998 8
  83938772.458 8        51.700          48.400
  21206412.961                    21206418.367    21206418.480   111440453.890 8
  86836742.137 7        50.500          47.200
  20349558.313                    20349567.410                   106937656.028 8
  83328102.787 8        52.100          51.000
 14  1  8  1 12 30.0000000  0  6G02G14G12G29G31G25
  22846909.641                                    22846913.461   120061336.880 7
  93554315.00545        45.600          30.000
  23438687.195                                    23438693.535   123171105.526 6
  95977507.84843        40.400          19.600
  22529376.664                    22529382.598    22529382.652   118392703.443 7
  92254082.669 7        45.800          43.800
  20490700.305                    20490706.355    20490706.410   107679320.643 8
  83906053.415 8        52.200          48.800
  21197360.523                    21197366.223    21197366.336   111392882.379 8
  86799673.428 7        50.500          47.400
  20355338.797                    20355348.188                   106968032.284 8
  83351772.584 8        51.700          50.700
 14  1  8  1 13  0.0000000  0  6G02G14G12G29G31G25
  22848333.891                                    22848337.418   120068822.740 7
  93560148.15545        45.800          30.400
  23457001.250                                    23457008.000   123267345.932 6
  96052500.33243        40.200          21.700
  22546352.961                    22546359.305    22546359.359   118481917.059 7
  92323599.737 7        44.900          43.300
  20482809.773                    20482815.766    20482815.703   107637855.404 8
  83873742.636 8        51.800          48.500
  21188395.031                    21188400.672    21188400.785   111345770.459 8
  86762962.844 7        50.600          47.300
  20361197.383                    20361206.188                   106998818.847 8
  83375762.117 8        51.200          50.800
 14  1  8  1 13 30.0000000  0  6G02G14G12G29G31G25
  22849878.594                                    22849881.887   120076939.706 7
  93566473.07145        46.100          31.000
  23475378.406                                    23475385.098   123363915.840 6
  96127749.50543        40.400          19.300
  22563382.000                    22563388.109    22563387.754   118571405.656 7
  92393331.086 7        43.900          43.100
  20475035.219                    20475041.445    20475041.441   107596999.574 8
  83841906.870 8        51.200          49.000
  21179533.828                    21179538.941    21179538.996   111299203.759 8
  86726677.107 7        50.900          47.800
  20367149.906                    20367159.121                   107030099.111 8
  83400136.332 8        51.400          50.900
 14  1  8  1 14  0.0000000  0  6G02G14G12G29G31G25
  22851512.719                                    22851515.719   120085525.747 7
  93573163.49945        46.100          31.200
  23493786.148                                    23493792.898   123460650.926 6
  96203127.43743        41.100          19.000
  22580432.594                    22580438.820    22580438.816   118661006.162 7
  92463149.630 7        45.000          43.400
  20467345.867                    20467352.328    20467352.090   107556592.109 8
  83810420.424 8        50.700          48.300
  21170745.633                    21170751.215    21170751.328   111253022.818 8
  86690691.954 7        50.400          47.600
  20373165.023                    20373174.355                   107061710.931 8
  83424768.923 8        51.500          50.700
 14  1  8  1 14 30.0000000  0  6G02G14G12G29G31G25
  22853250.242                                    22853254.121   120094658.596 7
  93580280.01045        45.200          30.000
  23512240.273                                    23512246.262   123557625.306 6
  96278691.84143        40.400          19.300
  22597518.898                    22597525.242    22597525.180   118750794.630 7
  92533114.648 7        44.000          43.400
  20459756.688                    20459763.148    20459763.203   107516711.548 8
  83779344.743 8        51.100          48.900
  21162046.313                    21162052.070    21162051.891   111207306.531 8
  86655068.878 7        50.500          47.700
  20379258.391                    20379267.488                   107093731.188 8
  83449719.766 8        50.800          50.300
 14  1  8  1 15  0.0000000  0  6G02G14G12G29G31G25
  22855107.773                                    22855111.008   120104419.175 7
  93587885.65545        45.700          30.200
  23530754.141                                    23530760.129   123654917.876 6
  96354504.16543        40.000          19.300
  22614655.875                    22614662.570    22614662.449   118840851.836 7
  92603289.082 7        45.800          43.600
  20452283.281                    20452289.742    20452289.738   107477440.269 8
  83748744.131 8        51.200          49.800
  21153450.719                    21153456.535    21153456.590   111162138.333 8
  86619872.874 7        50.700          47.600
  20385444.750                    20385453.730                   107126240.744 8
  83475051.868 8        51.100          50.700
 14  1  8  1 15 30.0000000  0  6G02G14G12G29G31G25
  22857054.367                                    22857058.656   120114650.262 7
  93595857.93445        45.300          30.600
  23549298.156                                    23549304.789   123752367.623 6
  96430438.98643        39.800          19.300
  22631814.484                    22631820.594    22631820.824   118931018.533 7
  92673548.807 7        45.000          43.600
  20444895.891                    20444902.059    20444901.820   107438619.523 8
  83718494.191 8        51.300          49.300
  21144930.352                    21144935.582    21144935.813   111117362.323 8
  86584982.480 7        50.500          47.300
  20391694.492                    20391703.707                   107159081.250 8
  83500641.851 8        51.200          50.300
 14  1  8  1 16  0.0000000  0  6G02G14G12G29G31G25
  22859105.203                                    22859109.082   120125428.440 7
  93604256.52945        45.600          30.000
  23567886.359                                    23567892.816   123850048.908 6
  96506554.23143        39.800          19.000
  22649007.711                    22649014.172    22649013.992   119021370.894 7
  92743953.220 7        45.800          44.300
  20437609.258                    20437615.309    20437615.070   107400328.494 8
  83688657.026 8        50.600          49.600
  21136499.352                    21136505.168    21136505.047   111073056.897 8
  86550458.774 7        50.200          47.500
  20398021.328                    20398030.484                   107192329.417 8
  83526549.502 8        51.200          50.700
 14  1  8  1 16 30.0000000  0  6G02G14G12G29G31G25
  22861276.008                                    22861279.887   120136832.759 7
  93613143.02245        45.500          30.600
  23586532.406                                    23586539.391   123948038.260 6
  96582909.53243        39.900          19.000
  22666251.492                    22666258.422    22666258.418   119111987.392 7
  92814563.442 7        45.100          43.800
  20430438.938                    20430445.223    20430445.277   107362647.107 8
  83659294.873 8        50.900          49.800
  21128173.453                    21128179.328    21128179.207   111029303.482 8
  86516365.204 7        50.300          47.400
  20404440.813                    20404450.027                   107226064.149 8
  83552836.298 8        51.800          50.600
 14  1  8  1 17  0.0000000  0  6G02G14G12G29G31G25
  22863535.305                                    22863539.184   120148706.474 7
  93622395.27644        44.900          29.900
  23605208.641                                    23605214.629   124046175.984 6
  96659380.45243        38.900          19.000
  22683516.063                    22683522.582    22683522.285   119202710.225 7
  92885256.520 7        45.800          44.100
  20423354.977                    20423361.145    20423361.258   107325419.017 8
  83630285.785 8        51.600          48.900
  21119923.195                    21119928.719    21119928.773   110985946.840 8
  86482580.805 7        50.700          47.900
  20410923.117                    20410931.805                   107260128.050 8
  83579379.584 8        52.100          50.900
 14  1  8  1 17 30.0000000  0  6G02G14G12G29G31G25
  22865898.820                                    22865902.758   120161125.189 7
  93632072.21044        45.600          29.700
  23623925.484                                    23623932.000   124144535.087 6
  96736023.81642        38.200          17.400
  22700814.594                    22700820.352    22700820.465   119293614.240 7
  92956090.784 7        45.700          43.200
  20416371.648                    20416378.109    20416377.813   107288721.395 8
  83601690.242 8        50.900          48.800
  21111762.867                    21111768.332    21111768.387   110943064.991 8
  86449166.377 7        50.700          47.600
  20417482.164                    20417490.734                   107294596.527 8
  83606238.113 8        52.100          50.000
 14  1  8  1 18  0.0000000  0  6G02G14G12G29G31G25
  22868380.555                                    22868384.316   120174168.753 7
  93642236.01544        45.200          29.300
  23642698.703                                    23642706.215   124243192.228 6
  96812899.48642        38.700          17.800
  22718161.766                    22718168.637    22718168.691   119384778.029 7
  93027127.485 7        45.200          43.900
  20409504.695                    20409511.273    20409511.094   107252634.434 8
  83573570.468 8        50.700          49.300
  21103708.602                    21103714.359    21103714.297   110900739.392 8
  86416185.396 7        50.800          47.500
  20424133.531                    20424142.219                   107329548.848 8
  83633473.673 8        52.200          50.200
 14  1  8  1 18 30.0000000  0  6G02G14G12G29G31G25
  22870952.375                                    22870955.727   120187681.450 7
  93652765.40345        44.700          30.900
  23661499.391                                    23661506.258   124341988.996 6
  96889883.92542        38.900          17.800
  22735529.844                    22735535.660    22735535.480   119476045.060 7
  93098244.631 7        45.500          43.800
  20402724.250                    20402730.711    20402730.707   107217003.698 8
  83545806.328 8        51.400          49.700
  21095730.945                    21095736.703    21095736.406   110858816.171 8
  86383517.954 7        51.000          47.600
  20430846.883                    20430855.688                   107364829.028 8
  83660964.726 8        51.700          49.900
 14  1  8  1 19  0.0000000  0  6G02G14G12G29G31G25
  22873626.805                                    22873630.625   120201738.413 7
  93663718.89645        44.600          30.100
  23680340.055                                    23680347.742   124440998.446 6
  96967034.12043        38.400          19.000
  22752930.859                    22752937.672    22752937.551   119567489.683 7
  93169500.168 7        45.300          44.200
  20396044.680                    20396051.551    20396051.840   107181904.743 8
  83518456.438 8        51.100          49.600
  21087844.422                    21087850.297    21087850.469   110817372.649 8
  86351224.299 7        51.000          47.800
  20437637.039                    20437645.844                   107400512.004 8
  83688769.630 8        51.900          50.300
 14  1  8  1 19 30.0000000  0  6G02G14G12G29G31G25
  22876420.672                                    22876424.492   120216419.840 7
  93675158.97445        44.500          30.100
  23699236.398                                    23699243.207   124540297.798 6
  97044410.16743        37.100          19.300
  22770380.750                    22770387.445    22770387.441   119659191.092 7
  93240955.791 7        46.000          44.100
  20389482.672                    20389489.016    20389488.777   107147419.113 8
  83491584.684 8        51.400          49.300
  21080064.867                    21080069.980    21080070.094   110776490.761 8
  86319368.284 8        51.100          48.100
  20444519.367                    20444527.996                   107436677.583 8
  83716950.597 8        52.000          50.800
 14  1  8  1 20  0.0000000  0  6G02G14G12G29G31G25
  22879303.203                                    22879307.609   120231569.812 7
  93686964.15244        45.100          29.500
  23718157.406                                    23718164.684   124639728.611 6
  97121888.70242        38.200          17.800
  22787850.469                    22787856.988    22787856.926   119750992.637 7
  93312489.435 7        45.400          43.700
  20383007.414                    20383013.816    20383013.695   107113391.416 8
  83465069.653 8        51.000          49.500
  21072362.891                    21072368.473    21072368.410   110736016.734 8
  86287830.081 7        51.200          47.700
  20451463.547                    20451472.234                   107473169.786 8
  83745386.080 8        51.900          50.300
 14  1  8  1 20 30.0000000  0  6G02G14G12G29G31G25
  22882290.242                                    22882293.945   120247263.197 7
  93699192.77344        45.400          29.000
  23737116.914                                    23737124.250   124739362.718 6
  97199525.61442        38.200          17.400
  22805352.898                    22805359.242    22805359.121   119842968.957 7
  93384159.235 7        45.700          43.500
  20376633.461                    20376639.863    20376639.859   107079897.370 8
  83438970.408 8        51.000          49.400
  21064753.156                    21064759.207    21064758.852   110696027.151 8
  86256669.372 7        51.500          47.300
  20458484.078                    20458492.941                   107510062.854 8
  83774133.934 8        51.400          50.000
 14  1  8  1 21  0.0000000  0  6G02G14G12G29G31G25
  22885394.383                                    22885398.262   120263579.446 7
  93711906.73144        45.200          29.700
  23756130.492                                    23756138.004   124839277.364 6
  97277381.12342        37.900          17.800
  22822903.617                    22822909.961    22822909.781   119935198.679 7
  93456026.494 7        45.500          43.300
  20370376.383                    20370383.020    20370382.957   107047017.335 8
  83413349.647 8        51.900          50.000
  21057251.258                    21057257.367    21057257.129   110656603.593 8
  86225949.716 7        51.100          47.800
  20465595.703                    20465605.211                   107547436.174 8
  83803256.008 8        51.900          50.400
 14  1  8  1 21 30.0000000  0  6G02G14G12G29G31G25
  22888589.102                                    22888592.922   120280364.605 7
  93724986.08645        44.700          30.800
  23775167.414                                    23775173.813   124939316.191 6
  97355333.40043        37.500          18.600
  22840473.633                    22840479.742    22840479.797   120027526.843 7
  93527970.461 7        44.700          43.100
  20364207.563                    20364213.496    20364213.492   107014598.767 8
  83388088.420 8        51.500          49.500
  21049827.945                    21049833.293    21049833.172   110617594.445 8
  86195552.976 7        51.200          47.600
  20472770.133                    20472779.230                   107585135.770 8
  83832632.319 8        51.800          50.600
 14  1  8  1 22  0.0000000  0  6G02G14G12G29G31G25
  22891886.352                                    22891890.230   120297691.609 7
  93738487.65545        44.800          30.600
  23794241.727                                    23794247.598   125039549.248 6
  97433437.03643        37.800          19.300
  22858075.578                    22858081.863    22858081.566   120120025.756 7
  93600047.482 7        44.900          43.400
  20358140.141                    20358146.602    20358146.598   106982715.063 8
  83363243.954 8        51.100          49.600
  21042497.906                    21042503.195    21042503.309   110579074.313 8
  86165537.292 7        51.400          47.800
  20480019.813                    20480028.793                   107623234.098 8
  83862319.336 8        51.700          51.300
 14  1  8  1 22 30.0000000  0  6G02G14G12G29G31G25
  22895301.414                                    22895305.117   120315637.102 7
  93752471.16545        45.300          30.500
  23813366.250                                    23813373.234   125140050.833 6
  97511749.92442        36.600          16.300
  22875723.859                    22875730.848    22875730.844   120212771.496 7
  93672316.863 7        44.300          43.200
  20352189.945                    20352195.938    20352195.875   106951444.113 8
  83338876.943 8        51.400          49.400
  21035275.617                    21035281.023    21035281.195   110541122.145 8
  86135964.179 7        50.600          47.600
  20487359.492                    20487368.941                   107661807.776 8
  83892376.721 8        51.600          51.100
 14  1  8  1 23  0.0000000  0  6G02G14G12G29G31G25
  22898804.891                                    22898809.355   120334049.323 7
  93766818.35845        44.700          30.600
  23832511.977                                    23832519.371   125240666.959 6
  97590152.03442        37.800          16.300
  22893391.078                    22893397.363    22893397.301   120305611.075 7
  93744659.354 7        44.600          43.200
  20346326.961                    20346333.422    20346333.418   106920634.710 8
  83314869.579 8        51.400          49.900
  21028133.375                    21028138.664    21028138.543   110503587.843 8
  86106716.666 7        51.200          47.500
  20494761.813                    20494771.203                   107700704.847 8
  83922686.101 8        51.400          50.800
 14  1  8  1 23 30.0000000  0  6G02G14G12G29G31G25
  22902411.063                                    22902415.234   120353001.662 7
  93781586.42545        45.400          31.100
  23851694.250                                    23851701.176   125341467.796 6
  97668698.06742        37.600          16.900
  22911089.492                    22911096.363    22911096.008   120398617.757 7
  93817132.068 7        44.400          43.700
  20340566.008                    20340572.352    20340572.406   106890360.837 8
  83291279.601 8        50.900          50.000
  21021084.813                    21021089.340    21021089.336   110466547.055 8
  86077853.717 8        50.500          48.000
  20502239.359                    20502248.281                   107739998.350 8
  83953304.428 8        51.500          50.200
 14  1  8  1 24  0.0000000  0  6G02G14G12G29G31G25
  22906120.766                                    22906124.293   120372495.392 7
  93796776.34745        45.300          30.500
  23870911.313                                    23870917.887   125442452.337 6
  97747387.30442        36.700          16.300
  22928820.453                    22928826.445    22928826.324   120491792.554 7
  93889735.798 7        44.100          43.000
  20334907.555                    20334913.547    20334913.602   106860625.532 8
  83268109.231 8        51.200          50.100
  21014130.773                    21014135.477    21014135.531   110430003.007 8
  86049377.832 7        50.700          47.600
  20509792.297                    20509801.277                   107779689.471 8
  83984232.541 8        51.800          50.700
 14  1  8  1 24 30.0000000  0  6G02G14G12G29G31G25
  22909948.680                                    22909952.559   120392610.416 7
  93812450.41145        45.000          30.500
  23890177.250                                    23890184.352   125543698.123 6
  97826280.09442        38.300          16.900
  22946597.438                    22946604.191    22946604.070   120585214.449 7
  93962532.071 7        43.700          42.800
  20329366.828                    20329373.523    20329373.285   106831509.249 8
  83245421.189 8        50.600          50.000
  21007286.156                    21007291.738    21007291.852   110394037.549 8
  86021352.800 8        50.900          48.400
  20517436.344                    20517445.148                   107819857.933 8
  84015532.605 8        51.500          50.300
 14  1  8  1 25  0.0000000  0  6G02G14G12G29G31G25
  22913863.852                                    22913867.438   120413184.329 7
  93828482.04045        45.500          30.400
  23909462.523                                    23909469.977   125645040.583 6
  97905248.18442        38.300          16.900
  22964391.383                    22964397.375    22964397.313   120678720.405 7
  94035393.833 7        43.700          43.200
  20323913.484                    20323919.594    20323919.414   106802850.515 8
  83223089.659 8        50.900          50.300
  21000522.352                    21000527.523    21000527.637   110358490.562 8
  85993653.849 8        50.700          48.000
  20525140.039                    20525148.727                   107860341.446 8
  84047078.209 8        52.300          50.000
 14  1  8  1 25 30.0000000  0  6G02G14G12G29G31G25
  22917881.398                                    22917884.809   120434297.070 7
  93844933.54345        45.600          31.400
  23928781.375                                    23928787.832   125746557.322 6
  97984352.08642        38.200          17.400
  22982216.547                    22982222.715    22982222.770   120772390.156 7
  94108383.241 7        43.400          43.000
  20318562.375                    20318568.719    20318568.773   106774730.680 8
  83201178.129 8        50.800          50.000
  20993852.992                    20993858.398    20993858.453   110323444.189 8
  85966344.984 8        50.700          48.100
  20532918.797                    20532927.602                   107901220.021 8
  84078931.653 8        51.600          50.700
 14  1  8  1 26  0.0000000  0  6G02G14G12G29G31G25
  22922017.148                                    22922020.910   120456030.541 7
  93861868.71745        45.700          31.000
  23948146.805                                    23948153.555   125848327.445 6
  98063653.46842        38.700          15.600
  23000087.430                    23000093.891    23000093.770   120866304.694 7
  94181563.386 7        43.700          42.100
  20313329.625                    20313335.559    20313335.496   106747232.016 8
  83179750.605 8        50.700          49.900
  20987294.945                    20987300.879    20987300.816   110288982.000 8
  85939491.330 7        50.300          47.600
  20540788.391                    20540797.488                   107942574.975 8
  84111156.292 8        51.900          49.800
 14  1  8  1 26 30.0000000  0  6G02G14G12G29G31G25
  22926240.656                                    22926243.832   120478222.122 7
  93879160.87145        45.900          30.800
  23967529.742                                    23967537.195   125950186.549 6
  98143024.12442        39.000          15.600
  23017974.570                    23017980.738    23017980.676   120960301.074 7
  94254807.302 7        44.000          42.500
  20308184.008                    20308190.645    20308190.523   106720192.659 8
  83158680.944 8        51.000          49.700
  20980818.039                    20980823.270    20980823.266   110254943.642 8
  85912967.940 8        50.600          48.000
  20548717.906                    20548727.121                   107984243.656 8
  84143625.352 8        51.700          50.100
 14  1  8  1 27  0.0000000  0  6G02G14G12G29G31G25
  22930564.266                                    22930568.086   120500947.315 7
  93896868.83544        45.500          29.800
  23986944.617                                    23986951.602   126052206.953 6
  98222520.59042        38.500          16.300
  23035891.195                    23035897.715    23035897.594   121054454.290 7
  94328173.425 7        44.800          42.100
  20303140.867                    20303147.328    20303146.973   106693689.042 8
  83138028.725 8        51.300          49.700
  20974435.852                    20974441.023    20974441.020   110221406.648 8
  85886835.222 8        49.800          48.200
  20556721.234                    20556730.156                   108026301.659 8
  84176397.829 8        51.800          49.700
 14  1  8  1 27 30.0000000  0  6G02G14G12G29G31G25
  22935007.320                                    22935010.906   120524295.506 7
  93915062.23745        44.900          30.000
  24006405.406                                    24006412.215   126154476.092 6
  98302210.74542        38.100          16.900
  23053854.461                    23053861.391    23053861.328   121148853.041 7
  94401730.865 6        45.200          41.600
  20298216.078                    20298222.480    20298222.535   106667811.946 8
  83117864.699 8        51.000          50.200
  20968166.531                    20968172.289    20968172.285   110188462.671 8
  85861164.585 8        50.100          48.000
  20564815.664                    20564824.938                   108068838.362 8
  84209543.320 8        51.900          50.000
 14  1  8  1 28  0.0000000  0  6G02G14G12G29G31G25
  22939536.672                                    22939540.785   120548097.003 7
  93933608.86845        45.700          31.200
  24025880.719                                    24025888.055   126256821.864 6
  98381960.71642        38.100          17.400
  23071832.813                    23071838.629    23071838.801   121243327.587 7
  94475347.370 6        45.500          41.500
  20293379.094                    20293385.555    20293385.434   106642392.314 8
  83098057.161 8        51.600          50.000
  20961978.805                    20961983.625    20961983.973   110155943.901 8
  85835825.287 8        50.400          48.200
  20572968.594                    20572977.809                   108111683.927 8
  84242929.472 8        52.000          49.800
 14  1  8  1 28 30.0000000  0  6G02G14G12G29G31G25
  22944167.508                                    22944171.445   120572434.571 7
  93952573.22545        45.000          30.500
  24045386.664                                    24045393.531   126359324.818 6
  98461833.11942        38.200          16.300
  23089840.484                    23089846.594    23089846.590   121337960.250 7
  94549087.055 7        44.500          42.100
  20288644.977                    20288651.672    20288651.492   106617514.212 8
  83078671.671 8        51.000          50.300
  20955887.422                    20955893.238    20955892.941   110123935.491 8
  85810883.663 8        50.000          48.600
  20581196.820                    20581205.859                   108154921.160 8
  84276620.773 8        51.600          50.200
 14  1  8  1 29  0.0000000  0  6G02G14G12G29G31G25
  22948916.523                                    22948920.227   120597389.886 7
  93972018.92644        45.000          29.600
  24064937.055                                    24064944.039   126462064.221 6
  98541889.79942        37.600          16.300
  23107894.227                    23107900.629    23107900.508   121432832.049 7
  94623013.086 6        44.800          41.600
  20284029.320                    20284036.074    20284036.012   106593259.750 8
  83059772.117 8        51.400          50.500
  20949909.641                    20949915.223    20949915.395   110092520.725 8
  85786404.622 8        50.200          48.200
  20589514.859                    20589523.605                   108198631.585 8
  84310680.849 8        51.700          49.800
 14  1  8  1 29 30.0000000  0  6G02G14G12G29G31G25
  22953751.633                                    22953755.629   120622797.959 7
  93991817.43345        45.400          30.000
  24084501.422                                    24084508.992   126564872.962 6
  98622000.45042        36.700          15.600
  23125962.094                    23125968.203    23125968.258   121527778.085 7
  94696996.959 6        44.100          41.100
  20279501.563                    20279508.141    20279508.137   106569465.198 8
  83041230.931 8        51.400          50.800
  20944013.539                    20944018.594    20944018.648   110061536.962 8
  85762261.427 8        50.200          48.600
  20597891.141                    20597899.828                   108242650.316 8
  84344981.143 8        51.500          49.500
 14  1  8  1 30  0.0000000  0  6G02G14G12G29G31G25
  22958687.922                                    22958691.332   120648737.033 7
  94012029.70544        44.900          28.900
  24104092.039                                    24104099.551   126667827.352 6
  98702224.68142        36.500          15.600
  23144058.531                    23144064.289    23144064.051   121622875.816 7
  94771099.041 6        43.800          41.700
  20275076.211                    20275082.613    20275082.551   106546209.540 8
  83023109.666 8        51.600          50.400
  20938214.992                    20938220.281    20938220.453   110031064.835 8
  85738516.903 8        51.000          48.200
  20606341.172                    20606349.977                   108287055.714 8
  84379582.735 8        51.500          49.500
 14  1  8  1 30 30.0000000  0  6G02G14G12G29G31G25
  22963740.656                                    22963743.422   120675289.200 7
  94032719.72044        44.100          29.900
  24123726.539                                    24123734.344   126771007.095 6
  98782624.45342        37.300          14.800
  23162199.367                    23162205.594    23162205.238   121718207.494 7
  94845383.439 6        43.700          41.500
  20270768.992                    20270775.629    20270775.684   106523575.941 8
  83005473.086 8        51.200          50.300
  20932529.852                    20932535.727    20932535.664   110001188.357 8
  85715236.523 7        50.100          47.900
  20614880.078                    20614889.293                   108331929.907 8
  84414549.615 8        51.700          49.900
 14  1  8  1 31  0.0000000  0  6G02G14G12G29G31G25
  22968879.273                                    22968883.270   120702295.798 7
  94053763.83244        45.000          29.700
  24143374.273                                    24143381.727   126874251.279 5
  98863074.51142        35.100          16.900
  23180354.906                    23180361.250    23180360.895   121813613.850 7
  94919726.037 6        43.600          41.700
  20266550.383                    20266556.375    20266556.430   106501406.656 8
  82988198.323 8        51.700          50.700
  20926928.172                    20926933.344    20926933.457   109971751.069 8
  85692298.372 7        50.400          47.600
  20623478.531                    20623487.277                   108377114.155 8
  84449758.105 8        52.000          49.800
 14  1  8  1 31 30.0000000  0  6G02G14G12G29G31G25
  22974119.273                                    22974122.449   120729829.509 7
  94075218.67145        44.000          30.100
  24163046.125                                    24163053.813   126977629.989 5
  98943629.31042        35.000          15.600
  23198537.867                    23198544.328    23198544.324   121909166.862 7
  94994182.881 6        42.800          40.800
  20262434.109                    20262440.277    20262440.215   106479775.734 8
  82971343.151 8        51.900          51.100
  20921424.094                    20921429.793    20921429.672   109942827.783 8
  85669760.733 8        50.200          48.000
  20632150.023                    20632159.297                   108422681.246 8
  84485264.920 8        52.300          49.600
 14  1  8  1 32  0.0000000  0  6G02G14G12G29G31G25
  22979474.891                                    22979478.125   120757973.005 7
  94097148.68144        44.600          28.900
  24182759.609                                    24182767.414   127081224.354 6
  99024352.17842        36.000          14.800
  23216764.898                    23216770.891    23216770.887   122004949.870 7
  95068818.932 6        43.000          41.100
  20258436.063                    20258442.523    20258442.402   106458766.317 8
  82954972.236 8        50.800          50.100
  20916033.891                    20916039.238    20916039.234   109914503.335 8
  85647689.715 8        49.900          48.200
  20640909.586                    20640918.508                   108468714.181 8
  84521134.728 8        51.500          50.200
 14  1  8  1 32 30.0000000  0  6G02G14G12G29G31G25
  22984915.953                                    22984919.598   120786569.262 7
  94119431.48444        43.800          29.400
  24202482.313                                    24202490.996   127184874.915 5
  99105118.88442        35.100          13.900
  23235005.578                    23235011.688    23235011.508   122100804.754 7
  95143511.013 6        42.900          41.400
  20254526.828                    20254533.348    20254533.227   106438222.303 8
  82938963.926 8        51.700          50.800
  20910728.570                    20910734.328    20910734.324   109886622.564 8
  85625964.434 8        50.000          48.300
  20649727.992                    20649737.090                   108515055.698 8
  84557244.994 8        51.500          49.800
 14  1  8  1 33  0.0000000  0  6G02G14G12G29G31G25
  22990458.172                                    22990461.992   120815691.242 7
  94142123.94644        43.300          29.100
  24222231.078                                    24222240.055   127288652.385 5
  99185984.41542        35.000          14.800
  23253273.492                    23253280.070    23253279.949   122196804.605 7
  95218316.041 6        42.900          41.300
  20250719.922                    20250726.324    20250726.320   106418217.681 8
  82923375.952 8        52.000          50.700
  20905521.828                    20905527.645    20905527.582   109859261.115 8
  85604643.819 7        50.500          47.900
  20658619.172                    20658627.977                   108561778.798 8
  84593652.579 8        52.200          50.500
 14  1  8  1 33 30.0000000  0  6G02G14G12G29G31G25
  22996115.602                                    22996118.895   120845420.872 7
  94165289.89944        43.800          29.900
  24242020.023                                    24242027.125   127392636.986 5
  99267011.37942        33.700          14.800
  23271584.469                    23271591.691    23271591.746   122293031.345 7
  95293297.880 6        43.100          41.100
  20247031.547                    20247038.301    20247038.238   106398835.331 8
  82908272.815 8        51.300          50.700
  20900429.594                    20900435.586    20900435.230   109832502.445 8
  85583792.903 8        49.900          48.500
  20667598.523                    20667607.504                   108608965.792 8
  84630421.665 8        51.900          49.800
 14  1  8  1 34  0.0000000  0  6G02G14G12G29G31G25
  23001857.852                                    23001861.145   120875596.770 7
  94188803.58944        44.100          29.000
  24261814.508                                    24261822.371   127496665.115 5
  99348072.23242        34.300          15.600
  23289908.484                    23289915.063    23289915.000   122389323.374 7
  95368330.618 6        42.500          40.300
  20243430.867                    20243437.328    20243437.324   106379914.688 8
  82893529.441 8        52.300          50.100
  20895422.539                    20895427.828    20895427.824   109806187.835 8
  85563288.019 7        50.400          47.800
  20676635.477                    20676645.160                   108656455.416 8
  84667426.544 8        51.600          49.600
 14  1  8  1 34 30.0000000  0  7G02G14G12G29G21G31G25
  23007699.594                                    23007703.180   120906296.340 7
  94212725.34244        43.900          29.600
  24281632.672                                                   127600811.994 5
                        33.800
  23308259.563                    23308266.375    23308265.902   122485757.728 7
  95443474.259 6        42.300          41.700
  20239933.398                    20239940.563    20239940.324   106361534.500 8
  82879207.195 8        51.500          50.500
  25342189.836                                                   133174223.963 5
                        32.000
  20890514.586                    20890520.051    20890520.047   109780396.713 8
  85543191.044 8        49.900          48.400
  20685744.773                    20685753.402                   108704325.172 8
  84704727.625 8        51.200          49.700
 14  1  8  1 35  0.0000000  0  7G02G14G12G29G21G31G25
  23013657.125                                    23013660.770   120937603.154 7
  94237120.26844        43.400          29.600
  24301490.805                                                   127705159.393 5
                        35.200
  23326653.680                    23326659.438    23326659.727   122582418.036 7
  95518793.958 6        42.400          40.800
  20236554.789                    20236561.660    20236561.598   106343779.253 8
  82865371.925 8        51.500          49.700
  25323337.813                                                   133075158.041 5
                        31.800
  20885722.484                    20885728.066    20885728.121   109755214.720 8
  85523568.716 7        50.800          47.900
  20694942.680                    20694951.602                   108752658.787 8
  84742390.178 8        51.900          49.900
 14  1  8  1 35 30.0000000  0  7G02G14G12G29G21G31G25
  23019699.266                                    23019702.852   120969353.355 7
  94261860.68344        43.600          29.800
  24321353.922                                                   127809541.188 5
                        35.000
  23345059.414                    23345065.055    23345065.227   122679140.101 7
  95594161.775 6        42.400          41.800
  20233264.023                    20233270.953    20233270.715   106326485.671 8
  82851896.404 8        51.200          50.500
  25304467.648                                                   132975998.482 5
                        31.300
  20881015.672                    20881020.961    20881021.016   109730480.179 8
  85504295.049 8        50.700          48.300
  20704197.086                    20704206.359                   108801292.501 8
  84780286.578 8        51.500          49.500
 14  1  8  1 36  0.0000000  0  7G02G14G12G29G21G31G25
  23025839.805                                    23025843.449   121001623.029 7
  94287005.89045        44.700          30.000
  24341236.773                                                   127914031.825 5
                        34.600
  23363490.734                    23363497.664    23363497.426   122776000.143 7
  95669637.094 6        43.000          41.600
  20230075.664                    20230082.477    20230082.297   106309731.028 8
  82838840.890 8        52.300          50.700
  25285596.344                                                   132876825.506 5
                        31.200
  20876408.859                    20876414.383    20876414.320   109706271.529 8
  85485431.159 8        51.000          48.100
  20713522.984                    20713532.668                   108850302.782 8
  84818476.393 8        51.000          49.500
 14  1  8  1 36 30.0000000  0  7G02G14G12G29G21G31G25
  23032094.945                                    23032099.117   121034496.891 7
  94312621.88444        43.800          29.900
  24361157.711                                                   128018713.820 5
                        34.900
  23381965.266                    23381971.668    23381971.488   122873081.959 7
  95745285.205 6        43.700          40.800
  20227005.898                    20227012.770    20227012.473   106293600.997 8
  82826272.016 8        52.000          50.700
  25266736.508                                                   132777726.451 5
                        32.600
  20871918.758                    20871924.164    20871924.102   109682675.498 8
  85467044.650 8        50.900          48.000
  20722937.367                    20722946.816                   108899774.219 8
  84857025.511 8        52.200          50.200
 14  1  8  1 37  0.0000000  0  7G02G14G12G29G21G31G25
  23038434.703                                    23038438.172   121067810.157 7
  94338580.27345        44.700          30.500
  24381083.086                                                   128123420.520 5
                        35.600
  23400450.227                    23400456.922    23400456.742   122970222.301 7
  95820978.962 6        43.100          40.900
  20224024.211                    20224030.965    20224030.844   106277931.840 8
  82814062.249 8        52.100          50.700
  25247863.930                                                   132678540.131 5
                        34.500
  20867514.234                    20867519.582    20867519.520   109659529.344 8
  85449008.680 8        50.900          48.100
  20732408.109                    20732417.207                   108949542.646 8
  84895806.069 8        51.900          49.300
 14  1  8  1 37 30.0000000  0  7G02G14G12G29G21G31G25
  23044872.836                                    23044876.363   121101641.651 7
  94364942.48445        44.700          31.800
  24401026.500                                                   128228229.20615
                        34.800
  23418961.695                    23418967.746    23418967.684   123067499.224 7
  95896779.117 6        42.800          41.100
  20221145.695                    20221152.391    20221152.445   106262803.071 8
  82802273.582 8        51.400          50.500
  25228987.758                                                   132579348.544 5
                        34.100
  20863210.867                    20863215.980    20863216.152   109636914.443 8
  85431386.685 8        50.600          48.300
  20741950.609                    20741959.473                   108999686.959 8
  84934879.546 8        51.300          48.900
 14  1  8  1 38  0.0000000  0  7G02G14G12G29G21G31G25
  23051424.570                                    23051427.863   121136072.006 7
  94391771.33245        44.800          30.400
  24421006.578                                                   128333217.058 5
                        35.500
  23437514.383                    23437520.551    23437520.488   123164992.882 7
  95972748.141 6        43.100          41.700
  20218385.109                    20218391.629    20218391.625   106248296.678 8
  82790969.880 8        52.100          49.900
  25210127.617                                                   132480235.338 5
                        34.300
  20859023.820                    20859029.461    20859029.457   109614913.109 8
  85414242.787 8        50.700          48.100
  20751579.617                    20751588.891                   109050287.773 8
  84974308.722 8        51.900          49.300
 14  1  8  1 38 30.0000000  0  7G02G14G12G29G21G31G25
  23058060.297                                    23058064.117   121170942.583 7
  94418943.22345        44.300          30.400
  24440987.883                                                   128438224.992 5
                        33.700
  23456077.453                    23456084.383    23456084.145   123262544.702 6
  96048762.482 6        41.500          41.000
  20215713.000                    20215719.520    20215719.340   106234254.922 8
  82780028.248 8        52.100          50.400
  25191250.969                                                   132381045.323 5
                        32.900
  20854924.109                    20854929.984    20854929.922   109593369.212 8
  85397455.334 8        50.500          48.500
  20761264.594                    20761274.805                   109101186.976 8
  85013970.416 8        51.200          49.100
 14  1  8  1 39  0.0000000  0  7G02G14G12G29G21G31G25
  23064793.508                                    23064797.211   121206325.563 7
  94446514.36945        44.000          31.200
  24460988.289                                                   128543323.237 5
                        34.500
  23474665.961                    23474672.246    23474672.652   123360227.525 6
  96124878.923 6        41.100          40.900
  20213143.406                    20213149.633    20213149.746   106220750.710 8
  82769505.486 8        51.900          49.800
  25172376.492                                                   132281854.186 5
                        34.400
  20850925.742                    20850931.676    20850931.730   109572357.248 8
  85381082.365 8        50.700          48.300
  20771021.828                    20771031.219                   109152457.126 8
  85053921.155 8        51.500          49.500
 14  1  8  1 39 30.0000000  0  7G02G14G12G29G21G31G25
  23071639.477                                    23071643.648   121242303.388 7
  94474549.04045        44.900          30.500
  24481020.633                                                   128648592.075 5
                        34.000
  23493295.070                    23493301.531    23493301.645   123458123.415 6
  96201161.389 6        41.400          41.100
  20210691.391                    20210697.910    20210698.023   106207867.394 8
  82759466.499 8        51.700          51.100
  25153516.391                                                   132182748.082 5
                        34.000
  20847044.820                    20847049.992    20847050.164   109551961.639 8
  85365189.681 8        51.300          48.700
  20780864.398                    20780873.438                   109204180.777 8
  85094225.290 8        51.200          49.900
 14  1  8  1 40  0.0000000  0  7G02G14G12G29G21G31G25
  23078568.891                                    23078572.887   121278716.501 7
  94502922.90245        44.000          31.000
  24501054.094                                                   128753870.628 5
                        33.600
  23511934.477                    23511940.352    23511940.406   123556073.119 6
  96277485.819 6        41.600          41.300
  20208327.906                    20208334.543    20208334.363   106195446.747 8
  82749788.059 8        51.800          50.500
  25134644.352                                                   132083570.769 5
                        34.200
  20843250.766                    20843257.168    20843257.105   109532025.058 8
  85349654.684 8        50.600          48.800
  20790762.898                    20790772.230                   109256198.843 8
  85134758.819 8        50.100          49.200
 14  1  8  1 40 30.0000000  0  7G02G14G12G29G21G31G25
  23085595.484                                    23085599.012   121315640.981 7
  94531695.22144        45.200          29.900
  24521103.000                                                   128859232.796 5
                        33.900
  23530597.609                    23530605.359    23530605.004   123654152.577 6
  96353911.329 6        41.800          40.900
  20206066.938                    20206073.750    20206073.688   106183565.495 8
  82740529.950 8        51.600          50.700
  25115772.625                                                   131984401.222 5
                        34.600
  20839559.414                    20839564.469    20839564.523   109512626.010 8
  85334538.541 8        50.800          48.800
  20800732.539                    20800741.520                   109308587.629 8
  85175581.233 8        50.400          48.900
 14  1  8  1 41  0.0000000  0  7G02G14G12G29G21G31G25
  23092734.461                                    23092737.637   121353155.217 7
  94560927.08745        44.300          30.000
  24541183.750                                                   128964755.141 5
                        33.500
  23549301.539                    23549308.410    23549308.523   123752440.389 7
  96430499.168 6        42.200          41.000
  20203924.000                    20203930.402    20203930.281   106172303.009 8
  82731753.995 8        51.800          50.700
  25096918.727                                                   131885321.649 5
                        34.000
  20835985.531                    20835990.879    20835990.875   109493844.526 8
  85319903.615 8        50.700          48.300
  20810787.094                    20810796.484                   109361425.649 8
  85216753.683 8        50.500          49.600
 14  1  8  1 41 30.0000000  0  7G02G14G12G29G21G31G25
  23099954.891                                    23099958.828   121391103.032 7
  94590496.81745        44.200          30.500
  24561263.398                                                   129070279.332 5
                        33.200
  23568015.727                    23568022.012    23568021.891   123850780.264 6
  96507127.601 6        41.700          40.300
  20201868.938                    20201875.633    20201875.629   106161504.044 8
  82723339.189 8        51.500          50.200
  25078053.594                                    25078058.410   131786179.088 5
 102690450.80842        33.600          13.900
  20832500.000                    20832505.406    20832505.285   109475527.102 8
  85305630.299 8        50.700          48.500
  20820897.797                    20820906.777                   109414557.072 8
  85258154.757 8        50.800          49.100
 14  1  8  1 42  0.0000000  0  7G02G14G12G29G21G31G25
  23107272.961                                    23107276.664   121429558.248 7
  94620461.91944        44.500          29.300
  24581359.367                                                   129175878.123 5
                        33.100
  23586752.531                    23586759.402    23586759.281   123949246.085 7
  96583854.187 6        43.000          40.400
  20199916.625                    20199922.852    20199922.555   106151243.603 8
  82715344.024 8        50.800          50.800
  25059190.664                                    25059196.535   131687050.646 5
 102613207.88642        35.700          15.600
  20829116.719                    20829121.949    20829122.238   109457749.662 8
  85291777.743 8        50.900          48.600
  20831078.297                    20831087.336                   109468056.469 8
  85299842.606 8        49.700          49.900
 14  1  8  1 42 30.0000000  0  7G02G14G12G29G21G31G25
  23114702.094                                    23114705.621   121468598.111 7
  94650882.58845        45.000          30.400
  24601481.203                                                   129281626.571 5
                        31.600
  23605529.703                    23605536.516    23605536.395   124047915.910 7
  96660739.727 6        43.300          40.600
  20198081.227                    20198088.039    20198087.918   106141600.140 8
  82707829.629 8        51.400          50.800
  25040344.523                                    25040351.449   131588017.663 6
 102536039.24142        36.800          15.600
  20825851.469                    20825857.344    20825857.516   109440591.690 8
  85278407.887 7        51.200          47.900
  20841343.516                    20841352.848                   109522001.121 8
  85341877.406 8        50.300          49.400
 14  1  8  1 43  0.0000000  0  7G02G14G12G29G21G31G25
  23122213.219                                    23122216.570   121508068.453 7
  94681638.69145        44.400          30.100
  24621604.563                                                   129387369.227 5
                        32.000
  23624314.680                    23624321.492    23624321.430   124146635.506 7
  96737664.052 6        42.600          40.600
  20196334.828                    20196340.879    20196340.934   106132419.935 8
  82700676.212 8        51.500          50.900
  25021487.664                                    25021495.117   131488929.635 5
 102458827.72542        35.800          15.600
  20822675.625                    20822680.738    20822680.734   109423901.047 8
  85265402.190 8        51.200          48.600
  20851664.344                    20851673.793                   109576237.391 8
  85384139.415 8        49.000          49.700
 14  1  8  1 43 30.0000000  0  7G02G14G12G29G21G31G25
  23129820.172                                    23129823.641   121548043.163 7
  94712787.80945        44.200          30.400
  24641738.172                                                   129493177.785 5
                        32.400
  23643123.977                    23643130.379    23643130.316   124245478.303 7
  96814684.373 6        42.300          40.700
  20194689.828                    20194696.230    20194696.344   106123777.971 8
  82693942.185 8        51.800          51.100
  25002637.227                                    25002643.801   131389863.365 5
 102381633.27142        35.700          16.300
  20819603.172                    20819608.695    20819608.457   109407754.104 8
  85252820.152 8        51.100          48.700
  20862054.758                    20862064.383                   109630839.229 8
  85426686.272 8        49.400          49.800
 14  1  8  1 44  0.0000000  0  7G02G14G12G29G21G31G25
  23137538.047                                    23137540.754   121588599.547 7
  94744390.17645        44.400          31.100
  24661901.109                                                   129599128.614 5
                        32.500
  23661971.797                    23661977.730    23661978.020   124344522.286 7
  96891861.453 6        42.500          39.500
  20193162.750                    20193168.977    20193169.090   106115752.772 8
  82687688.760 8        50.500          51.300
  24983805.070                                    24983811.879   131290899.841 6
 102304518.88942        36.000          16.300
  20816648.672                    20816654.605    20816654.602   109392229.905 8
  85240723.379 8        51.500          48.700
  20872529.570                    20872538.375                   109685884.836 8
  85469578.949 8        48.100          48.900
 14  1  8  1 44 30.0000000  0  7G02G14G12G29G21G31G25
  23145335.773                                    23145339.770   121629581.686 7
  94776324.31645        44.200          30.400
  24682060.578                                                   129705063.925 5
                        32.600
  23680828.016                    23680834.184    23680833.887   124443612.372 7
  96969074.449 6        43.000          40.300
  20191723.727                    20191730.012    20191730.008   106108189.276 8
  82681795.063 8        50.900          50.200
  24964963.578                                    24964970.211   131191887.031 5
 102227365.91242        35.200          14.800
  20813784.023                    20813789.488    20813789.309   109377175.264 8
  85228992.489 8        51.000          48.600
  20883059.180                    20883069.098                   109741218.629 8
  85512696.192 8        48.900          49.500
 14  1  8  1 45  0.0000000  0  7G02G14G12G29G21G31G25
  23153229.383                                    23153233.086   121671060.939 7
  94808645.81544        44.600          29.700
  24702229.391                                                   129811052.950 5
                        33.300
  23699706.789                    23699712.664    23699712.602   124542819.225 7
  97046378.415 6        43.000          39.700
  20190386.008                    20190392.645    20190392.582   106101159.131 8
  82676317.009 8        51.200          50.600
  24946125.891                                    24946133.695   131092899.027 6
 102150232.45142        36.900          15.600
  20811022.648                    20811028.113    20811028.051   109362663.063 8
  85217684.277 8        50.600          48.600
  20893657.445                    20893666.719                   109796911.988 8
  85556093.614 8        49.300          49.400
 14  1  8  1 45 30.0000000  0  7G02G14G12G29G21G31G25
  23161232.945                                    23161236.883   121713121.140 7
  94841420.00044        44.100          29.300
  24722421.852                                                   129917177.893 5
                        32.600
  23718623.289                    23718629.223    23718629.160   124642227.322 7
  97123839.209 6        42.900          39.500
  20189166.070                    20189172.414    20189172.293   106094747.830 8
  82671321.190 8        50.800          50.900
  24927310.773                                    24927317.816   130994023.614 6
 102073186.69742        36.100          16.300
  20808380.320                    20808385.961    20808386.016   109348779.402 8
  85206865.832 8        50.500          48.500
  20904340.219                    20904349.668                   109853049.192 8
  85599836.878 8        49.200          49.300
 14  1  8  1 46  0.0000000  0  7G02G14G12G29G21G31G25
  23169317.992                                    23169321.109   121755604.152 7
  94874523.64644        44.400          29.900
  24742614.039                                                   130023279.507 5
                        31.600
  23737547.797                    23737554.844    23737554.547   124741678.436 7
  97201333.541 6        43.100          38.700
  20188033.688                    20188040.324    20188040.320   106088798.348 8
  82666685.252 8        50.700          51.000
  24908487.469                                    24908494.219   130895106.725 6
 101996108.60142        36.000          16.300
  20805828.445                    20805833.559    20805833.379   109335368.605 8
  85196415.858 8        50.800          48.600
  20915076.516                    20915086.492                   109909472.723 8
  85643803.247 8        48.100          48.900
 14  1  8  1 46 30.0000000  0  7G02G14G12G29G21G31G25
  23177496.234                                    23177499.469   121798583.195 7
  94908013.80344        44.700          29.500
  24762813.688                                                   130129429.360 5
                        30.800
  23756494.977                    23756501.555    23756501.141   124841246.854 7
  97278919.276 6        43.000          40.000
  20187003.547                    20187009.598    20187009.535   106083384.901 8
  82662466.980 8        50.800          51.300
  24889671.188                                    24889677.469   130796225.154 6
 101919058.02342        36.500          16.900
  20803380.977                    20803386.617    20803386.613   109322506.556 8
  85186393.481 8        50.900          48.900
  20925882.719                    20925892.168                   109966256.418 8
  85688050.227 8        48.200          49.600
 14  1  8  1 47  0.0000000  0  7G02G14G12G29G21G31G25
  23185784.227                                    23185787.637   121842136.839 7
  94941951.70144        45.100          29.400
  24783036.453                                                   130235704.509 4
                        28.600
  23775479.695                    23775486.332    23775486.035   124941011.297 7
  97356657.753 6        42.400          39.600
  20186090.555                    20186097.074    20186097.188   106078586.971 8
  82658728.330 8        49.500          51.300
  24870876.570                                    24870883.555   130697460.906 6
 101842098.89042        37.100          16.900
  20801053.313                    20801058.719    20801058.598   109310273.636 8
  85176861.336 8        50.000          49.100
  20936771.844                    20936781.176                   110023479.386 7
  85732639.522 8        47.600          48.900
 14  1  8  1 47 30.0000000  0  8G02G14G12G23G29G21G31G25
  23194151.578                                    23194154.988   121886108.067 7
  94976214.98644        45.700          28.500
  24803254.289                                                   130341946.321 4
                        28.900
  23794472.031                    23794477.965    23794478.020   125040814.478 7
  97434426.435 6        42.600          38.800
  24817131.156                                                   130414744.237 5
                        32.400
  20185264.766                    20185271.930    20185271.867   106074247.831 8
  82655347.157 8        51.200          51.600
  24852076.617                                    24852082.781   130598660.598 6
 101765111.61842        36.300          16.900
  20798815.164                    20798820.570    20798820.566   109298514.541 8
  85167698.402 8        51.100          48.500
  20947714.836                    20947723.699                   110080984.722 8
  85777448.853 8        48.700          49.300
 14  1  8  1 48  0.0000000  0  8G02G14G12G23G29G21G31G25
  23202613.242                                    23202616.477   121930572.695 7
  95010862.72344        45.600          29.300
  24823479.500                                                   130448229.202 4
                        29.100
  23813486.313                    23813491.719    23813491.832   125140732.919 7
  97512284.948 6        42.700          38.700
  24805165.898                                                   130351873.972 5
                        32.300
  20184541.008                    20184547.410    20184547.348   106070444.516 8
  82652383.552 8        51.600          51.000
  24833282.609                                    24833290.355   130499903.671 6
 101688158.15642        36.600          15.600
  20796682.852                    20796688.375    20796688.254   109287307.776 8
  85158965.854 8        50.900          48.100
  20958726.148                    20958735.480                   110138849.089 8
  85822537.963 8        49.900          49.000
 14  1  8  1 48 30.0000000  0  8G02G14G12G23G29G21G31G25
  23211182.258                                    23211185.551   121975605.664 7
  95045953.35344        44.500          29.100
  24843727.477                                                   130554626.557 4
                        29.900
  23832535.367                    23832542.355    23832542.059   125240841.648 7
  97590291.717 6        42.500          38.600
  24793305.055                                                   130289540.777 5
                        32.500
  20183933.602                    20183940.180    20183940.410   106067253.432 8
  82649897.003 8        51.200          51.200
  24814513.641                                    24814520.918   130401269.144 6
 101611300.08942        36.700          17.400
  20794670.148                    20794675.672    20794675.551   109276730.303 8
  85150723.666 8        50.400          48.600
  20969819.906                    20969828.477                   110197147.729 8
  85867965.479 8        50.000          49.000
 14  1  8  1 49  0.0000000  0  8G02G14G12G23G29G21G31G25
  23219830.586                                    23219834.289   122021052.121 7
  95081366.16244        45.200          29.300
  24863965.688                                                   130660982.125 5
                        30.700
  23851593.172                    23851599.223    23851598.867   125340986.582 7
  97668326.672 6        43.000          38.800
  24781516.805                                                   130227594.13215
                        34.000
  20183413.820                    20183420.516    20183420.512   106064520.428 8
  82647767.425 8        51.900          51.100
  24795737.773                                    24795745.637   130302605.557 6
 101534419.32342        37.000          17.400
  20792747.883                    20792753.055    20792753.051   109266629.469 8
  85142852.875 8        51.200          48.800
  20980967.359                    20980976.105                   110255726.382 8
  85913611.200 8        50.000          49.100
 14  1  8  1 49 30.0000000  0  8G02G14G12G23G29G21G31G25
  23228571.680                                    23228574.270   122066983.470 7
  95117156.81944        45.500          29.100
  24884208.813                                                   130767365.739 5
                        30.500
  23870670.383                    23870676.375    23870676.430   125441239.599 7
  97746445.877 6        42.700          38.300
  24769815.984                                                   130166109.158 5
                        33.500
  20182994.703                    20183000.930    20183000.984   106062317.932 8
  82646051.237 8        51.800          51.300
  24776972.289                                    24776978.980   130203987.926 6
 101457574.39342        37.500          17.800
  20790930.523                    20790935.813    20790935.516   109257079.020 8
  85135410.971 8        51.100          49.300
  20992180.977                    20992190.191                   110314656.867 8
  85959531.060 8        49.800          48.800
 14  1  8  1 50  0.0000000  0  7G02G12G23G29G21G31G25
  23237404.844                                    23237408.898   122113405.665 7
  95153329.94444        45.200          28.500
  23889769.336                    23889776.207    23889775.910   125541606.593 7
  97824653.887 6        42.600          38.400
  24758206.680                                                   130105094.593 5
                        34.000
  20182677.484                    20182684.180    20182684.234   106060652.370 8
  82644753.406 8        51.100          51.100
  24758216.516                                    24758222.855   130105426.186 6
 101380773.07242        36.900          16.300
  20789219.313                    20789224.777    20789225.008   109248086.830 8
  85128404.068 8        51.500          48.400
  21003463.594                    21003473.277                   110373945.741 8
  86005730.187 8        50.200          48.800
 14  1  8  1 50 30.0000000  0  8G02G14G12G23G29G21G31G25
  23246346.211                                    23246349.914   122160392.614 7
  95189943.14544        45.600          29.500
  24924730.594                                                   130980303.901 5
                        31.600
  23908904.914                    23908911.727    23908911.254   125642162.474 7
  97903009.085 6        42.200          37.800
  24746699.352                                                   130044628.362 5
                        32.800
  20182477.227                    20182483.219    20182483.215   106059599.081 8
  82643932.713 8        51.300          50.800
  24739486.852                                    24739493.484   130006998.306 6
 101304076.01242        38.100          16.300
  20787628.758                    20787634.223    20787634.395   109239729.034 8
  85121891.501 7        51.500          47.600
  21014828.414                    21014837.102                   110433667.635 8
  86052266.732 8        50.700          48.700
 14  1  8  1 51  0.0000000  0  8G02G14G12G23G29G21G31G25
  23255364.734                                    23255368.145   122207782.700 7
  95226870.47544        45.000          29.800
  24944989.586                                                   131086767.604 5
                        30.500
  23928044.547                    23928051.477    23928051.180   125742745.731 6
  97981385.591 6        41.800          37.600
  24735266.820                                                   129984552.301 5
                        33.600
  20182362.438                    20182369.016    20182368.777   106058997.456 8
  82643463.916 8        52.000          51.400
  24720752.688                                    24720758.266   129908546.197 6
 101227360.06842        37.200          17.800
  20786128.633                    20786133.629    20786133.684   109231846.028 8
  85115748.900 8        51.300          48.800
  21026244.313                    21026253.762                   110493661.209 8
  86099014.953 8        50.000          49.000
 14  1  8  1 51 30.0000000  0  8G02G14G12G23G29G21G31G25
  23264473.367                                    23264477.656   122255653.763 7
  95264172.59044        45.100          29.300
  24965253.148                                                   131193250.214 4
                        28.900
  23947205.828                    23947211.938    23947211.582   125843434.758 7
  98059844.535 6        42.000          37.800
  24723923.742                                                   129924948.07715
                        33.300
  20182349.125                    20182355.703    20182355.582   106058926.211 8
  82643408.366 8        51.300          51.900
  24702026.969                                    24702034.188   129810151.457 6
 101150688.85142        37.500          16.900
  20784734.359                    20784739.707    20784739.703   109224518.203 8
  85110038.898 8        51.700          48.500
  21037727.547                    21037736.410                   110554005.103 8
  86146036.148 8        50.100          48.600
 14  1  8  1 52  0.0000000  0  8G02G14G12G23G29G21G31G25
  23273690.852                                    23273694.789   122304088.904 7
  95301914.22344        45.800          28.700
  24985534.500                                                   131299833.243 5
                        30.100
  23966402.211                    23966408.438    23966408.023   125944313.252 6
  98138451.107 6        41.500          38.000
  24712688.805                                                   129865901.444 5
                        34.100
  20182452.711                    20182459.172    20182459.109   106059469.757 8
  82643831.917 8        52.000          51.000
  24683330.797                                    24683337.488   129711900.924 6
 101074129.97942        36.000          16.900
  20783461.945                    20783467.000    20783467.348   109217830.999 8
  85104828.080 8        51.200          48.500
  21049293.258                    21049302.473                   110614782.998 8
  86193395.528 8        50.500          48.700
 14  1  8  1 52 30.0000000  0  8G02G14G12G23G29G21G31G25
  23282984.594                                    23282987.652   122352925.140 7
  95339968.42544        45.100          29.500
  25005804.750                                                   131406352.388 4
                        28.300
  23985603.914                    23985610.141    23985610.195   126045218.851 6
  98217078.815 6        40.900          37.200
  24701529.234                                                   129807253.859 5
                        34.800
  20182641.977                    20182648.672    20182648.668   106060465.792 8
  82644608.056 8        51.500          51.400
  24664632.250                                    24664638.355   129613635.760 5
 100997559.74242        35.800          16.900
  20782280.398                    20782285.746    20782285.684   109211622.916 8
  85099990.603 8        51.500          48.800
  21060910.133                    21060919.875                   110675832.506 8
  86240966.562 8        50.700          48.500
 14  1  8  1 53  0.0000000  0  8G02G14G12G23G29G21G31G25
  23292368.414                                    23292372.410   122402240.138 7
  95378395.67445        45.600          30.200
  25026076.711                                                   131512884.214 4
                        29.900
  24004825.898                    24004831.715    24004831.711   126146229.029 6
  98295788.001 6        40.300          37.700
  24690460.180                                                   129749085.775 5
                        34.600
  20182932.602                    20182939.238    20182939.117   106061992.630 8
  82645797.801 8        51.800          51.200
  24645944.688                                    24645951.730   129515436.913 6
 100921041.16842        37.400          16.300
  20781205.352                    20781210.582    20781210.637   109205973.762 8
  85095588.660 8        51.800          48.700
  21072594.586                    21072603.742                   110737231.657 8
  86288810.047 8        49.900          48.300
 14  1  8  1 53 30.0000000  0  8G02G14G12G23G29G21G31G25
  23301858.633                                    23301861.867   122452108.727 7
  95417254.29644        45.500          29.400
  25046366.789                                                   131619502.028 4
                        29.900
  24024080.867                    24024087.680    24024087.559   126247419.421 6
  98374637.606 6        40.900          38.300
  24679496.969                                                   129691475.854 5
                        35.500
  20183338.719                    20183344.887    20183344.883   106064125.843 8
  82647460.040 8        51.500          51.700
  24627287.172                                    24627292.691   129417383.417 6
 100844635.82042        37.300          16.900
  20780251.672                    20780256.727    20780256.723   109200960.816 8
  85091682.451 8        50.400          48.300
  21084359.680                    21084368.367                   110799055.905 8
  86336984.757 8        49.900          48.200
 14  1  8  1 54  0.0000000  0  8G02G14G12G23G29G21G31G25
  23311423.914                                    23311427.793   122502376.126 7
  95456423.68444        45.600          29.100
  25066641.008                                                   131726049.757 4
                        28.300
  24043342.063                    24043348.582    24043348.461   126348635.970 6
  98453507.595 6        40.200          37.800
  24668612.500                                                   129634272.779 5
                        35.900
  20183830.898                    20183837.535    20183837.414   106066711.879 8
  82649475.123 8        52.300          51.200
  24608625.211                                    24608632.781   129319323.990 6
 100768225.89342        37.300          17.400
  20779389.914                    20779395.027    20779395.199   109196431.745 8
  85088153.298 8        51.000          48.900
  21096175.500                    21096184.539                   110861151.193 8
  86385370.656 7        49.900          47.800
 14  1  8  1 54 30.0000000  0  8G02G14G12G23G29G21G31G25
  23321079.047                                    23321082.633   122553113.690 7
  95495959.42544        45.000          29.900
  25086918.297                                                   131832597.693 4
                        27.300
  24062620.977                    24062628.668    24062628.723   126449950.856 6
  98532454.204 6        39.600          37.400
  24657818.211                                                   129577551.719 5
                        34.600
  20184423.016                    20184429.242    20184429.355   106069823.208 8
  82651899.511 8        52.300          51.400
  24589979.703                                    24589986.043   129221334.617 6
 100691870.54742        37.500          17.400
  20778634.063                    20778639.352    20778639.406   109192459.559 8
  85085058.085 8        51.500          49.100
  21108057.031                    21108066.656                   110923589.691 8
  86434023.996 8        50.100          49.200
 14  1  8  1 55  0.0000000  0  8G02G14G12G23G29G21G31G25
  23330838.469                                    23330842.230   122604401.577 7
  95535923.98844        45.100          28.900
  25107206.148                                                   131939224.89814
                        26.400
  24081935.250                    24081942.824    24081942.703   126551444.079 6
  98611539.778 6        39.900          37.800
  24647133.188                                                   129521396.398 5
                        35.200
  20185130.422                    20185137.059    20185136.762   106073541.005 8
  82654796.460 8        51.600          51.500
  24571361.695                                    24571367.801   129123498.649 6
 100615634.70542        38.700          16.900
  20777999.617                    20778004.613    20778004.844   109189126.616 8
  85082460.972 8        51.600          48.200
  21120019.609                    21120029.000                   110986451.948 8
  86483007.548 8        48.400          48.700
 14  1  8  1 55 30.0000000  0  7G02G12G23G29G21G31G25
  23340673.555                                    23340676.555   122656083.885 7
  95576195.89944        45.100          28.500
  24101253.383                    24101260.020    24101260.367   126652960.963 6
  98690643.799 6        39.400          37.700
  24636523.633                                                   129465653.479 5
                        34.800
  20185923.531                    20185930.051    20185930.047   106077710.394 8
  82658045.301 8        52.200          51.300
  24552744.422                                    24552751.289   129025663.809 6
 100539399.78342        39.000          16.900
  20777457.508                    20777463.266    20777463.320   109186279.061 8
  85080242.087 8        51.000          48.400
  21132032.875                    21132042.324                   111049582.891 8
  86532200.467 8        50.000          48.800
 14  1  8  1 56  0.0000000  0  7G02G12G23G29G21G31G25
  23350596.656                                    23350600.711   122708232.284 7
  95616830.99444        45.000          28.000
  24120590.141                    24120596.309    24120596.246   126754573.890 6
  98769822.653 6        39.500          37.300
  24626008.930                                                   129410399.284 5
                        33.300
  20186816.930                    20186823.742    20186823.680   106082403.857 8
  82661702.533 8        51.600          51.200
  24534142.148                                    24534148.488   128927906.834 6
 100463225.48743        39.000          18.300
  20777022.281                    20777027.512    20777027.566   109183991.097 8
  85078459.251 8        50.700          49.100
  21144111.133                    21144120.875                   111113054.930 8
  86581659.188 8        48.400          48.300
 14  1  8  1 56 30.0000000  0  7G02G12G23G29G21G31G25
  23360624.273                                    23360628.504   122760928.642 7
  95657893.08444        44.400          28.300
  24139959.477                    24139966.230    24139966.402   126856364.905 6
  98849140.271 6        40.200          36.800
  24615603.383                                                   129355718.794 5
                        33.200
  20187825.656                    20187832.000    20187832.230   106087704.037 8
  82665832.548 8        51.100          50.700
  24515570.508                                    24515576.965   128830312.994 6
 100387178.33642        39.400          17.400
  20776709.313                    20776715.773    20776715.418   109182346.297 8
  85077177.578 8        51.900          48.500
  21156270.422                    21156279.813                   111176950.452 7
  86631447.887 8        47.600          48.200
 14  1  8  1 57  0.0000000  0  7G02G12G23G29G21G31G25
  23370725.945                                    23370730.352   122814012.565 7
  95699257.16244        44.600          27.000
  24159333.797                    24159340.316    24159340.430   126958174.683 6
  98928472.508 6        39.000          38.100
  24605278.453                                                   129301455.251 5
                        34.700
  20188919.203                    20188925.430    20188925.543   106093451.910 8
  82670311.448 8        50.200          51.100
  24497000.875                                    24497007.098   128732725.964 6
 100311136.52142        39.600          16.900
  20776488.742                    20776494.500    20776494.496   109181187.041 8
  85076274.250 8        50.900          48.300
  21168479.656                    21168488.637                   111241109.876 7
  86681442.226 8        46.000          48.300
 14  1  8  1 57 30.0000000  0  7G02G12G23G29G21G31G25
  23380915.797                                    23380919.383   122867559.494 7
  95740982.03744        44.900          28.300
  24178725.305                    24178732.820    24178732.816   127060078.829 6
  99007878.275 6        39.700          37.800
  24595046.000                                                   129247687.573 5
                        34.300
  20190112.648                    20190119.285    20190119.164   106099722.894 8
  82675197.952 8        51.300          51.200
  24478446.742                                    24478453.023   128635224.912 6
 100235161.62342        38.600          16.900
  20776375.313                    20776381.129    20776381.125   109180590.109 8
  85075809.101 8        50.700          48.900
  21180753.180                    21180762.453                   111305609.241 7
  86731701.460 8        47.900          48.200
 14  1  8  1 58  0.0000000  0  7G02G12G23G29G21G31G25
  23391207.711                                    23391211.707   122921642.484 7
  95783124.62444        44.300          28.900
  24198149.961                    24198156.539    24198156.652   127162151.229 6
  99087415.164 6        40.200          37.200
  24584923.328                                                   129194492.252 5
                        34.600
  20191419.406                    20191426.160    20191426.156   106106591.675 8
  82680550.248 8        52.100          51.200
  24459923.695                                    24459930.152   128537886.760 6
 100159313.77042        39.400          17.400
  20776382.898                    20776388.832    20776388.711   109180630.453 8
  85075840.532 8        51.400          48.300
  21193105.680                    21193114.895                   111370522.007 8
  86782282.818 8        49.300          48.000
 14  1  8  1 58 30.0000000  0  7G02G12G23G29G21G31G25
  23401571.992                                    23401575.813   122976110.233 7
  95825567.03544        44.200          28.500
  24217576.430                    24217583.711    24217583.238   127264241.273 6
  99166965.778 6        39.800          37.700
  24574882.727                                                   129141721.574 5
                        33.500
  20192812.078                    20192818.246    20192818.184   106113908.394 8
  82686251.596 8        52.300          51.400
  24441403.188                                    24441410.875   128440564.612 6
 100083478.35242        38.600          17.800
  20776483.484                    20776488.949    20776488.945   109181159.564 8
  85076252.819 8        50.500          48.300
  21205508.422                    21205517.813                   111435698.004 8
  86833069.289 8        49.000          48.200
 14  1  8  1 59  0.0000000  0  7G02G12G23G29G21G31G25
  23412024.461                                    23412028.516   123031037.017 7
  95868367.12244        45.000          26.700
  24237020.711                    24237027.875    24237028.105   127366423.834 6
  99246588.484 6        38.700          37.100
  24564934.961                                                   129089453.030 5
                        33.500
  20194304.070                    20194310.180    20194310.000   106121747.567 8
  82692360.049 8        51.500          51.400
  24422901.414                                    24422908.574   128343336.349 6
 100007716.05242        38.800          17.400
  20776691.367                    20776697.242    20776697.121   109182253.459 8
  85077105.191 8        51.000          48.800
  21217975.195                    21217984.645                   111501212.063 8
  86884119.184 8        48.600          48.200
 14  1  8  1 59 30.0000000  0  7G02G12G23G29G21G31G25
  23422577.961                                    23422581.840   123086496.809 7
  95911582.51244        44.300          26.900
  24256498.094                    24256505.609    24256505.371   127468773.831 6
  99326341.664 6        38.600          36.600
  24555099.875                                                   129037764.497 5
                        35.500
  20195909.188                    20195915.883    20195915.820   106130184.417 8
  82698934.215 8        51.700          50.600
  24404432.266                                    24404438.898   128246280.348 6
  99932088.00642        38.900          16.900
  20777021.469                    20777027.461    20777027.516   109183988.262 8
  85078456.986 8        51.000          48.800
  21230520.922                    21230530.137                   111567139.065 8
  86935490.856 8        48.300          48.800
 14  1  8  2  0  0.0000000  4  5
MORP (COGO code)                                            COMMENT
   0.033      (antenna height)                              COMMENT
 +55.21279000 (latitude)                                    COMMENT
  -1.68549700 (longitude)                                   COMMENT
0144.425      (elevation)                                   COMMENT
 14  1  8  2  0  0.0000000  0  7G02G12G23G29G21G31G25
  23433204.555                                    23433208.258   123142337.517 7
  95955094.72644        44.600          28.600
  24275977.445                    24275984.785    24275984.313   127571139.804 6
  99406107.298 6        37.300          37.100
  24545344.523                                                   128986506.955 5
                        34.200
  20197599.648                    20197605.934    20197606.164   106139067.432 8
  82705856.024 8        51.700          51.700
  24385967.883                                    24385974.867   128149248.277 6
  99856478.63043        38.800          18.600
  20777445.211                    20777450.852    20777451.023   109186213.987 8
  85080191.310 8        50.800          48.400
  21243116.234                    21243125.449                   111633327.526 8
  86987066.251 7        48.100          47.800
 14  1  8  2  0 30.0000000  0  7G02G12G23G29G21G31G25
  23443916.180                                    23443920.293   123198628.910 7
  95998958.12044        44.700          28.300
  24295473.992                    24295481.625    24295481.563   127673592.401 6
  99485940.450 6        38.000          37.100
  24535687.234                                                   128935753.68315
                        34.300
  20199388.398                    20199395.270    20199395.090   106148467.871 8
  82713181.044 8        51.600          51.200
  24367523.148                                    24367529.254   128052314.099 6
  99780945.50242        38.300          17.800
  20777976.352                    20777981.699    20777981.813   109189002.653 8
  85082364.287 8        50.700          48.400
  21255774.313                    21255783.820                   111699848.011 8
  87038900.383 8        48.400          48.200
 14  1  8  2  1  0.0000000  0  7G02G12G23G29G21G31G25
  23454713.844                                    23454717.078   123255368.880 7
  96043171.05744        44.600          27.900
  24314985.633                    24314993.266    24314993.262   127776129.946 6
  99565839.783 6        37.800          37.300
  24526125.469                                                   128885506.659 5
                        34.500
  20201275.406                    20201281.867    20201281.746   106158384.572 8
  82720908.340 8        51.900          51.600
  24349095.617                                    24349101.313   127955480.155 6
  99705490.52042        39.900          17.800
  20778613.719                    20778619.652    20778619.648   109192354.325 8
  85084975.974 8        50.800          48.100
  21268496.047                    21268505.438                   111766699.432 8
  87090992.375 7        48.300          47.600
 14  1  8  2  1 30.0000000  0  7G02G12G23G29G21G31G25
  23465612.609                                    23465615.727   123312643.106 7
  96087800.32444        44.600          27.900
  24334530.797                    24334537.082    24334537.371   127878838.865 6
  99645872.655 6        37.500          36.400
  24516677.375                                                   128835854.918 5
                        33.700
  20203277.156                    20203283.734    20203283.672   106168903.098 8
  82729104.552 8        52.100          50.400
  24330703.414                                    24330711.160   127858835.256 6
  99630182.80642        39.000          16.900
  20779375.523                    20779381.164    20779381.102   109196356.215 8
  85088094.322 8        50.300          48.800
  21281296.563                    21281306.070                   111833967.674 7
  87143409.147 8        47.900          48.600
 14  1  8  2  2  0.0000000  0  7G02G12G23G29G21G31G25
  23476580.695                                    23476584.750   123370284.285 7
  96132715.49744        44.100          27.600
  24354076.492                    24354084.008    24354084.121   127981553.135 6
  99725909.710 6        37.200          36.900
  24507310.484                                                   128786633.581 5
                        33.100
  20205361.664                    20205368.418    20205368.238   106179858.056 8
  82737640.862 8        51.400          51.000
  24312318.625                                    24312325.141   127762216.558 6
  99554895.50443        40.000          18.300
  20780228.859                    20780234.500    20780234.672   109200842.993 8
  85091590.504 8        50.900          48.700
  21294144.984                    21294154.258                   111901486.440 8
  87196021.132 8        48.300          48.600
 14  1  8  2  2 30.0000000  0  7G02G12G23G29G21G31G25
  23487635.094                                    23487638.621   123428372.069 7
  96177978.67044        44.300          28.700
  24373638.898                    24373646.297    24373646.117   128084352.603 6
  99806013.135 6        38.300          37.200
  24498042.695                                                   128737926.781 5
                        34.300
  20207544.500                    20207551.078    20207551.074   106191329.443 8
  82746579.592 8        51.900          50.600
  24293953.703                                    24293960.102   127665707.936 6
  99479694.00943        40.200          18.300
  20781190.555                    20781195.902    20781195.840   109205896.508 8
  85095528.294 8        49.300          48.700
  21307056.766                    21307065.980                   111969336.188 7
  87248891.043 7        47.400          47.800
 14  1  8  2  3  0.0000000  0  7G02G12G23G29G21G31G25
  23498788.000                                    23498791.938   123486982.289 7
  96223648.95544        44.700          28.600
  24393231.242                    24393239.227    24393239.047   128187314.325 6
  99886243.000 6        38.100          36.600
  24488886.547                                                   128689813.792 5
                        35.100
  20209840.313                    20209847.184    20209847.238   106203394.641 8
  82755981.049 8        52.100          50.700
  24275625.172                                    24275631.277   127569389.391 6
  99404640.62343        40.600          19.300
  20782275.180                    20782280.586    20782280.699   109211594.865 8
  85099968.564 8        50.100          49.000
  21320045.703                    21320054.684                   112037593.600 7
  87302078.602 8        47.700          48.000
 14  1  8  2  3 30.0000000  0  7G02G12G23G29G21G31G25
  23510010.734                                    23510014.613   123545956.231 7
  96269602.66544        44.300          27.800
  24412826.273                    24412832.383    24412832.730   128290280.223 6
  99966476.103 6        37.700          36.600
  24479813.961                                                   128642139.490 5
                        34.400
  20212219.672                    20212226.133    20212225.953   106215895.364 8
  82765721.880 8        52.200          51.200
  24257302.781                                    24257309.355   127473106.541 6
  99329615.03642        40.200          17.800
  20783452.586                    20783458.109    20783458.105   109217781.540 8
  85104789.334 8        49.600          48.500
  21333082.406                    21333091.445                   112106100.955 7
  87355460.918 7        47.600          47.500
 14  1  8  2  4  0.0000000  0  7G02G12G23G29G21G31G25
  23521316.586                                    23521319.996   123605369.248 7
  96315898.50644        44.400          28.100
  24432434.305                    24432442.172    24432442.344   128393326.404 6
 100046771.785 6        38.700          36.500
  24470840.922                                    24470843.629   128594982.448 5
 100204005.90242        35.500          15.600
  20214696.016                    20214702.184    20214702.297   106228908.389 8
  82775861.910 8        51.400          51.200
  24239002.289                                    24239008.512   127376938.390 6
  99254678.86943        39.800          19.000
  20784737.477                    20784743.469    20784743.113   109224533.312 8
  85110050.451 8        50.200          48.500
  21346180.813                    21346190.262                   112174934.178 8
  87409097.170 7        48.000          47.900
 14  1  8  2  4 30.0000000  0  7G02G12G23G29G21G31G25
  23532721.320                                    23532725.258   123665301.518 7
  96362598.94844        45.000          28.100
  24452073.445                    24452081.664    24452081.836   128496533.819 6
 100127193.086 6        37.400          36.000
  24461981.680                                    24461984.680   128548425.997 6
 100167728.21642        37.000          16.300
  20217284.641                    20217291.102    20217291.098   106242513.926 8
  82786463.617 8        52.600          51.300
  24220740.008                                    24220746.875   127280968.967 6
  99179897.49143        40.000          19.600
  20786145.375                    20786150.840    20786150.953   109231932.572 8
  85115816.095 8        50.300          48.300
  21359356.453                    21359365.902                   112244174.166 7
  87463050.399 7        47.900          47.900
 14  1  8  2  5  0.0000000  0  7G02G12G23G29G21G31G25
  23544194.086                                    23544197.906   123725592.522 7
  96409578.94444        44.200          26.800
  24471715.047                    24471722.270    24471722.266   128599742.827 6
 100207615.621 5        36.800          35.500
  24453205.508                                    24453210.852   128502313.498 6
 100131796.62542        37.000          13.900
  20219956.453                    20219963.383    20219963.203   106256553.262 8
  82797403.339 8        52.600          50.600
  24202486.258                                    24202492.188   127185042.625 6
  99105149.72443        39.500          19.300
  20787646.352                    20787651.875    20787651.813   109239820.792 8
  85121962.750 8        50.500          48.600
  21372579.422                    21372588.695                   112313661.469 8
  87517196.358 8        48.500          48.200
 14  1  8  2  5 30.0000000  0  7G02G12G23G29G21G31G25
  23555749.773                                    23555753.535   123786317.747 7
  96456897.29144        44.200          27.200
  24491369.039                    24491376.730    24491376.785   128703030.040 6
 100288099.137 6        36.900          36.100
  24444530.469                                    24444535.168   128456723.324 6
 100096271.79542        36.600          16.300
  20222725.086                    20222731.488    20222731.484   106271102.893 8
  82808740.715 8        52.600          50.600
  24184254.609                                    24184261.535   127089238.924 6
  99030497.52543        38.900          19.300
  20789255.320                    20789260.668    20789260.547   109248275.556 8
  85128550.870 8        50.900          48.700
  21385864.094                    21385873.367                   112383472.309 8
  87571594.402 8        48.400          48.000
 14  1  8  2  6  0.0000000  0  7G02G12G23G29G21G31G25
  23567403.531                                    23567407.469   123847555.688 7
  96504615.11644        44.900          27.600
  24511054.578                    24511061.566    24511061.270   128806474.579 5
 100368705.226 6        35.300          36.100
  24435970.367                                    24435976.063   128411737.741 6
 100061218.15642        36.200          15.600
  20225606.156                    20225612.441    20225612.379   106286241.619 8
  82820537.101 8        52.600          50.600
  24166063.375                                    24166070.184   126993640.259 6
  98956005.09943        39.400          19.300
  20790987.344                    20790993.043    20790993.098   109257377.320 8
  85135643.149 8        51.000          48.500
  21399225.148                    21399234.715                   112453685.910 8
  87626306.278 7        49.300          47.900
 14  1  8  2  6 30.0000000  0  7G02G12G23G29G21G31G25
  23579123.531                                    23579127.176   123909145.500 7
  96552607.13044        44.300          27.400
  24530737.906                    24530746.184    24530746.063   128909916.564 6
 100449309.337 6        36.700          36.600
  24427495.117                                    24427500.285   128367199.411 6
 100026512.96942        36.400          14.800
  20228568.805                    20228575.383    20228575.438   106301809.526 8
  82832667.939 8        52.500          51.100
  24147880.625                                    24147886.906   126898090.050 6
  98881550.40743        38.700          18.300
  20792812.297                    20792818.406    20792818.402   109266967.103 8
  85143115.695 8        51.000          48.700
  21412632.789                    21412642.180                   112524142.364 8
  87681207.383 8        48.600          48.100
 14  1  8  2  7  0.0000000  0  7G02G12G23G29G21G31G25
  23590925.430                                    23590928.957   123971164.580 7
  96600933.66244        44.100          27.200
  24550438.180                    24550444.758    24550444.695   129013434.180 5
 100529972.371 6        34.300          36.000
  24419120.492                                    24419126.129   128323188.428 6
  99992218.61142        37.000          14.800
  20231627.820                    20231633.813    20231633.926   106317884.836 8
  82845194.158 8        52.000          50.500
  24129722.570                                    24129728.793   126802669.443 6
  98807196.73343        38.600          19.900
  20794745.422                    20794750.828    20794750.824   109277124.134 8
  85151030.255 8        50.600          48.100
  21426101.375                    21426110.648                   112594919.814 8
  87736358.605 7        48.800          47.600
 14  1  8  2  7 30.0000000  0  7G02G12G23G29G21G31G25
  23602823.422                                    23602827.242   124033689.923 7
  96649654.67944        43.500          27.400
  24570165.391                    24570173.375    24570173.547   129117105.558 5
 100610755.223 5        33.600          35.800
  24410859.594                                    24410865.758   128279785.730 6
  99958398.30442        37.100          15.600
  20234797.969                    20234803.902    20234804.016   106334546.158 8
  82858177.025 8        52.800          51.300
  24111604.672                                    24111611.539   126707460.131 6
  98733007.69243        39.400          20.600
  20796801.180                    20796806.293    20796806.113   109287927.553 8
  85159448.496 8        50.900          48.600
  21439645.820                    21439655.387                   112666096.315 8
  87791820.775 8        48.800          48.200
 14  1  8  2  8  0.0000000  0  7G02G12G23G29G21G31G25
  23614787.961                                    23614792.016   124096563.471 7
  96698647.01844        43.400          26.300
  24589892.797                    24589900.078    24589900.543   129220773.425 5
 100691535.309 5        34.400          34.900
  24402688.992                                    24402693.398   128236836.864 6
  99924931.66842        37.300          15.600
  20238049.906                    20238056.250    20238056.012   106351636.070 8
  82871493.849 8        52.800          51.000
  24093497.539                                    24093504.465   126612308.234 6
  98658863.38443        39.000          18.600
  20798950.305                    20798955.828    20798955.824   109299221.329 8
  85168248.827 8        51.400          48.300
  21453235.906                    21453245.648                   112737514.637 8
  87847471.358 7        49.300          47.100
 14  1  8  2  8 30.0000000  0  7G02G12G23G29G21G31G25
  23626832.711                                    23626836.766   124159859.777 7
  96747968.79144        42.900          25.300
  24609633.781                    24609641.355    24609641.527   129324513.257 5
 100772371.500 5        35.500          35.500
  24394614.906                                    24394621.305   128194420.114 6
  99891879.72842        38.100          16.900
  20241398.289                    20241404.398    20241404.395   106369229.607 8
  82885203.111 8        52.700          50.900
  24075416.734                                    24075422.957   126517292.139 6
  98584824.94043        39.200          20.100
  20801206.938                    20801212.227    20801212.516   109311081.918 8
  85177490.829 8        51.500          48.500
  21466887.086                    21466896.184                   112809250.287 8
  87903369.235 8        49.500          48.000
 14  1  8  2  9  0.0000000  0  7G02G12G23G29G21G31G25
  23638972.336                                    23638976.918   124223655.546 7
  96797679.72844        42.200          24.700
  24629403.914                    24629410.844    24629411.074   129428402.547 5
 100853324.150 5        35.900          34.900
  24386659.695                                    24386666.563   128152614.870 6
  99859304.36442        36.300          15.600
  20244857.055                    20244863.398    20244863.570   106387404.663 8
  82899365.494 8        52.100          51.200
  24057376.766                                    24057383.457   126422492.969 6
  98510955.47543        39.100          18.300
  20803587.141                    20803592.488    20803592.660   109323587.664 8
  85187235.552 8        51.200          48.600
  21480613.313                    21480622.352                   112881380.706 8
  87959574.738 7        48.100          47.300
 14  1  8  2  9 30.0000000  0  7G02G12G23G29G21G31G25
  23651178.094                                    23651182.031   124287794.058 7
  96847657.74644        42.500          24.400
  24649171.469                    24649179.512    24649179.801   129532285.745 6
 100934272.040 5        36.100          34.200
  24378792.969                                    24378797.434   128111267.889 6
  99827085.93642        37.300          16.300
  20248396.258                    20248402.660    20248402.715   106406005.050 8
  82913859.314 8        52.300          50.900
  24039349.836                                    24039356.352   126327758.424 6
  98437136.41443        36.000          19.600
  20806060.109                    20806066.043    20806065.688   109336583.909 8
  85197362.478 8        51.300          48.800
  21494384.609                    21494394.234                   112953750.123 8
  88015966.487 7        49.100          47.500
 14  1  8  2 10  0.0000000  0  7G02G12G23G29G21G31G25
  23663462.086                                    23663466.316   124352349.511 6
  96897960.64744        41.900          25.100
  24668953.414                    24668960.871    24668961.277   129636238.115 6
 101015273.850 5        38.100          34.900
  24371026.219                                    24371031.504   128070456.593 6
  99795284.86242        39.700          16.300
  20252031.164                    20252037.625    20252037.738   106425106.617 8
  82928743.657 8        51.900          50.800
  24021349.664                                    24021355.828   126233167.141 6
  98363428.95343        39.200          18.600
  20808641.078                    20808646.426    20808646.129   109350146.975 8
  85207931.084 8        51.500          48.100
  21508215.656                    21508225.164                   113026433.778 8
  88072603.090 7        48.500          47.000
 14  1  8  2 10 30.0000000  0  7G02G12G23G29G21G31G25
  23675841.094                                    23675844.504   124417398.502 7
  96948648.11444        42.000          24.000
  24688763.383                    24688770.664    24688771.012   129740336.812 6
 101096389.665 5        37.300          35.500
  24363377.234                                    24363382.578   128030261.518 6
  99763964.17742        38.900          15.600
  20255775.766                    20255782.637    20255782.633   106444786.322 8
  82944078.510 8        52.400          51.500
  24003391.625                                    24003398.785   126138799.347 6
  98289895.62043        39.300          19.000
  20811345.008                    20811350.707    20811350.820   109364354.904 8
  85219002.191 8        50.200          48.400
  21522121.250                    21522130.992                   113099508.881 8
  88129544.727 7        48.200          47.000
 14  1  8  2 11  0.0000000  0  7G02G12G23G29G21G31G25
  23688283.883                                    23688287.586   124482786.853 6
  96999600.01744        41.900          25.000
  24708571.883                    24708579.398    24708578.750   129844428.774 6
 101177500.228 5        37.400          35.000
  24355816.875                                    24355822.102   127990530.976 6
  99733005.22042        39.200          17.400
  20259601.461                    20259607.805    20259607.684   106464891.056 8
  82959744.532 8        51.900          51.300
  23985448.398                                    23985454.211   126044505.306 6
  98216419.77843        39.900          19.600
  20814142.422                    20814147.828    20814147.473   109379055.575 8
  85230457.245 8        50.500          48.500
  21536072.523                    21536082.676                   113172822.258 8
  88186672.029 7        48.100          47.700
 14  1  8  2 11 30.0000000  0  7G02G12G23G29G21G31G25
  23700804.688                                    23700808.801   124548583.337 6
  97050869.92344        41.600          24.600
  24728390.586                    24728398.160    24728398.332   129948584.119 6
 101258660.176 5        36.900          35.900
  24348358.688                                    24348363.035   127951337.408 6
  99702464.78442        37.700          16.900
  20263521.844                    20263528.012    20263528.301   106485490.104 8
  82975795.749 8        51.400          51.200
  23967532.352                                    23967538.867   125950358.259 6
  98143058.49443        39.100          18.300
  20817046.969                    20817052.785    20817052.547   109394319.775 8
  85242351.414 8        50.700          48.500
  21550082.156                    21550092.074                   113246443.573 8
  88244039.265 7        48.500          47.000
 14  1  8  2 12  0.0000000  0  8G02G10G12G23G29G21G31G25
  23713418.711                                    23713422.531   124614871.007 6
  97102522.61544        41.400          24.700
  24648474.148                                                   129528493.00915
                        30.100
  24748239.672                    24748247.363    24748247.594   130052886.426 6
 101339934.645 5        37.200          35.000
  24341019.430                                    24341023.836   127912767.271 6
  99672410.11042        39.700          16.900
  20267551.633                    20267557.684    20267557.797   106506667.128 8
  82992297.327 8        51.200          51.600
  23949661.625                                    23949668.023   125856445.536 6
  98069879.79143        38.900          19.900
  20820074.844                    20820079.840    20820079.836   109410232.068 8
  85254750.587 8        51.200          48.600
  21564166.359                    21564175.926                   113320456.978 8
  88301712.027 7        48.100          47.300
 14  1  8  2 12 30.0000000  0  8G02G10G12G23G29G21G31G25
  23726095.414                                    23726099.762   124681487.147 6
  97154431.24643        41.600          23.500
  24648883.680                                                   129530649.825 5
                        30.800
  24768084.641                    24768092.039    24768092.035   130157174.392 5
 101421197.925 5        35.000          34.700
  24333767.797                                    24333772.438   127874661.078 6
  99642716.90242        39.000          14.800
  20271660.688                    20271667.441    20271667.262   106528261.706 8
  83009124.285 8        51.100          51.100
  23931805.758                                    23931811.336   125762608.545 6
  97996760.09243        39.600          20.100
  20823195.578                    20823200.809    20823201.273   109426631.839 8
  85267529.619 8        50.000          48.600
  21578294.586                    21578303.742                   113394700.549 7
  88359564.127 7        47.300          47.000
 14  1  8  2 13  0.0000000  0  8G02G10G12G23G29G21G31G25
  23738848.992                                    23738853.633   124748508.666 6
  97206655.74143        41.700          22.300
  24649410.117                                                   129533412.672 5
                        30.700
  24787942.516                    24787949.738    24787950.203   130261526.062 6
 101502510.864 5        36.600          34.400
  24326619.938                                    24326624.988   127837099.298 6
  99613447.79942        38.900          16.300
  20275864.500                    20275870.844    20275870.781   106550350.926 8
  83026336.678 8        50.400          51.500
  23913978.313                                    23913984.945   125668928.567 6
  97923762.70343        39.700          19.000
  20826424.609                    20826430.074    20826430.188   109443598.107 8
  85280750.070 8        50.800          48.000
  21592481.836                    21592491.227                   113469252.373 8
  88417656.420 7        48.100          47.200
 14  1  8  2 13 30.0000000  0  8G02G10G12G23G29G21G31G25
  23751694.484                                    23751698.656   124816011.242 7
  97259255.07644        42.000          24.500
  24650063.852                                                   129536859.598 5
                        30.300
  24807826.531                    24807834.574    24807834.922   130366018.156 6
 101583933.227 5        37.300          34.200
  24319590.383                                    24319595.727   127800160.928 6
  99584664.66942        39.400          15.600
  20280176.094                    20280183.375    20280183.195   106573010.958 8
  83043993.853 8        51.000          51.200
  23896196.156                                    23896203.082   125575485.491 6
  97850949.95143        39.000          20.100
  20829775.555                    20829780.727    20829780.723   109461208.088 8
  85294472.127 8        50.900          48.700
  21606741.266                    21606750.363                   113544188.888 7
  88476048.474 7        46.600          46.400
 14  1  8  2 14  0.0000000  0  8G02G10G12G23G29G21G31G25
  23764601.875                                    23764605.754   124883840.650 7
  97312109.10744        42.200          25.000
  24650821.227                                                   129540837.285 5
                        31.200
  24827707.766                    24827715.281    24827715.160   130470496.836 6
 101665345.143 5        37.900          33.800
  24312652.086                                    24312656.375   127763694.597 6
  99556249.31042        38.700          16.900
  20284567.531                    20284574.402    20284574.281   106596088.636 8
  83061976.467 8        50.300          51.100
  23878432.141                                    23878437.895   125482129.487 6
  97778205.03043        38.000          18.600
  20833219.742                    20833225.090    20833225.145   109479309.195 8
  85308576.868 8        50.800          48.600
  21621045.258                    21621054.883                   113619356.678 8
  88534620.736 7        48.200          47.000
 14  1  8  2 14 30.0000000  0  8G02G10G12G23G29G21G31G25
  23777585.453                                    23777589.098   124952068.111 7
  97365273.29444        42.400          24.700
  24651692.523                                                   129545419.125 4
                        28.300
  24847600.547                    24847608.648    24847609.055   130575034.428 6
 101746802.966 5        38.300          32.800
  24305816.094                                    24305820.793   127727775.336 6
  99528260.37642        38.800          15.600
  20289052.570                    20289059.266    20289059.145   106619656.362 8
  83080340.928 8        50.900          50.800
  23860697.523                                    23860703.629   125388935.903 6
  97705586.64543        38.400          21.100
  20836772.125                    20836777.297    20836777.059   109497974.638 8
  85323121.352 7        50.900          47.800
  21635406.758                    21635416.676                   113694828.034 7
  88593429.550 7        47.800          46.200
 14  1  8  2 15  0.0000000  0  8G02G10G12G23G29G21G31G25
  23790644.469                                    23790648.406   125020691.997 7
  97418746.41144        42.700          24.200
  24652679.359                                                   129550606.60614
                        27.600
  24867504.813                    24867512.680    24867512.441   130679630.710 6
 101828306.515 5        39.200          33.600
  24299085.391                                    24299090.031   127692404.395 6
  99500698.66942        38.300          16.300
  20293630.672                    20293637.426    20293637.305   106643712.835 8
  83099086.238 8        50.300          50.800
  23842994.344                                    23843000.977   125295907.451 6
  97633096.97343        38.700          20.400
  20840431.188                    20840436.945    20840437.000   109517204.333 8
  85338105.516 8        51.300          48.500
  21649826.383                    21649835.422                   113770602.200 8
  88652474.308 7        48.100          47.000
 14  1  8  2 15 30.0000000  0  8G02G10G12G23G29G21G31G25
  23803794.094                                    23803797.797   125089792.382 7
  97472590.80043        42.600          23.300
  24653798.594                                                   129556479.230 4
                        26.800
  24887435.953                    24887443.469    24887444.168   130784367.121 6
 101909919.242 5        38.100          33.200
  24292474.234                                    24292479.754   127657664.709 6
  99473628.79242        38.200          16.300
  20298316.656                    20298323.117    20298323.289   106668339.352 8
  83118275.715 8        50.100          51.400
  23825339.289                                    23825345.629   125203128.261 6
  97560801.53543        38.900          20.100
  20844213.438                    20844218.551    20844218.605   109537080.344 8
  85353593.303 8        50.800          48.300
  21664319.031                    21664328.188                   113846760.349 7
  88711818.290 7        47.700          46.200
 14  1  8  2 16  0.0000000  0  8G02G10G12G23G29G21G31G25
  23817003.336                                    23817006.688   125159207.086 7
  97526680.11643        43.400          23.000
  24655012.867                                                   129562878.618 4
                        27.600
  24907363.336                    24907369.973    24907370.555   130889082.249 6
 101991515.410 5        36.900          33.000
  24285953.977                                    24285958.852   127623397.680 6
  99446927.23442        39.700          16.300
  20303080.680                    20303087.785    20303087.664   106693374.811 8
  83137783.845 8        51.100          50.800
  23807701.727                                    23807707.773   125110440.818 6
  97488577.61043        39.600          21.100
  20848088.227                    20848093.457    20848093.512   109557442.208 8
  85369459.682 8        51.300          48.000
  21678853.398                    21678863.141                   113923141.382 7
  88771335.957 7        47.900          46.500
 14  1  8  2 16 30.0000000  0  8G02G10G12G23G29G21G31G25
  23830286.461                                    23830290.047   125229010.554 7
  97581072.35043        43.400          23.600
  24656347.516                                                   129569882.540 4
                        26.800
  24927300.414                    24927307.227    24927307.516   130993851.597 6
 102073153.804 5        37.700          33.300
  24279538.086                                    24279542.785   127589681.027 6
  99420654.53842        37.300          17.800
  20307936.984                    20307943.445    20307943.266   106718893.757 8
  83157668.709 8        49.900          50.900
  23790095.766                                    23790102.633   125017924.015 6
  97416486.60243        39.200          20.100
  20852069.711                    20852075.703    20852075.582   109578366.074 8
  85385763.979 8        49.800          48.100
  21693445.219                    21693454.902                   113999820.753 8
  88831086.114 7        48.800          46.600
 14  1  8  2 17  0.0000000  0  8G02G10G12G23G29G21G31G25
  23843659.328                                    23843663.207   125299286.547 7
  97635832.78943        42.900          22.600
  24657812.234                                                   129577575.011 4
                        27.600
  24947262.391                    24947269.789    24947271.074   131098760.093 6
 102154900.602 5        37.400          32.500
  24273242.414                                    24273248.227   127556601.589 6
  99394878.34542        37.700          17.800
  20312900.992                    20312908.039    20312908.094   106744981.278 8
  83177996.631 8        49.800          50.200
  23772540.781                                    23772546.535   124925665.870 6
  97344597.18243        38.300          20.900
  20856175.055                    20856180.461    20856180.457   109599937.535 8
  85402572.891 7        51.000          47.900
  21708109.727                    21708119.000                   114076882.968 8
  88891134.596 7        48.300          46.300
 14  1  8  2 17 30.0000000  0  7G02G12G23G29G21G31G25
  23857090.852                                    23857094.379   125369868.304 7
  97690831.48943        42.700          22.900
  24967221.078                    24967229.004    24967229.352   131203641.731 6
 102236626.474 5        37.500          32.400
  24267037.672                                    24267043.895   127523995.711 6
  99369471.21242        37.100          16.300
  20317941.844                    20317948.363    20317948.301   106771471.333 8
  83198638.196 8        50.800          50.500
  23755001.984                                    23755008.383   124833503.336 6
  97272782.22643        38.500          21.100
  20860371.359                    20860377.234    20860377.113   109621991.274 8
  85419757.613 8        50.800          48.400
  21722815.602                    21722824.992                   114154161.844 8
  88951351.879 7        48.900          46.700
 14  1  8  2 18  0.0000000  0  7G02G12G23G29G21G31G25
  23870595.773                                    23870598.891   125440836.521 7
  97746131.29743        42.700          22.900
  24987191.031                    24987197.492    24987198.191   131308578.686 6
 102318395.450 5        37.100          33.100
  24260938.992                                    24260945.039   127491947.129 6
  99344498.14442        36.900          15.600
  20323075.234                    20323081.695    20323081.750   106798445.876 8
  83219657.291 8        50.700          50.900
  23737499.445                                    23737505.141   124741521.886 6
  97201108.36343        39.700          20.900
  20864675.563                    20864680.910    20864680.906   109644610.013 8
  85437382.586 8        50.600          48.300
  21737578.461                    21737587.441                   114231739.769 8
  89011802.179 7        48.300          46.700
 14  1  8  2 18 30.0000000  0  7G02G12G23G29G21G31G25
  23884188.961                                    23884192.371   125512267.465 7
  97801791.70943        43.400          22.500
  25007184.844                    25007191.598    25007191.828   131413648.426 6
 102400267.894 5        37.600          33.500
  24254961.484                                    24254968.176   127460535.673 6
  99320021.67342        36.400          16.900
  20328315.398                    20328321.977    20328321.914   106825981.986 8
  83241113.984 8        50.400          50.700
  23720045.711                                    23720051.699   124649802.728 6
  97129638.89343        39.400          19.600
  20869102.063                    20869107.469    20869107.875   109667871.871 8
  85455508.701 7        50.000          47.900
  21752412.102                    21752421.609                   114309693.876 8
  89072545.604 7        48.000          46.400
 14  1  8  2 19  0.0000000  0  7G02G12G23G29G21G31G25
  23897839.258                                    23897843.078   125584000.161 7
  97857687.22343        43.200          22.500
  25027173.961                    25027180.891    25027181.473   131518690.934 6
 102482119.114 5        37.700          33.100
  24249075.781                                    24249082.004   127429603.256 6
  99295918.45942        36.000          16.900
  20333631.438                    20333638.191    20333637.953   106853918.755 8
  83262882.879 8        51.100          50.200
  23702611.797                                    23702617.551   124558188.603 6
  97058251.26443        40.400          20.600
  20873620.930                    20873626.570    20873626.684   109691617.106 8
  85474011.458 7        51.000          47.500
  21767287.719                    21767297.109                   114387863.947 8
  89133457.299 7        48.400          46.100
 14  1  8  2 19 30.0000000  0  7G02G12G23G29G21G31G25
  23911561.445                                    23911564.504   125656109.730 7
  97913876.44743        42.600          22.500
  25047172.133                    25047179.883    25047179.879   131623782.421 6
 102564008.533 5        36.900          33.200
  24243295.352                                    24243300.988   127399228.012 6
  99272249.42042        37.700          15.600
  20339038.547                    20339045.066    20339045.004   106882333.370 8
  83285024.129 8        49.500          49.900
  23685212.266                                    23685218.605   124466759.118 6
  96987007.49643        38.200          19.600
  20878246.070                    20878251.652    20878251.824   109715922.508 8
  85492950.722 7        48.800          47.900
  21782218.766                    21782228.098                   114466326.248 8
  89194596.703 7        48.000          46.500
 14  1  8  2 20  0.0000000  0  7G02G12G23G29G21G31G25
  23925370.344                                    23925373.871   125728676.874 7
  97970422.21843        43.000          21.300
  25067194.789                    25067201.836    25067202.242   131729005.030 6
 102646000.117 5        37.900          32.600
  24237637.758                                    24237642.574   127369494.240 6
  99249080.26142        37.700          15.600
  20344551.930                    20344558.098    20344558.328   106911306.477 8
  83307600.563 8        50.500          50.700
  23667866.203                                    23667871.547   124375598.994 6
  96915973.66243        38.400          20.100
  20882993.344                    20882999.277    20882999.039   109740870.811 8
  85512390.940 8        49.500          48.000
  21797220.664                    21797230.289                   114545162.573 8
  89256027.568 7        48.500          46.600
 14  1  8  2 20 30.0000000  0  7G02G12G23G29G21G31G25
  23939236.383                                    23939238.973   125801540.057 7
  98027198.63543        42.700          22.000
  25087213.070                    25087219.824    25087220.641   131834198.365 6
 102727968.906 5        37.600          31.600
  24232070.945                                    24232076.641   127340243.333 6
  99226287.32642        36.900          16.900
  20350141.313                    20350147.539    20350147.594   106940677.904 8
  83330487.386 8        50.900          50.500
  23650540.023                                    23650546.188   124284551.648 6
  96845027.66543        38.900          20.600
  20887832.914                    20887838.379    20887838.434   109766302.419 8
  85532207.754 8        50.300          48.200
  21812263.344                    21812272.852                   114624212.542 8
  89317624.902 7        48.700          46.400
 14  1  8  2 21  0.0000000  0  8G02G10G12G23G29G21G31G25
  23953171.508                                    23953175.738   125874775.651 7
  98084265.24643        42.000          21.100
  24673578.766                                                   129660453.346 5
                        31.000
  25107239.930                    25107245.512    25107247.266   131939439.814 6
 102809975.194 5        38.100          32.100
  24226613.469                                    24226617.465   127311554.514 6
  99203932.33242        36.300          15.600
  20355820.844                    20355827.422    20355827.301   106970524.613 8
  83353744.566 8        51.000          50.700
  23633250.305                                    23633257.465   124193697.420 6
  96774232.19543        39.000          21.100
  20892779.008                    20892784.707    20892784.703   109792294.622 8
  85552461.394 7        50.600          47.900
  21827361.555                    21827371.063                   114703553.308 8
  89379448.848 7        49.100          46.000
 14  1  8  2 21 30.0000000  0  9G05G02G10G12G23G29G21G31G25
  24974674.828                                                   131242746.939 5
                        31.500
  23967193.102                                    23967196.629   125948459.124 6
  98141680.86943        41.700          21.100
  24676076.516                                                   129673588.728 5
                        32.400
  25127289.891                    25127296.762    25127297.988   132044805.504 6
 102892078.286 5        38.700          31.500
  24221275.227                                    24221279.750   127283506.224 6
  99182076.38542        37.300          16.300
  20361605.352                    20361612.164    20361612.160   107000922.521 8
  83377431.250 8        49.300          50.200
  23616014.609                                    23616020.715   124103116.029 6
  96703649.24043        37.500          21.700
  20897846.578                    20897852.453    20897852.449   109818924.545 7
  85573211.963 7        47.300          47.600
  21842529.508                    21842538.781                   114783261.266 8
  89441558.927 7        48.200          47.100
 14  1  8  2 22  0.0000000  0  9G05G02G10G12G23G29G21G31G25
  24961946.188                    24961951.711                   131175861.560 5
 102215016.556 4        31.900          27.500
  23981270.938                                    23981273.586   126022433.627 6
  98199323.26943        41.700          21.300
  24678676.602                                                   129687249.504 5
                        32.400
  25147334.664                    25147340.891    25147341.824   132150140.545 6
 102974157.518 5        38.800          31.400
  24216030.883                                    24216034.703   127255945.114 6
  99160600.22242        37.500          17.400
  20367465.258                    20367471.426    20367471.246   107031715.929 8
  83401426.108 8        51.000          50.200
  23598800.352                                    23598806.574   124012655.465 6
  96633160.51543        39.200          21.700
  20903005.883                    20903011.699    20903011.813   109846037.305 8
  85594338.746 7        50.600          47.300
  21857738.023                    21857746.652                   114863180.726 8
  89503833.794 7        48.000          46.200
 14  1  8  2 22 30.0000000  0  9G05G02G10G12G23G29G21G31G25
  24949290.172                    24949293.527                   131109344.577 5
 102163185.186 4        33.800          28.300
  23995416.805                                    23995420.801   126096774.001 6
  98257250.76043        41.400          21.800
  24681390.117                                                   129701512.741 5
                        33.200
  25167388.305                    25167394.473    25167395.406   132255520.663 6
 103056271.899 5        38.400          32.400
  24210892.508                                    24210897.969   127228948.474 6
  99139563.76942        37.400          17.800
  20373414.578                    20373421.332    20373421.270   107062980.799 8
  83425788.337 8        50.900          49.900
  23581624.672                                    23581629.898   123922394.784 6
  96562827.49543        37.800          21.300
  20908272.063                    20908278.113    20908277.875   109873709.211 8
  85615901.236 7        50.600          47.700
  21873000.828                    21873010.336                   114943387.494 8
  89566332.551 7        48.000          46.200
 14  1  8  2 23  0.0000000  0  9G05G02G10G12G23G29G21G31G25
  24936717.391                    24936722.855                   131043277.870 5
 102111704.700 5        34.200          30.400
  24009647.164                                    24009651.746   126171557.449 6
  98315523.47743        40.600          20.100
  24684234.578                                                   129716458.000 5
                        32.300
  25187464.727                    25187469.957    25187471.711   132361024.071 6
 103138482.372 5        38.800          31.000
  24205878.500                                    24205883.727   127202596.720 6
  99119029.95442        38.600          16.900
  20379468.414                    20379474.875    20379475.105   107094794.688 8
  83450578.382 8        51.200          50.200
  23564501.461                                    23564507.801   123832415.450 6
  96492713.78543        38.900          22.200
  20913658.742                    20913664.676    20913664.672   109902018.836 8
  85637960.676 7        50.700          47.900
  21888332.914                    21888342.188                   115023959.741 7
  89629116.085 7        47.400          47.300
 14  1  8  2 23 30.0000000  0 10G05G02G10G12G23G29G21G16G31G25
  24924201.445                    24924206.910                   130977507.489 5
 102060455.116 5        34.300          30.900
  24023932.523                                    24023937.691   126246625.429 6
  98374017.95743        40.300          19.900
  24687176.930                                                   129731928.185 5
                        32.800
  25207534.422                    25207541.703    25207542.520   132466493.507 6
 103220666.388 5        37.900          30.200
  24200956.680                                    24200962.141   127176734.217 6
  99098877.31342        37.900          16.900
  20385596.859                    20385603.613    20385603.492   107126999.983 8
  83475673.420 8        51.200          50.200
  23547403.375                                    23547409.539   123742562.961 6
  96422698.89143        38.700          21.800
  24543207.086                                                   128975410.321 5
                        32.000
  20919137.422                    20919143.648    20919143.352   109930809.191 8
  85660394.712 8        50.200          48.100
  21903704.867                    21903714.141                   115104739.945 7
  89692061.665 7        47.600          46.400
 14  1  8  2 24  0.0000000  0 10G05G02G10G12G23G29G21G16G31G25
  24911756.469                    24911761.934                   130912111.401 5
 102009497.170 5        34.400          32.000
  24038285.969                                    24038289.555   126322050.654 6
  98432790.78543        39.200          20.600
  24690234.914                                                   129747997.609 5
                        30.500
  25227611.766                    25227619.574    25227620.332   132572003.138 6
 103302881.760 5        37.100          30.400
  24196142.727                                    24196148.832   127151436.892 6
  99079165.04742        38.300          17.400
  20391814.125                    20391820.820    20391820.758   107159670.023 8
  83501130.596 8        51.300          50.100
  23530343.141                                    23530350.125   123652915.166 6
  96352843.60243        38.900          20.900
  24523425.063                                                   128871458.137 5
                        33.200
  20924722.211                    20924727.910    20924727.906   109960154.601 8
  85683261.279 8        51.000          48.200
  21919130.242                    21919139.516                   115185801.983 7
  89755226.862 7        47.600          46.500
 14  1  8  2 24 30.0000000  0 10G05G02G10G12G23G29G21G16G31G25
  24899399.000                    24899405.695                   130847175.248 5
 101958897.604 5        34.800          31.500
  24052721.227                                    24052726.629   126397913.773 6
  98491904.80243        39.200          19.900
  24693423.000                                                   129764748.813 4
                        28.000
  25247713.242                    25247720.523                   132677634.911 6
 103385192.343 4        37.500          29.800
  24191453.164                                    24191457.805   127126788.859 6
  99059958.84942        37.800          17.800
  20398134.484                    20398141.180    20398141.059   107192886.941 8
  83527013.902 8        50.800          50.200
  23513338.492                                    23513344.480   123563556.253 6
  96283213.25343        38.800          21.100
  24503671.516                                                   128767657.911 5
                        34.100
  20930427.625                    20930433.090    20930433.027   109990137.816 8
  85706624.817 8        51.000          48.200
  21934625.297                    21934634.395                   115267227.780 7
  89818675.501 7        47.600          46.000
 14  1  8  2 25  0.0000000  0 10G05G02G10G12G23G29G21G16G31G25
  24887100.633                    24887106.684                   130782543.629 5
 101908535.349 5        34.300          32.800
  24067209.750                                    24067215.328   126474054.616 6
  98551235.24342        38.200          17.800
  24696709.836                                                   129782023.547 4
                        28.300
  25267807.281                    25267813.977                   132783229.806 6
 103467474.226 4        36.100          29.600
  24186855.438                                    24186860.313   127102632.325 5
  99041135.73743        35.700          18.300
  20404529.656                    20404536.293    20404536.172   107226490.952 8
  83553198.826 8        51.200          49.900
  23496360.039                                    23496366.613   123474331.193 6
  96213687.16443        40.200          22.900
  24483920.836                                                   128663852.902 5
                        33.700
  20936224.461                    20936230.102    20936230.098   110020599.863 8
  85730361.468 7        50.300          47.900
  21950159.094                    21950168.719                   115348857.944 7
  89882283.379 7        47.600          46.100
 14  1  8  2 25 30.0000000  0 10G05G02G10G12G23G29G21G16G31G25
  24874873.773                    24874880.762                   130718294.520 5
 101858471.143 5        35.000          33.800
  24081766.461                                    24081771.336   126550546.318 6
  98610839.12143        38.400          18.300
  24700110.523                                                   129799895.631 4
                        28.900
  25287909.164                    25287914.336                   132888862.033 6
 103549785.170 4        36.700          28.900
  24182366.297                                    24182371.816   127079043.023 6
  99022754.39342        36.500          17.800
  20411011.984                    20411018.680    20411018.617   107260556.370 8
  83579743.299 8        49.400          50.400
  23479421.617                                    23479427.723   123385317.471 6
  96144325.82243        39.800          21.800
  24464178.398                                                   128560119.620 5
                        33.700
  20942126.078                    20942131.543    20942131.656   110051615.002 7
  85754529.104 8        47.900          48.000
  21965745.641                    21965755.383                   115430766.653 7
  89946108.305 7        47.900          45.900
 14  1  8  2 26  0.0000000  0 10G05G02G10G12G23G29G21G16G31G25
  24862735.539                    24862742.820                   130654510.233 5
 101808769.124 5        33.200          33.000
  24096402.844                                    24096408.773   126627465.888 6
  98670776.35942        37.800          17.400
  24703638.758                                                   129818444.345 4
                        28.900
  25308032.000                    25308037.641                   132994609.953 5
 103632186.266 4        35.700          29.100
  24178001.484                                    24178006.066   127056101.599 6
  99004877.97042        38.300          17.400
  20417596.852                    20417603.371    20417603.426   107295160.373 8
  83606707.446 8        51.200          50.200
  23462538.742                                    23462544.613   123296595.884 6
  96075192.05843        39.700          21.500
  24444468.094                                                   128456538.716 5
                        35.200
  20948148.680                    20948154.027    20948153.965   110083262.284 8
  85779189.325 7        49.800          47.300
  21981400.703                    21981410.152                   115513032.260 7
  90010211.348 7        47.600          46.000
 14  1  8  2 26 30.0000000  0 10G05G02G10G12G23G29G21G16G31G25
  24850657.234                    24850664.750                   130591040.401 5
 101759312.125 5        33.700          34.000
  24111093.641                                    24111098.340   126704658.588 6
  98730926.42342        37.900          17.400
  24707268.992                                                   129837516.717 4
                        29.900
  25328147.719                    25328153.828                   133100319.885 5
 103714557.790 4        34.900          28.300
  24173731.070                                    24173735.477   127033655.754 6
  98987387.62143        38.200          18.300
  20424254.828                    20424261.641    20424261.520   107330149.309 8
  83633971.543 8        50.900          50.000
  23445682.000                                    23445688.926   123208016.743 6
  96006169.34543        41.100          22.000
  24424758.086                                                   128352958.838 5
                        34.800
  20954261.813                    20954267.512    20954267.391   110115388.227 8
  85804222.528 7        49.700          47.800
  21997093.922                    21997103.664                   115595500.946 7
  90074472.634 7        47.600          46.000
 14  1  8  2 27  0.0000000  0 10G05G02G10G12G23G29G21G16G31G25
  24838653.828                    24838662.047                   130527962.724 5
 101710160.702 5        31.800          33.900
  24125847.633                                    24125853.563   126782197.624 6
  98791346.35743        37.200          18.300
  24711012.609                                                   129857187.818 4
                        28.900
  25348270.445                    25348276.262                   133206066.256 5
 103796957.727 4        34.400          28.900
  24169567.133                                    24169572.477   127011781.591 6
  98970342.72842        38.900          16.900
  20431000.633                    20431007.152    20431007.207   107365597.414 8
  83661593.440 8        51.500          50.200
  23428868.406                                    23428874.570   123119657.094 6
  95937317.66243        40.400          22.500
  24405062.227                                                   128249455.985 5
                        35.400
  20960480.203                    20960486.430    20960486.250   110148067.327 8
  85829686.745 7        49.300          47.600
  22012839.734                    22012849.066                   115678246.593 7
  90138949.732 7        47.800          45.900
 14  1  8  2 27 30.0000000  0 10G05G02G10G12G23G29G21G16G31G25
  24826737.609                    24826748.113                   130465355.974 5
 101661376.231 5        31.200          34.300
  24140683.625                                    24140689.203   126860156.486 6
  98852093.45542        37.200          17.800
  24714884.750                                                   129877532.099 4
                        29.100
  25368413.703                    25368420.984                   133311923.888 5
 103879444.345 4        33.700          27.900
  24165528.250                                    24165533.477   126990555.455 6
  98953802.86242        39.600          17.800
  20437847.609                    20437854.422    20437854.535   107401578.986 8
  83689631.034 8        51.500          50.600
  23412109.578                                    23412116.855   123031595.289 6
  95868698.06643        40.500          22.200
  24385394.922                                                   128146107.823 5
                        35.800
  20966818.969                    20966824.258    20966824.195   110181374.435 8
  85855640.303 7        49.100          47.600
  22028652.117                    22028662.035                   115761343.937 7
  90203700.864 7        47.100          46.000
