     2.11           OBSERVATION DATA    G (GPS)             RINEX VERSION / TYPE
teqc  2013Mar15                         20140106 12:52:59UTCPGM / RUN BY / DATE
Linux 2.4.20-8|Pentium IV|gcc -static|Linux|486/DX+         COMMENT
   0.033      (antenna height)                              COMMENT
 +55.21279000 (latitude)                                    COMMENT
  -1.68549700 (longitude)                                   COMMENT
0144.425      (elevation)                                   COMMENT
BIT 2 OF LLI FLAGS DATA COLLECTED UNDER A/S CONDITION       COMMENT
MORP (COGO code)                                            COMMENT
MORP                                                        MARKER NAME
13299S001                                                   MARKER NUMBER
Matt King           NCL                                     OBSERVER / AGENCY
4843K3347           TRIMBLE NETR8       4.19                REC # / TYPE / VERS
221                 AOAD/M_T        NONE                    ANT # / TYPE
  3645667.8584  -107277.2886  5215053.4919                  APPROX POSITION XYZ
        0.0330        0.0000        0.0000                  ANTENNA: DELTA H/E/N
     1     1                                                WAVELENGTH FACT L1/2
     8    C1    P1    C2    P2    L1    L2    S1    S2      # / TYPES OF OBSERV
    30.0000                                                 INTERVAL
    16                                                      LEAP SECONDS
Forced Modulo Decimation to 30 seconds                      COMMENT
 SNR is mapped to RINEX snr flag value [0-9]                COMMENT
  L1 & L2: min(max(int(snr_dBHz/6), 0), 9)                  COMMENT
  2014     1     3     0     0    0.0000000     GPS         TIME OF FIRST OBS
                                                            END OF HEADER
 14  1  3  0  0  0.0000000  0  9G04G02G14G32G25G29G24G12G31
  23471801.586                                    23471808.277   123345000.316 6
  96113136.23643        40.000          21.800
  24224261.797                                    24224266.379   127299370.278 7
  99194321.85344        42.400          24.500
  21398770.125                                    21398776.230   112451314.731 7
  87624397.14145        46.400          33.300
  24862736.055                                                   130654560.221 5
                        30.700
  20689427.109                    20689435.914                   108723652.532 8
  84719821.211 8        49.800          49.300
  23390312.602                    23390319.824    23390319.879   122916889.639 6
  95779450.575 6        41.200          39.800
  22539965.750                    22539976.078                   118448307.516 7
  92297467.982 7        42.900          45.100
  20275635.664                    20275640.660    20275640.539   106549296.616 8
  83025402.421 8        52.300          50.500
  23979197.961                    23979203.484    23979203.246   126011510.028 6
  98190829.737 6        40.200          36.900
 14  1  3  0  0 30.0000000  0  9G04G02G14G32G25G29G24G12G31
  23468412.922                                    23468419.672   123327194.483 6
  96099261.57743        41.100          21.100
  24209824.891                                    24209829.590   127223504.803 6
  99135205.92143        41.200          22.300
  21400230.117                                    21400236.105   112458988.668 7
  87630376.82845        47.600          33.600
  24865298.625                                                   130668031.240 5
                        32.300
  20680070.648                    20680079.570                   108674483.714 8
  84681507.850 8        49.900          48.900
  23369019.609                    23369026.832    23369027.004   122804993.767 6
  95692259.106 6        41.200          39.500
  22557721.414                    22557730.219                   118541608.010 7
  92370169.630 7        43.100          45.300
  20281558.414                    20281563.586    20281563.582   106580420.875 8
  83049655.089 8        52.700          50.500
  23960253.148                    23960258.262    23960257.730   125911950.541 6
  98113250.935 6        40.200          36.900
 14  1  3  0  1  0.0000000  0  9G04G02G14G32G25G29G24G12G31
  23465141.445                                    23465147.727   123309999.678 6
  96085863.05843        41.100          22.800
  24195438.844                                    24195443.133   127147905.245 6
  99076297.22143        41.000          21.500
  21401806.523                                    21401812.512   112467271.988 7
  87636831.35845        47.700          33.900
  24867964.359                                                   130682040.609 5
                        31.500
  20670791.695                    20670800.383                   108625723.486 8
  84643512.874 8        50.200          49.000
  23347760.602                    23347768.117    23347768.348   122693280.023 6
  95605209.544 6        40.900          39.300
  22575524.359                    22575533.516                   118635167.591 7
  92443073.169 7        42.600          44.500
  20287563.688                    20287568.684    20287568.563   106611978.132 8
  83074245.159 8        53.100          50.600
  23941328.203                    23941333.668    23941334.191   125812503.041 6
  98035759.385 6        40.900          37.500
 14  1  3  0  1 30.0000000  0  9G04G02G14G32G25G29G24G12G31
  23461985.625                                    23461992.844   123293416.137 6
  96072940.81643        40.300          21.700
  24181103.367                                    24181108.184   127072573.873 6
  99017597.45343        41.600          22.600
  21403499.016                                    21403504.594   112476163.829 7
  87643760.06645        47.300          34.300
  24870732.391                                                   130696587.102 5
                        33.600
  20661590.891                    20661600.105                   108577372.063 8
  84605836.447 8        49.800          49.300
  23326537.813                    23326545.328    23326545.383   122581750.603 6
  95518303.596 6        40.500          39.700
  22593377.742                    22593386.664                   118728984.388 7
  92516177.125 7        42.600          44.500
  20293650.711                    20293656.293    20293656.055   106643966.567 8
  83099171.208 8        52.500          50.600
  23922425.172                    23922431.457    23922431.219   125713168.382 6
  97958355.755 6        40.200          36.500
 14  1  3  0  2  0.0000000  0  9G04G02G14G32G25G29G24G12G31
  23458946.523                                    23458953.391   123277445.795 6
  96060496.42243        40.100          22.000
  24166819.844                                    24166824.543   126997513.954 6
  98959109.26444        41.800          24.400
  21405306.375                                    21405312.480   112485664.829 8
  87651163.44345        48.000          33.600
  24873603.039                                                   130711670.478 5
                        32.800
  20652467.992                    20652477.090                   108529430.698 8
  84568479.541 8        50.000          49.400
  23305350.656                    23305357.820    23305357.875   122470408.493 6
  95431543.599 6        41.800          40.100
  22611278.945                    22611288.336                   118823057.389 7
  92589480.752 7        44.200          44.600
  20299819.758                    20299825.281    20299825.277   106676386.063 8
  83124433.153 8        52.900          50.200
  23903544.203                    23903550.371    23903550.543   125613948.849 6
  97881041.844 6        41.200          37.200
 14  1  3  0  2 30.0000000  0  9G04G02G14G32G25G29G24G12G31
  23456023.977                                    23456030.727   123262088.232 6
  96048529.51743        39.000          22.000
  24152588.242                                    24152593.176   126922726.854 6
  98900833.63243        41.300          23.600
  21407230.461                                    21407236.332   112495773.587 7
  87659040.38945        46.400          34.200
  24876574.805                                                   130727288.704 5
                        33.500
  20643422.867                    20643431.672                   108481898.728 8
  84531441.648 8        49.500          49.700
  23284198.336                    23284205.031    23284205.438   122359254.934 6
  95344930.541 6        41.700          40.100
  22629228.734                    22629238.066                   118917383.704 7
  92662981.752 7        43.900          44.900
  20306070.422                    20306075.711    20306075.590   106709233.646 8
  83150028.665 8        52.500          50.500
  23884685.273                    23884691.383    23884691.203   125514844.797 6
  97803817.909 6        40.700          37.600
 14  1  3  0  3  0.0000000  0  9G04G02G14G32G25G29G24G12G31
  23453218.734                                    23453225.660   123247346.212 6
  96037042.24543        40.400          21.800
  24138410.258                                    24138414.488   126848216.968 6
  98842774.02143        41.800          22.800
  21409270.133                                    21409275.887   112506491.471 7
  87667391.98645        47.800          34.200
  24879649.891                                                   130743442.749 5
                        33.700
  20634456.305                    20634465.285                   108434778.550 8
  84494724.633 8        49.900          49.800
  23263082.906                    23263090.305    23263090.242   122248293.887 6
  95258467.509 6        41.000          40.400
  22647226.453                    22647236.020                   119011963.898 7
  92736680.574 7        43.000          44.600
  20312402.648                    20312408.289    20312408.227   106742509.760 8
  83175958.112 8        52.300          50.900
  23865849.891                    23865855.297    23865855.410   125415859.662 6
  97726686.647 6        40.500          37.200
 14  1  3  0  3 30.0000000  0  9G04G02G14G32G25G29G24G12G31
  23450530.133                                    23450537.352   123233220.456 6
  96026035.15343        39.000          21.700
  24124284.352                                    24124288.406   126773986.561 6
  98784932.18843        40.800          22.800
  21411425.711                                    21411431.523   112517818.229 7
  87676218.02145        46.000          34.300
  24882824.523                                                   130760131.418 5
                        34.500
  20625567.961                    20625576.648                   108388070.651 8
  84458328.873 8        49.100          49.300
  23242005.055                    23242011.926    23242012.098   122137527.806 7
  95172156.359 6        42.200          40.600
  22665272.289                    22665281.914                   119106796.399 7
  92810576.003 7        43.100          44.200
  20318816.000                    20318821.992    20318821.754   106776213.122 8
  83202220.468 8        52.300          50.600
  23847036.352                    23847042.461    23847042.281   125316994.658 6
  97649648.992 6        41.300          37.900
 14  1  3  0  4  0.0000000  0  9G04G02G14G32G25G29G24G12G31
  23447960.250                                    23447966.941   123219711.046 6
  96015508.33843        38.900          21.100
  24110212.352                                    24110216.406   126700037.944 6
  98727309.95543        40.900          23.500
  21413696.625                                    21413702.027   112529752.683 7
  87685517.59845        47.400          33.600
  24886102.344                                                   130777353.228 5
                        34.900
  20616758.195                    20616767.117                   108341775.054 8
  84422254.388 8        50.100          48.600
  23220964.836                    23220971.063    23220971.176   122026958.912 7
  95085998.837 6        43.000          40.300
  22683366.414                    22683375.746                   119201878.783 7
  92884666.157 7        43.300          44.100
  20325310.992                    20325316.691    20325316.512   106810342.263 8
  83228814.604 8        52.300          50.500
  23828245.242                    23828251.410    23828251.816   125218251.060 6
  97572705.934 6        40.800          38.100
 14  1  3  0  4 30.0000000  0  9G04G02G14G32G25G29G24G12G31
  23445506.398                                    23445514.027   123206819.152 6
  96005462.71143        39.300          21.500
  24096194.586                                    24096198.465   126626373.233 6
  98669908.93244        40.200          24.500
  21416082.828                                    21416088.641   112542294.813 7
  87695290.68045        47.100          33.700
  24889480.672                                                   130795107.346 5
                        35.400
  20608026.648                    20608035.863                   108295892.450 8
  84386501.710 8        49.900          49.400
  23199961.805                    23199968.500    23199968.438   121916589.100 7
  94999996.442 6        42.600          40.300
  22701507.047                    22701516.848                   119297209.884 7
  92958950.107 7        43.200          44.100
  20331886.141                    20331891.664    20331891.719   106844895.961 8
  83255739.559 8        52.000          50.600
  23809478.430                    23809484.363    23809484.477   125119630.304 6
  97495858.599 6        40.900          38.300
 14  1  3  0  5  0.0000000  0  9G04G02G14G32G25G29G24G12G31
  23443171.516                                    23443178.266   123194545.137 6
  95995898.55243        39.400          21.500
  24082230.773                                    24082235.590   126552995.175 6
  98612731.27843        39.800          22.500
  21418585.047                                    21418591.152   112555444.199 7
  87705536.95845        47.400          34.000
  24892961.883                                                   130813392.620 6
                        36.300
  20599374.633                    20599383.496                   108250423.320 8
  84351071.219 8        49.900          49.000
  23178996.641                    23179004.625    23179004.563   121806420.935 7
  94914151.162 6        42.000          40.500
  22719695.008                    22719704.223                   119392787.994 7
  93033426.527 7        44.000          44.400
  20338542.063                    20338547.820    20338547.816   106879872.793 8
  83282994.236 8        52.500          50.500
  23790735.492                    23790741.660    23790741.480   125021134.192 6
  97419108.373 6        41.500          38.300
 14  1  3  0  5 30.0000000  0  9G04G02G14G32G25G29G24G12G31
  23440952.484                                    23440959.879   123182890.437 6
  95986816.95643        40.400          21.700
  24068322.438                                    24068327.195   126479906.533 6
  98555779.12344        40.500          24.300
  21421203.344                                    21421208.570   112569200.559 7
  87716256.19745        47.600          33.300
  24896541.023                                                   130832208.736 6
                        36.000
  20590800.742                    20590810.367                   108205368.621 8
  84315963.666 8        50.300          49.400
  23158071.391                    23158078.965    23158078.785   121696457.292 7
  94828465.277 6        42.500          40.200
  22737930.195                    22737939.176                   119488611.830 7
  93108094.419 7        43.000          44.300
  20345278.297                    20345284.406    20345284.344   106915271.881 8
  83310577.943 8        51.900          50.000
  23772016.641                    23772021.754    23772021.633   124922764.532 6
  97342456.700 6        41.200          38.800
 14  1  3  0  6  0.0000000  0  9G04G02G14G32G25G29G24G12G31
  23438853.320                                    23438860.305   123171855.662 6
  95978218.43843        40.100          20.600
  24054469.695                                    24054474.512   126407110.129 6
  98499054.68443        39.400          22.800
  21423936.227                                    21423942.449   112583563.692 7
  87727448.24145        46.100          33.700
  24900222.813                                                   130851554.218 5
                        34.600
  20582306.305                    20582314.934                   108160728.841 8
  84281179.427 8        49.900          49.500
  23137185.906                    23137193.070    23137192.949   121586700.511 7
  94742940.606 6        42.500          41.000
  22756211.273                    22756220.723                   119584680.191 7
  93182952.873 7        42.600          44.300
  20352094.461                    20352100.102    20352100.215   106951091.996 8
  83338489.718 8        51.400          50.300
  23753321.703                    23753327.227    23753327.574   124824522.984 6
  97265904.851 6        41.400          38.300
 14  1  3  0  6 30.0000000  0  9G04G02G14G32G25G29G24G12G31
  23436870.914                                    23436878.016   123161440.901 6
  95970103.04343        39.900          19.900
  24040672.688                                    24040677.328   126334607.793 6
  98442559.38143        40.400          23.600
  21426784.992                                    21426790.277   112598532.776 7
  87739112.46245        47.400          33.600
  24904004.063                                                   130871427.816 5
                        35.400
  20573890.555                    20573899.477                   108116504.040 8
  84246718.541 8        50.600          49.600
  23116339.148                    23116346.723    23116346.777   121477152.441 7
  94657578.591 6        42.500          40.900
  22774539.055                    22774547.742                   119680990.757 7
  93258000.052 7        42.900          45.000
  20358990.453                    20358996.035    20358995.855   106987330.873 8
  83366727.810 8        52.500          51.000
  23734651.414                    23734657.172    23734657.461   124726410.725 6
  97189453.756 6        41.500          37.700
 14  1  3  0  7  0.0000000  0  9G04G02G14G32G25G29G24G12G31
  23435008.102                                    23435014.559   123151646.502 6
  95962471.01443        40.600          20.600
  24026932.734                                    24026936.906   126262401.536 6
  98386294.83244        40.300          24.200
  21429748.766                                    21429754.109   112614106.546 7
  87751247.86645        47.700          33.700
  24907886.156                                                   130891827.855 5
                        34.900
  20565553.430                    20565562.879                   108072694.219 8
  84212581.021 8        51.200          49.600
  23095532.867                    23095540.617    23095540.320   121367815.011 7
  94572380.671 6        42.600          41.100
  22792911.000                    22792920.625                   119777541.591 7
  93333234.460 7        42.600          44.700
  20365966.141                    20365971.781    20365971.602   107023987.739 8
  83395291.599 8        52.300          50.200
  23716006.531                    23716012.172    23716012.285   124628428.664 6
  97113104.106 6        41.900          39.100
 14  1  3  0  7 30.0000000  0  9G04G02G14G32G25G29G24G12G31
  23433261.586                                    23433269.098   123142474.921 6
  95955324.38743        41.700          20.600
  24013249.539                                    24013253.535   126190495.793 6
  98330264.41844        41.100          25.000
  21432827.586                                    21432832.578   112630286.396 7
  87763855.53445        47.900          34.000
  24911868.977                                                   130912755.062 5
                        34.600
  20557296.797                    20557305.426                   108029301.968 8
  84178768.878 8        51.000          49.800
  23074767.836                    23074775.117    23074775.113   121258692.613 7
  94487350.274 6        42.400          40.400
  22811330.328                    22811338.957                   119874332.952 7
  93408656.275 7        42.300          44.500
  20373021.391                    20373027.324    20373026.969   107061062.816 8
  83424181.272 8        52.500          50.800
  23697386.555                    23697392.488    23697392.602   124530580.381 6
  97036858.695 6        41.600          38.700
 14  1  3  0  8  0.0000000  0  9G04G02G14G32G25G29G24G12G31
  23431636.500                                    23431641.785   123133926.503 6
  95948663.27543        41.800          21.500
  23999623.336                                    23999628.270   126118892.900 6
  98274469.99543        39.300          23.200
  21436022.039                                    21436027.617   112647071.691 7
  87776934.98345        47.300          33.100
  24915950.891                                                   130934208.220 5
                        34.400
  20549118.820                    20549127.625                   107986327.352 8
  84145282.169 8        51.300          49.600
  23054043.141                    23054050.715    23054050.945   121149787.309 7
  94402489.079 6        42.400          39.900
  22829794.039                    22829803.547                   119971362.756 7
  93484263.895 7        43.000          44.000
  20380155.664                    20380161.070    20380161.184   107098554.341 8
  83453395.454 8        52.800          50.600
  23678792.648                    23678798.230    23678798.168   124432867.313 7
  96960718.655 6        42.000          39.200
 14  1  3  0  8 30.0000000  0  9G04G02G14G32G25G29G24G12G31
  23430127.234                                    23430134.043   123126001.430 6
  95942487.87843        41.200          21.300
  23986056.117                                    23986060.113   126047594.499 6
  98218912.89243        40.700          23.500
  21439330.625                                    21439336.672   112664461.297 8
  87790485.31745        48.200          33.600
  24920134.047                                                   130956185.615 5
                        34.000
  20541020.578                    20541029.441                   107943770.404 8
  84112120.912 8        51.400          49.700
  23033361.016                    23033368.473    23033368.410   121041100.624 7
  94317798.217 6        42.200          40.400
  22848304.203                    22848313.125                   120068629.512 7
  93560056.153 7        42.400          44.500
  20387369.039                    20387375.090    20387374.793   107136460.645 8
  83482932.831 8        52.300          50.500
  23660223.680                    23660229.320    23660229.609   124335290.579 6
  96884684.846 6        41.900          38.700
 14  1  3  0  9  0.0000000  0  9G04G02G14G32G25G29G24G12G31
  23428738.430                                    23428744.945   123118701.068 6
  95936799.28443        41.600          20.600
  23972547.594                                    23972551.297   125976604.310 6
  98163595.90243        41.200          23.500
  21442755.125                                    21442760.059   112682455.792 7
  87804507.00245        47.700          33.900
  24924414.859                                                   130978687.096 5
                        35.500
  20533001.828                    20533010.633                   107901632.738 8
  84079286.362 8        51.000          49.800
  23012721.109                    23012728.918    23012728.797   120932636.548 6
  94233280.818 6        41.600          40.400
  22866858.320                    22866867.184                   120166132.643 6
  93636032.574 7        41.900          44.100
  20394661.516                    20394666.805    20394666.742   107174781.513 8
  83512793.247 8        52.200          50.900
  23641681.930                    23641687.160    23641687.449   124237852.716 7
  96808759.256 6        42.600          38.300
 14  1  3  0  9 30.0000000  0  9G04G02G14G32G25G29G24G12G31
  23427467.867                                    23427473.504   123112024.587 6
  95931596.85943        41.600          20.900
  23959096.695                                    23959100.516   125905923.096 6
  98108519.66943        41.800          22.900
  21446293.992                                    21446299.512   112701053.066 7
  87818998.38445        47.400          33.600
  24928796.680                                                   131001710.110 5
                        33.900
  20525063.078                    20525072.117                   107859913.322 8
  84046777.734 8        51.900          50.000
  22992123.625                    22992130.965    22992130.727   120824395.568 7
  94148937.248 6        42.100          40.800
  22885456.977                    22885466.191                   120263868.418 7
  93712190.284 7        42.300          44.600
  20402031.969                    20402037.316    20402037.371   107213513.738 8
  83542974.198 8        52.100          50.200
  23623167.164                    23623172.453    23623172.918   124140554.141 6
  96732942.193 6        41.700          38.500
 14  1  3  0 10  0.0000000  0  9G04G02G14G32G25G29G24G12G31
  23426316.938                                    23426322.926   123105974.098 6
  95926882.20343        41.800          22.300
  23945706.133                                    23945710.656   125835555.202 7
  98053687.59044        42.200          24.500
  21449947.781                                    21449953.184   112720253.950 7
  87833960.11645        47.500          33.500
  24933277.320                                                   131025254.834 5
                        34.100
  20517203.977                    20517213.016                   107818614.181 8
  84014596.587 8        51.100          50.000
  22971568.469                    22971575.926    22971575.746   120716381.958 6
  94064770.872 6        41.400          40.500
  22904099.023                    22904108.648                   120361837.373 6
  93788529.703 7        41.300          44.200
  20409480.609                    20409486.367    20409486.480   107252658.095 8
  83573476.297 8        51.900          50.200
  23604678.586                    23604684.402    23604684.281   124043397.903 6
  96657236.047 6        41.500          39.400
 14  1  3  0 10 30.0000000  0  9G04G02G14G32G25G29G24G12G31
  23425283.719                                    23425290.469   123100548.864 6
  95922654.74443        41.000          20.900
  23932375.438                                    23932379.961   125765501.953 6
  97999100.67944        41.600          24.700
  21453715.930                                    21453721.977   112740056.898 7
  87849390.98045        47.700          33.600
  24937855.414                                                   131049319.098 5
                        33.100
  20509424.961                    20509434.176                   107777734.723 8
  83982742.465 8        51.700          50.000
  22951058.063                    22951065.227    22951065.281   120608596.500 6
  93980782.248 6        41.400          40.300
  22922786.078                    22922795.293                   120460036.676 6
  93865048.599 7        40.900          44.500
  20417007.617                    20417012.906    20417012.785   107292212.283 8
  83604297.740 8        51.700          50.400
  23586217.555                    23586222.961    23586223.016   123946384.392 6
  96581641.110 6        40.400          39.200
 14  1  3  0 11  0.0000000  0  9G04G02G14G32G25G29G24G12G31
  23424370.469                                    23424377.570   123095749.719 6
  95918915.15443        40.800          20.100
  23919105.250                                    23919109.305   125695766.114 7
  97944761.11944        42.100          26.000
  21457598.961                                    21457604.129   112760461.344 7
  87865290.54845        47.600          33.400
  24942534.867                                                   131073901.844 5
                        33.300
  20501725.563                    20501734.719                   107737275.712 8
  83951215.972 8        51.300          50.000
  22930590.914                    22930598.781    22930598.543   120501042.398 7
  93896973.925 6        42.400          40.300
  22941516.047                    22941526.199                   120558465.029 6
  93941745.969 7        40.900          43.800
  20424612.391                    20424617.563    20424617.383   107332174.729 8
  83635437.303 8        51.900          50.400
  23567784.039                    23567789.387    23567789.207   123849515.587 6
  96506158.917 6        40.300          38.700
 14  1  3  0 11 30.0000000  0  9G04G02G14G32G25G29G24G12G31
  23423576.695                                    23423583.094   123091576.554 6
  95915663.34843        40.900          20.400
  23905895.750                                    23905900.684   125626349.735 7
  97890670.46744        42.400          25.800
  21461596.109                                    21461602.156   112781466.127 7
  87881657.90245        46.500          33.800
  24947309.477                                                   131099001.478 5
                        32.900
  20494106.852                    20494115.480                   107697237.166 8
  83920017.107 8        50.900          50.300
  22910168.367                    22910175.473    22910175.586   120393721.108 6
  93813346.995 6        41.700          40.500
  22960290.023                    22960299.063                   120657120.412 6
  94018620.229 7        41.200          44.200
  20432294.313                    20432299.895    20432299.656   107372543.995 8
  83666893.877 8        51.600          50.000
  23549377.898                    23549383.949    23549384.297   123752792.892 6
  96430790.594 6        41.300          38.700
 14  1  3  0 12  0.0000000  0  9G04G02G14G32G25G29G24G12G31
  23422901.219                                    23422908.906   123088029.985 6
  95912899.77243        40.500          20.100
  23892747.516                                    23892751.980   125557255.348 7
  97836830.71443        42.200          23.800
  21465706.930                                    21465713.152   112803070.883 7
  87898492.77545        46.300          32.500
  24952183.531                                                   131124616.838 5
                        31.900
  20486567.648                    20486576.863                   107657619.669 8
  83889146.330 8        51.200          49.600
  22889791.055                    22889798.512    22889798.801   120286635.496 7
  93729903.704 6        42.000          40.600
  22979105.953                    22979115.578                   120756001.917 6
  94095670.704 7        41.900          43.700
  20440053.148                    20440058.848    20440059.020   107413318.913 8
  83698666.535 8        51.600          50.500
  23531000.969                    23531006.434    23531006.020   123656218.101 6
  96355537.519 6        40.900          39.000
 14  1  3  0 12 30.0000000  0  9G04G02G14G32G25G29G24G12G31
  23422345.906                                    23422353.359   123085111.676 6
  95910625.76643        40.300          20.100
  23879661.484                                    23879665.070   125488486.130 7
  97783244.34544        42.300          25.000
  21469932.695                                    21469938.508   112825275.857 7
  87915795.34945        46.700          33.400
  24957156.445                                                   131150747.797 5
                        32.800
  20479109.133                    20479117.703                   107618424.884 8
  83858604.943 8        50.100          50.200
  22869458.133                    22869465.883    22869465.879   120179788.973 6
  93646646.726 6        41.300          41.400
  22997965.727                    22997974.766                   120855108.398 6
  94172896.489 7        40.600          43.400
  20447889.734                    20447895.844    20447896.016   107454499.389 8
  83730755.215 8        51.400          50.200
  23512651.852                    23512656.613    23512656.727   123559793.977 6
  96280401.845 6        40.600          38.800
 14  1  3  0 13  0.0000000  0  9G04G02G14G32G25G29G24G12G31
  23421910.328                                    23421917.313   123082822.981 6
  95908842.34043        40.100          19.900
  23866637.617                                    23866640.910   125420045.949 7
  97729914.35643        42.000          23.900
  21474272.391                                    21474278.262   112848081.343 7
  87933565.85945        45.800          34.000
  24962227.742                                                   131177393.973 5
                        31.300
  20471731.531                    20471740.746                   107579654.292 8
  83828394.094 8        50.400          50.200
  22849172.422                    22849178.941    22849179.113   120073184.891 7
  93563578.663 6        42.500          40.900
  23016867.648                    23016877.215                   120954439.505 6
  94250297.299 7        40.300          43.900
  20455803.461                    20455809.277    20455809.332   107496085.215 8
  83763159.757 8        51.900          49.800
  23494332.430                    23494337.250    23494337.012   123463523.191 6
  96205385.659 6        41.200          39.200
 14  1  3  0 13 30.0000000  0  9G04G02G14G32G25G29G24G12G31
  23421594.367                                    23421601.996   123081162.874 6
  95907548.77443        40.300          19.900
  23853676.703                                    23853680.230   125351935.923 6
  97676841.66544        41.800          26.000
  21478726.055                                    21478732.043   112871485.511 7
  87951802.86545        46.800          33.000
  24967396.914                                                   131204552.740 5
                        34.300
  20464433.953                    20464442.992                   107541306.981 8
  83798513.077 8        50.100          50.500
  22828932.508                    22828939.320    22828939.141   119966824.283 7
  93480700.326 6        42.300          40.900
  23035812.094                    23035821.836                   121053992.609 6
  94327871.092 7        40.900          43.900
  20463793.273                    20463799.441    20463799.262   107538073.540 8
  83795877.925 8        51.300          49.900
  23476041.570                    23476046.918    23476047.266   123367406.151 6
  96130489.266 6        41.300          39.200
 14  1  3  0 14  0.0000000  0  9G04G02G14G32G25G29G24G12G31
  23421397.984                                    23421405.496   123080129.838 6
  95906743.80243        41.000          20.400
  23840778.164                                    23840782.277   125284156.814 7
  97624026.85644        42.400          25.100
  21483293.109                                    21483298.805   112895485.718 7
  87970504.32845        46.600          33.300
  24972661.234                                                   131232221.369 5
                        35.300
  20457217.008                    20457226.223                   107503381.904 8
  83768961.073 8        50.800          50.300
  22808739.609                    22808746.246    22808746.242   119860708.113 7
  93398012.476 6        42.900          40.900
  23054797.609                    23054808.055                   121153764.228 6
  94405615.174 7        39.900          43.800
  20471859.398                    20471865.508    20471865.504   107580461.219 8
  83828907.289 8        51.600          50.500
  23457780.688                    23457785.449    23457785.563   123271443.434 6
  96055713.130 6        41.000          39.800
 14  1  3  0 14 30.0000000  0  9G04G02G14G32G25G29G24G12G31
  23421321.352                                    23421328.395   123079725.824 6
  95906428.97343        40.100          20.100
  23827944.664                                    23827948.250   125216712.526 7
  97571472.91844        42.900          25.600
  21487973.570                                    21487979.559   112920082.580 7
  87989670.69945        46.900          33.100
  24978023.391                                                   131260399.722 5
                        35.100
  20450080.492                    20450090.469                   107465880.905 8
  83739739.519 8        49.900          49.800
  22788593.313                    22788600.184    22788600.004   119754840.131 7
  93315517.988 6        42.700          41.100
  23073825.836                    23073835.578                   121253754.571 6
  94483529.674 7        40.900          44.300
  20480001.688                    20480007.563    20480007.266   107623248.925 8
  83862248.359 8        51.600          49.800
  23439549.008                    23439554.824    23439554.879   123175637.447 6
  95981059.120 6        41.400          39.800
 14  1  3  0 15  0.0000000  0  9G04G02G14G32G25G29G24G12G31
  23421364.445                                    23421371.430   123079951.326 6
  95906604.69843        41.600          20.100
  23815173.992                                    23815178.340   125149605.767 7
  97519181.97344        42.500          25.000
  21492767.172                                    21492773.102   112945275.673 7
  88009301.68645        46.300          32.500
  24983481.820                                                   131289086.864 5
                        34.400
  20443025.609                    20443034.941                   107428804.654 8
  83710848.932 8        51.300          50.500
  22768494.992                    22768501.805    22768501.918   119649222.797 7
  93233218.805 6        43.700          41.100
  23092895.055                    23092904.035                   121353962.070 6
  94561613.407 7        40.000          43.800
  20488219.852                    20488225.199    20488224.961   107666435.450 8
  83895900.196 8        51.700          50.000
  23421348.227                    23421353.809    23421353.395   123079990.464 6
  95906529.004 6        40.600          40.200
 14  1  3  0 15 30.0000000  0  9G04G02G14G32G25G29G24G12G31
  23421527.344                                    23421534.270   123080807.798 6
  95907272.08543        41.400          20.400
  23802468.836                                    23802473.418   125082840.078 7
  97467156.74444        42.200          24.900
  21497674.992                                    21497681.215   112971065.223 7
  88029397.44045        45.900          33.300
  24989038.375                                                   131318282.662 5
                        35.100
  20436051.281                    20436060.086                   107392154.868 8
  83682290.662 8        50.700          50.500
  22748445.523                    22748452.277    22748452.098   119543859.848 7
  93151117.849 6        43.600          41.400
  23112004.430                    23112013.938                   121454386.327 6
  94639866.024 7        39.700          43.400
  20496513.922                    20496518.801    20496519.148   107710020.716 8
  83929862.736 8        52.000          49.800
  23403178.367                    23403183.832    23403183.477   122984505.492 6
  95832125.133 6        41.700          40.100
 14  1  3  0 16  0.0000000  0  9G04G02G14G32G25G29G24G12G31
  23421810.180                                    23421816.695   123082292.707 6
  95908429.18643        41.900          22.000
  23789828.508                                    23789833.031   125016415.180 7
  97415397.09344        42.500          24.400
  21502695.711                                    21502701.875   112997447.668 7
  88049955.18145        46.100          33.900
  24994691.258                                                   131347982.790 5
                        33.300
  20429157.656                    20429166.637                   107355929.190 8
  83654062.858 8        50.700          49.900
  22728443.742                    22728450.789    22728451.078   119438750.911 7
  93069214.829 6        42.800          41.100
  23131155.625                    23131165.074                   121555023.057 6
  94718284.189 7        41.000          44.300
  20504882.969                    20504888.375    20504888.371   107754000.473 8
  83964132.682 8        51.900          49.900
  23385038.797                    23385044.320    23385043.730   122889181.842 6
  95757846.967 6        41.800          39.700
 14  1  3  0 16 30.0000000  0  9G04G02G14G32G25G29G24G12G31
  23422212.516                                    23422218.680   123084407.850 7
  95910077.34743        42.600          22.200
  23777254.516                                    23777258.160   124950335.393 7
  97363906.42744        42.500          25.300
  21507829.422                                    21507835.176   113024423.749 7
  88070975.49745        45.800          33.000
  25000436.227                                                   131378187.652 5
                        32.800
  20422345.539                    20422354.344                   107320129.773 8
  83626167.204 8        50.800          50.100
  22708490.773                    22708498.172    22708498.227   119333899.989 7
  92987512.856 6        43.600          40.900
  23150346.469                    23150356.035                   121655872.805 6
  94796868.351 7        40.600          43.400
  20513327.148                    20513332.965    20513332.902   107798374.773 8
  83998710.055 8        52.000          49.600
  23366930.008                    23366935.707    23366935.586   122794022.325 7
  95683696.702 6        43.000          40.000
 14  1  3  0 17  0.0000000  0  9G04G02G14G32G25G29G24G12G31
  23422735.141                                    23422741.773   123087154.416 6
  95912217.53143        41.900          21.500
  23764745.859                                    23764750.031   124884603.733 7
  97312686.99944        42.800          26.200
  21513075.750                                    21513081.094   113051993.709 7
  88092458.58345        46.500          32.600
  25006281.133                                                   131408896.811 5
                        32.200
  20415614.516                    20415623.438                   107284757.944 8
  83598604.743 8        51.500          50.000
  22688587.914                    22688595.371    22688595.016   119229310.722 7
  92906014.777 6        44.200          40.900
  23169578.266                    23169587.539                   121756934.034 6
  94875617.297 7        41.300          43.900
  20521846.688                    20521852.445    20521852.207   107843144.123 8
  84033595.260 8        52.100          49.700
  23348854.117                    23348858.996    23348858.465   122699029.829 7
  95609676.568 6        42.100          40.000
 14  1  3  0 17 30.0000000  0  9G04G02G14G32G25G29G24G12G31
  23423377.781                                    23423384.824   123090531.122 7
  95914848.73843        42.200          20.600
  23752302.906                                    23752307.664   124819221.229 6
  97261739.60244        41.800          25.000
  21518433.969                                    21518439.547   113080155.198 7
  88114402.59945        46.800          33.100
  25012220.578                                                   131440107.135 5
                        31.000
  20408964.313                    20408973.469                   107249812.670 8
  83571374.658 8        51.700          50.000
  22668735.602                    22668742.004    22668742.059   119124983.737 7
  92824721.054 6        44.300          41.400
  23188849.133                    23188858.523                   121858204.588 6
  94954529.355 7        41.400          43.900
  20530440.227                    20530446.395    20530446.273   107888305.547 8
  84068785.982 8        51.900          49.800
  23330809.797                    23330814.910    23330814.613   122604205.333 7
  95535787.356 6        42.300          40.200
 14  1  3  0 18  0.0000000  0  9G04G02G14G32G25G29G24G12G31
  23424140.594                                    23424146.934   123094539.481 6
  95917972.13743        41.700          20.600
  23739928.922                                    23739933.035   124754191.733 7
  97211067.29943        42.200          23.600
  21523906.031                                    21523912.137   113108908.526 7
  88136807.79145        46.800          32.500
  25018254.641                                                   131471818.835 5
                        30.500
  20402396.266                    20402405.422                   107215295.855 8
  83544478.436 8        51.500          50.300
  22648933.828                    22648940.113    22648940.051   119020922.595 7
  92743634.497 6        45.200          40.800
  23208160.477                    23208169.340                   121959684.321 6
  95033604.412 7        41.600          44.300
  20539108.813                    20539115.098    20539114.977   107933859.003 8
  84104282.186 8        51.800          50.100
  23312797.078                    23312802.602    23312802.598   122509551.135 7
  95462030.837 6        43.300          40.400
 14  1  3  0 18 30.0000000  0  9G04G02G14G32G25G29G24G12G31
  23425023.305                                    23425030.348   123099178.317 6
  95921586.79843        41.100          21.800
  23727621.961                                    23727625.723   124689516.033 7
  97160670.66744        42.100          26.300
  21529489.703                                    21529495.574   113138251.160 7
  88159672.17345        46.800          32.800
  25024383.781                                                   131504028.874 5
                        30.100
  20395909.328                    20395917.547                   107181206.549 8
  83517915.341 8        51.900          50.200
  22629182.406                    22629188.691    22629188.980   118917128.933 7
  92662756.357 6        44.800          41.500
  23227510.242                    23227519.809                   122061369.632 7
  95112839.658 7        42.000          43.800
  20547851.297                    20547856.996    20547856.875   107979801.642 8
  84140081.639 8        52.200          49.500
  23294817.406                    23294822.930    23294823.219   122415068.005 7
  95388407.618 6        43.200          41.000
 14  1  3  0 19  0.0000000  0  9G04G02G14G32G25G29G24G12G31
  23426025.813                                    23426032.152   123104447.977 6
  95925693.03743        41.300          20.900
  23715382.203                                    23715386.609   124625197.315 7
  97110552.19744        42.500          25.300
  21535185.563                                    21535191.492   113168182.628 7
  88182995.39045        46.500          33.000
  25030606.789                                                   131536736.348 4
                        29.400
  20389503.914                    20389512.191                   107147545.455 8
  83491685.916 8        51.900          50.500
  22609481.703                    22609489.336    22609488.805   118813604.885 7
  92582088.317 6        45.300          41.800
  23246899.414                    23246908.863                   122163259.675 7
  95192234.415 7        42.100          44.300
  20556667.797                    20556673.496    20556673.434   108026132.104 8
  84176183.299 8        52.100          49.200
  23276871.586                    23276876.641    23276876.344   122320758.056 7
  95314919.339 6        43.000          40.800
 14  1  3  0 19 30.0000000  0  9G04G02G14G32G25G29G24G12G31
  23427148.164                                    23427155.207   123110348.073 6
  95930290.51143        40.900          20.100
  23703210.844                                    23703215.191   124561237.396 7
  97060713.32444        42.200          25.600
  21540993.523                                    21540999.102   113198701.531 7
  88206776.35345        47.000          32.300
  25036927.102                                                   131569939.340 4
                        27.300
  20383179.633                    20383188.496                   107114312.755 8
  83465790.309 8        51.800          50.000
  22589833.750                    22589840.211    22589840.324   118710352.774 7
  92501632.160 6        45.100          41.900
  23266327.297                    23266336.395                   122265352.563 7
  95271787.245 7        42.100          44.500
  20565557.781                    20565564.125    20565564.063   108072849.703 8
  84212586.626 8        51.600          49.800
  23258957.742                    23258963.734    23258963.613   122226622.889 7
  95241567.262 6        42.800          40.900
 14  1  3  0 20  0.0000000  0  9G04G02G14G32G25G29G24G12G31
  23428391.313                                    23428397.945   123116879.200 6
  95935379.67143        41.400          21.100
  23691108.250                                    23691112.773   124497639.492 7
  97011156.56444        42.200          25.000
  21546912.641                                    21546918.395   113229807.595 7
  88231014.84045        46.400          32.800
  25043338.164                                                   131603636.654 4
                        29.900
  20376937.438                    20376946.594                   107081509.205 8
  83440229.102 8        51.300          50.300
  22570238.156                    22570244.207    22570244.320   118607375.375 7
  92421390.061 6        45.100          41.400
  23285792.555                    23285802.414                   122367647.131 7
  95351497.243 7        42.000          43.800
  20574521.547                    20574527.188    20574527.301   108119953.001 8
  84249290.490 8        51.400          49.700
  23241078.375                    23241083.898    23241083.602   122132664.960 7
  95168353.299 6        43.300          41.100
 14  1  3  0 20 30.0000000  0  9G04G02G14G32G25G29G24G12G31
  23429754.484                                    23429761.527   123124042.121 6
  95940961.14443        41.100          21.800
  23679076.148                                    23679080.027   124434406.702 7
  96961884.31944        42.600          26.000
  21552943.594                                    21552949.055   113261500.504 7
  88255710.60845        47.200          32.600
  25049846.156                                                   131637827.609 4
                        26.800
  20370777.234                    20370786.156                   107049136.127 8
  83415003.325 8        51.500          50.000
  22550694.461                    22550701.391    22550701.621   118504676.066 7
  92341364.662 6        45.300          41.700
  23305296.945                    23305306.629                   122470142.823 7
  95431363.951 7        42.200          43.800
  20583558.000                    20583563.758    20583563.871   108167441.671 8
  84286294.648 8        51.700          49.500
  23223232.805                    23223238.680    23223238.852   122038886.750 6
  95095279.374 6        41.800          41.400
 14  1  3  0 21  0.0000000  0  9G04G02G14G32G25G29G24G12G31
  23431237.539                                    23431244.172   123131834.587 6
  95947033.18343        41.400          21.300
  23667112.969                                    23667116.262   124371538.458 6
  96912896.09044        41.500          25.400
  21559085.570                                    21559091.090   113293776.705 7
  88280860.89345        47.000          32.400
  25056443.781                                                   131672508.68914
                        28.000
  20364697.953                    20364706.934                   107017191.534 8
  83390111.433 8        51.200          50.100
  22531204.172                    22531211.453    22531211.508   118402254.877 7
  92261555.976 7        45.700          42.300
  23324839.156                    23324848.723                   122572835.576 7
  95511384.211 7        42.000          43.400
  20592667.742                    20592673.324    20592673.496   108215312.021 8
  84323596.218 8        52.000          50.000
  23205421.859                    23205427.441    23205427.379   121945287.545 7
  95022344.924 6        42.400          41.700
 14  1  3  0 21 30.0000000  0  9G04G02G14G32G25G29G24G12G31
  23432840.492                                    23432847.770   123140258.459 6
  95953597.23943        41.900          21.700
  23655218.688                                    23655223.504   124309039.305 7
  96864195.46744        42.800          24.700
  21565338.508                                    21565344.086   113326637.186 7
  88306466.46745        47.200          33.500
  25063138.492                                                   131707680.378 5
                        30.100
  20358701.266                    20358710.480                   106985677.946 8
  83365555.398 8        51.100          50.200
  22511767.828                    22511775.637    22511775.574   118300116.085 7
  92181967.349 7        44.600          42.100
  23344418.219                    23344428.430                   122675725.912 6
  95591558.458 7        41.800          43.200
  20601849.914                    20601855.555    20601855.492   108263564.903 8
  84361195.864 8        51.800          49.400
  23187645.086                    23187650.727    23187650.430   121851871.274 7
  94949553.020 6        42.000          41.800
 14  1  3  0 22  0.0000000  0  9G04G02G14G32G25G29G24G12G31
  23434563.766                                    23434570.223   123149311.973 7
  95960651.90343        42.400          22.000
  23643396.500                                    23643400.379   124246909.989 7
  96815783.07044        42.000          25.800
  21571702.250                                    21571708.063   113360078.930 7
  88332524.96045        46.800          32.100
  25069922.648                                                   131743338.060 5
                        30.700
  20352786.078                    20352795.645                   106954593.761 8
  83341333.956 8        51.100          50.500
  22492385.367                    22492393.000    22492392.938   118198260.198 7
  92102599.179 6        44.700          41.800
  23364034.188                    23364044.281                   122778810.477 6
  95671884.043 7        41.800          43.000
  20611104.328                    20611109.852    20611109.906   108312197.180 8
  84399091.142 8        51.500          49.300
  23169902.953                    23169909.063    23169908.941   121758638.221 6
  94876903.897 6        41.600          41.400
 14  1  3  0 22 30.0000000  0  9G04G02G14G32G25G29G24G12G31
  23436406.055                                    23436413.391   123158997.454 7
  95968199.02643        42.600          22.200
  23631644.625                                    23631648.680   124185155.546 7
  96767662.76244        42.100          26.500
  21578176.922                                    21578182.559   113394103.403 7
  88359037.54245        47.400          32.300
  25076802.563                                                   131779484.136 5
                        30.300
  20346953.508                    20346962.078                   106923942.078 8
  83317449.532 8        51.400          49.900
  22473057.414                    22473064.695    22473064.691   118096692.142 7
  92023455.280 6        44.600          41.400
  23383688.594                    23383697.984                   122882090.002 7
  95752361.524 7        42.300          43.600
  20620431.289                    20620436.871    20620436.574   108361210.241 8
  84437283.138 8        51.700          49.100
  23152197.242                    23152203.117    23152203.055   121665592.917 6
  94804401.061 6        41.800          41.700
 14  1  3  0 23  0.0000000  0  9G04G02G14G32G25G29G24G12G31
  23438369.320                                    23438376.949   123169313.839 7
  95976237.76243        42.600          22.300
  23619964.297                                    23619968.879   124123777.168 6
  96719835.52444        41.800          25.600
  21584762.039                                    21584767.969   113428708.684 7
  88386002.68745        47.000          32.600
  25083771.594                                                   131816115.96114
                        28.600
  20341202.695                    20341211.793                   106893722.114 8
  83293901.504 8        50.900          50.700
  22453784.023                    22453791.422    22453791.652   117995413.157 7
  91944536.624 7        44.100          42.200
  23403378.281                    23403388.375                   122985562.076 6
  95832989.063 7        41.400          43.500
  20629829.992                    20629835.926    20629835.863   108410601.511 8
  84475769.837 8        51.700          49.100
  23134527.344                    23134533.277    23134532.922   121572735.176 7
  94732044.384 7        42.600          42.700
 14  1  3  0 23 30.0000000  0  9G04G02G14G32G25G29G24G12G31
  23440452.203                                    23440459.773   123180260.804 7
  95984767.85943        42.700          22.600
  23608357.188                                    23608360.598   124062776.889 7
  96672302.88444        42.200          26.400
  21591457.523                                    21591463.746   113463893.121 7
  88413419.12945        47.000          31.800
  25090834.680                                                   131853229.996 4
                        29.900
  20335534.484                    20335543.816                   106863934.151 8
  83270690.111 8        51.300          50.700
  22434567.867                    22434574.680    22434574.676   117894425.783 7
  91865845.193 6        44.800          41.600
  23423104.773                    23423114.984                   123089224.890 6
  95913765.232 7        41.700          43.500
  20639300.734                    20639306.082    20639306.078   108460369.357 8
  84514549.978 8        51.900          49.300
  23116893.289                    23116898.754    23116898.633   121480067.704 7
  94659835.970 6        43.300          41.800
 14  1  3  0 24  0.0000000  0  9G04G02G14G32G25G29G24G12G31
  23442656.234                                    23442662.281   123191837.330 7
  95993788.50643        43.200          22.800
  23596821.031                                    23596824.676   124002156.282 6
  96625066.08944        41.300          25.700
  21598262.672                                    21598268.602   113499654.859 7
  88441285.42045        47.300          33.100
  25097990.125                                                   131890825.701 4
                        29.100
  20329947.805                    20329957.371                   106834577.753 8
  83247814.994 8        51.400          50.700
  22415406.227                    22415412.863    22415412.977   117793731.242 7
  91787381.955 7        44.600          42.100
  23442867.055                    23442877.383                   123193076.453 6
  95994688.476 7        41.800          43.400
  20648842.648                    20648848.523    20648848.344   108510511.740 8
  84553621.959 8        51.500          49.300
  23099295.859                    23099301.148    23099301.086   121387591.389 7
  94587776.508 7        42.900          42.200
 14  1  3  0 24 30.0000000  0  9G04G02G14G32G25G29G24G12G31
  23444977.914                                    23444984.957   123204043.622 7
  96003299.89943        42.900          22.200
  23585357.469                                    23585361.992   123941917.914 6
  96578127.15044        41.100          26.000
  21605177.766                                    21605183.285   113535992.827 7
  88469600.70845        47.200          31.700
  25105235.867                                                   131928901.116 5
                        30.500
  20324443.836                    20324452.934                   106805653.582 8
  83225276.686 8        51.300          50.500
  22396300.734                    22396307.605    22396307.660   117693332.529 7
  91709149.227 7        44.900          42.400
  23462665.109                    23462675.086                   123297114.993 6
  96075757.401 7        41.700          43.700
  20658455.250                    20658461.066    20658460.711   108561027.790 8
  84592985.108 8        51.300          49.400
  23081734.781                    23081740.363    23081740.359   121295308.374 7
  94515867.667 7        43.000          42.500
 14  1  3  0 25  0.0000000  0  9G04G02G14G32G25G29G24G12G31
  23447421.234                                    23447428.395   123216880.234 7
  96013302.42343        42.800          21.700
  23573968.477                                    23573971.945   123882064.845 6
  96531488.42944        41.100          26.400
  21612201.922                                    21612208.262   113572906.955 7
  88498364.96245        47.500          32.500
  25112571.031                                                   131967455.232 5
                        30.100
  20319022.406                    20319031.621                   106777162.727 8
  83203076.023 8        51.800          51.100
  22377252.211                    22377259.316    22377259.195   117593232.616 7
  91631149.332 7        44.600          42.000
  23482498.586                    23482508.797                   123401340.069 7
  96156971.695 7        42.200          42.900
  20668139.055                    20668144.695    20668144.516   108611917.295 8
  84632639.266 8        51.700          49.700
  23064211.258                    23064216.664    23064216.484   121203220.966 7
  94444111.247 7        44.000          42.600
 14  1  3  0 25 30.0000000  0  9G04G02G14G32G25G29G24G12G31
  23449982.938                                    23449990.273   123230345.620 7
  96023794.92043        42.400          20.600
  23562652.094                                    23562656.617   123822598.463 7
  96485151.00544        42.300          26.500
  21619335.813                                    21619341.625   113610394.626 7
  88527576.13545        47.900          32.400
  25119997.914                                                   132006485.321 4
                        29.400
  20313683.195                    20313692.059                   106749104.529 8
  83181212.492 8        52.500          51.100
  22358260.758                    22358267.629    22358267.684   117493432.760 7
  91553383.236 6        45.300          41.700
  23502366.867                    23502377.078                   123505749.103 7
  96238329.332 7        42.000          43.200
  20677893.469                    20677899.109    20677898.988   108663177.462 8
  84672582.249 8        51.900          49.300
  23046724.695                    23046730.277    23046730.215   121111330.473 7
  94372508.278 7        43.900          42.300
 14  1  3  0 26  0.0000000  0  9G04G02G14G32G25G29G24G12G31
  23452665.445                                    23452672.488   123244441.012 6
  96034778.30343        41.900          21.300
  23551410.273                                    23551414.621   123763522.000 7
  96439117.41644        42.300          26.700
  21626578.180                                    21626583.406   113648455.868 7
  88557234.25145        47.400          32.800
  25127517.609                                                   132045990.913 5
                        30.500
  20308426.453                    20308435.609                   106721480.429 8
  83159687.229 8        52.000          50.700
  22339327.953                    22339334.590    22339334.586   117393936.436 7
  91475853.665 6        45.200          41.900
  23522270.781                    23522280.465                   123610341.382 7
  96319829.767 7        42.200          43.600
  20687718.750                    20687724.508    20687724.621   108714808.389 8
  84712814.145 8        51.700          49.400
  23029276.000                    23029282.168    23029282.164   121019639.658 7
  94301060.898 7        43.800          42.400
 14  1  3  0 26 30.0000000  0  9G04G02G14G32G25G29G24G12G31
  23455467.195                                    23455474.355   123259164.649 6
  96046251.27043        41.400          20.600
  23540243.133                                    23540247.129   123704836.661 6
  96393388.59144        41.100          26.800
  21633930.539                                    21633936.293   113687087.725 7
  88587336.98445        47.600          32.700
  25135123.000                                                   132085969.123 4
                        29.100
  20303252.313                    20303260.941                   106694289.497 8
  83138499.486 8        52.500          50.500
  22320451.844                    22320459.242    22320459.180   117294744.676 7
  91398561.414 7        44.500          42.000
  23542207.711                    23542218.098                   123715114.331 7
  96401470.982 7        42.100          42.900
  20697613.906                    20697619.605    20697619.426   108766807.297 8
  84753332.771 8        51.600          49.200
  23011866.422                    23011871.652    23011871.824   120928149.239 7
  94229769.671 7        44.300          42.200
 14  1  3  0 27  0.0000000  0  9G04G02G14G32G25G29G24G12G31
  23458388.141                                    23458395.770   123274517.094 6
  96058214.19843        40.900          19.900
  23529150.398                                    23529154.453   123646545.706 7
  96347967.09644        42.400          25.900
  21641389.953                                    21641395.297   113726290.225 7
  88617884.38745        47.600          31.700
  25142820.422                                                   132126419.090 5
                        30.500
  20298160.625                    20298169.078                   106667533.223 8
  83117650.441 8        51.900          50.700
  22301634.984                    22301641.387    22301641.910   117195860.629 7
  91321508.933 6        44.900          41.700
  23562179.695                    23562189.203                   123820067.163 7
  96483252.354 7        42.300          42.800
  20707579.016                    20707584.656    20707584.711   108819173.710 8
  84794137.775 8        51.600          49.200
  22994495.148                    22994500.496    22994500.434   120836862.260 7
  94158636.963 7        44.400          42.300
 14  1  3  0 27 30.0000000  0  9G04G02G14G32G25G29G24G12G31
  23461429.805                                    23461436.496   123290498.192 6
  96070666.99543        40.500          19.000
  23518133.883                                    23518137.586   123588651.092 7
  96302854.40744        42.200          26.700
  21648958.070                                    21648964.000   113766061.849 8
  88648875.25745        48.000          32.000
  25150609.273                                                   132167338.888 5
                        30.300
  20293151.625                    20293160.664                   106641211.664 8
  83097140.134 8        52.800          50.700
  22282877.180                    22282883.699    22282883.754   117097286.937 7
  91244698.288 7        44.600          42.200
  23582185.758                    23582195.207                   123925198.062 7
  96565172.469 7        42.100          43.000
  20717613.398                    20717619.215    20717619.211   108871906.621 8
  84835228.349 8        51.500          49.500
  22977163.336                    22977168.273    22977168.621   120745780.344 7
  94087664.054 7        44.100          42.100
 14  1  3  0 28  0.0000000  0  9G04G02G14G32G25G29G24G12G31
  23464589.977                                    23464597.547   123307106.681 6
  96083608.65343        40.200          19.900
  23507192.266                                    23507196.145   123531154.701 6
  96258052.05744        41.100          25.300
  21656634.484                                    21656640.414   113806400.795 7
  88680308.20345        47.300          32.100
  25158483.891                                                   132208726.334 5
                        30.700
  20288225.664                    20288234.234                   106615324.591 8
  83076968.391 8        51.600          50.900
  22264178.539                    22264184.941    22264184.703   116999025.345 7
  91168130.847 7        45.100          42.500
  23602224.992                    23602235.555                   124030505.283 7
  96647229.964 7        42.300          43.400
  20727717.422                    20727722.828    20727722.883   108925004.131 8
  84876603.033 8        50.900          49.200
  22959869.586                    22959875.285    22959875.223   120654904.844 7
  94016851.978 7        44.100          42.200
 14  1  3  0 28 30.0000000  0  9G04G02G14G32G25G29G24G12G31
  23467869.984                                    23467877.086   123324341.553 6
  96097038.37543        40.600          19.300
  23496327.125                                    23496330.945   123474058.168 6
  96213561.30044        40.900          25.800
  21664418.250                                    21664424.063   113847305.207 7
  88712181.76545        47.200          31.800
  25166448.445                                                   132250578.895 5
                        32.400
  20283382.063                    20283390.398                   106589871.698 8
  83057134.967 8        51.600          50.300
  22245539.523                    22245546.219    22245545.922   116901077.369 7
  91091807.768 7        45.900          42.500
  23622297.422                    23622307.164                   124135986.213 6
  96729422.851 7        41.700          43.400
  20737890.523                    20737896.164    20737896.277   108978463.766 8
  84918259.894 8        51.000          49.600
  22942616.289                    22942621.695    22942621.926   120564237.127 7
  93946201.815 7        44.700          42.300
 14  1  3  0 29  0.0000000  0  9G04G02G14G32G25G29G24G12G31
  23471269.313                                    23471276.004   123342202.842 6
  96110956.23643        41.400          21.100
  23485538.180                                    23485542.996   123417363.465 7
  96169383.63044        42.700          26.000
  21672309.500                                    21672315.430   113888773.861 7
  88744495.00045        47.300          32.400
  25174501.852                                                   132292895.125 5
                        32.900
  20278621.188                    20278629.875                   106564853.522 8
  83037640.288 8        51.800          50.900
  22226960.492                    22226967.422    22226967.535   116803445.577 7
  91015731.062 7        45.100          42.900
  23642403.414                    23642412.277                   124241639.904 6
  96811750.339 7        41.500          42.900
  20748132.328                    20748138.027    20748137.848   109032284.931 8
  84960198.458 8        51.200          49.100
  22925402.742                    22925408.500    22925408.027   120473779.351 7
  93875715.246 7        45.000          43.100
 14  1  3  0 29 30.0000000  0  9G04G02G14G32G25G29G24G12G31
  23474787.750                                    23474794.910   123360691.910 6
  96125363.30543        41.900          20.600
  23474827.320                                    23474831.258   123361075.213 6
  96125522.69644        41.500          26.000
  21680308.359                                    21680313.938   113930806.902 7
  88777248.00945        47.800          31.900
  25182640.711                                                   132335675.136 5
                        32.200
  20273943.461                    20273951.914                   106540272.345 8
  83018486.119 8        51.800          50.400
  22208443.117                    22208449.578    22208449.633   116706134.350 7
  90939904.164 7        46.900          43.200
  23662540.914                    23662550.246                   124347466.480 6
  96894212.554 7        41.300          43.500
  20758442.703                    20758448.637    20758448.398   109086468.296 8
  85002419.266 8        51.100          48.800
  22908229.883                    22908235.582    22908235.285   120383535.691 7
  93805395.513 7        45.200          42.300
 14  1  3  0 30  0.0000000  0  9G04G02G14G32G25G29G24G12G31
  23478425.422                                    23478431.410   123379805.432 7
  96140256.95743        42.900          21.300
  23464193.227                                    23464197.105   123305192.751 6
  96081977.96744        41.800          25.800
  21688413.367                                    21688419.121   113973400.401 7
  88810437.74445        47.700          33.000
  25190870.148                                                   132378914.128 5
                        33.000
  20269348.531                    20269357.043                   106516125.564 8
  82999670.444 8        51.800          50.500
  22189986.219                    22189992.680    22189992.617   116609143.256 7
  90864326.696 7        45.200          42.200
  23682711.367                    23682720.992                   124453461.431 6
  96976805.977 7        41.500          42.600
  20768822.242                    20768827.648    20768827.527   109141009.638 8
  85044919.012 8        51.400          48.300
  22891097.867                    22891102.570    22891102.742   120293505.091 7
  93735241.803 7        44.900          42.400
 14  1  3  0 30 30.0000000  0  9G04G02G14G32G25G29G24G12G31
  23482181.484                                    23482187.707   123399543.584 7
  96155637.31443        42.600          21.800
  23453637.289                                    23453640.582   123249718.821 7
  96038751.54344        42.600          26.900
  21696624.961                                    21696630.773   114016553.508 7
  88844063.53645        46.800          32.000
  25199185.961                                                   132422611.231 5
                        32.500
  20264836.594                    20264844.871                   106492414.239 8
  82981194.089 8        51.400          50.700
  22171590.875                    22171597.102    22171597.215   116512475.151 7
  90789000.933 7        45.600          42.600
  23702913.695                    23702923.379                   124559624.823 6
  97059530.655 7        41.400          42.600
  20779269.086                    20779274.551    20779274.371   109195908.382 8
  85087697.248 8        51.200          49.100
  22874006.070                    22874011.652    22874011.590   120203689.844 7
  93665255.897 7        45.000          43.100
 14  1  3  0 31  0.0000000  0  9G04G02G14G32G25G29G24G12G31
  23486056.281                                    23486062.680   123419907.368 7
  96171505.18243        42.800          22.000
  23443158.750                                    23443162.336   123194657.125 6
  95995846.32244        41.600          27.400
  21704943.594                                    21704949.113   114060266.285 7
  88878125.43345        47.000          32.100
  25207588.539                                                   132466765.969 5
                        32.200
  20260407.430                    20260416.176                   106469140.181 8
  82963058.455 8        51.300          50.600
  22153257.922                    22153263.738    22153263.852   116416133.752 7
  90713929.759 7        45.800          42.700
  23723147.742                    23723157.426                   124665955.727 6
  97142385.870 7        41.100          43.400
  20789784.109                    20789789.516    20789789.336   109251164.218 8
  85130753.740 8        51.500          48.100
  22856956.578                    22856962.570    22856962.508   120114093.843 7
  93595440.832 7        45.400          43.100
 14  1  3  0 31 30.0000000  0  9G04G02G14G32G25G29G24G12G31
  23490051.008                                    23490057.582   123440897.193 7
  96187860.88743        43.000          22.500
  23432760.234                                    23432763.410   123140010.585 7
  95953264.62044        42.400          26.800
  21713368.344                                    21713374.098   114104537.826 7
  88912622.73545        47.200          31.600
  25216076.000                                                   132511377.113 5
                        30.500
  20256061.750                    20256071.141                   106446304.233 8
  82945264.212 8        51.800          50.700
  22134986.844                    22134993.715    22134993.770   116320121.961 7
  90639115.430 7        45.700          42.700
  23743412.984                    23743423.020                   124772452.816 6
  97225370.590 7        40.800          43.100
  20800366.430                    20800372.070    20800372.008   109306777.002 8
  85174088.374 8        51.000          48.500
  22839949.844                    22839955.250    22839955.188   120024719.411 7
  93525798.420 7        45.700          42.900
 14  1  3  0 32  0.0000000  0  9G04G02G14G32G25G29G24G12G31
  23494163.125                                    23494170.285   123462509.966 6
  96204701.98843        41.700          22.200
  23422440.125                                    23422443.711   123085779.321 7
  95911006.52444        42.500          27.700
  21721898.758                                    21721904.043   114149364.559 7
  88947552.65345        47.500          32.100
  25224651.234                                                   132556440.773 5
                        30.300
  20251799.594                    20251808.281                   106423904.632 8
  82927809.981 8        51.900          50.400
  22116779.742                    22116786.496    22116786.434   116224440.153 7
  90564558.234 7        44.900          43.000
  23763710.141                    23763720.293                   124879113.209 6
  97308482.543 7        40.700          42.500
  20811016.766                    20811022.348    20811022.344   109362743.596 8
  85217698.705 8        51.400          48.600
  22822984.391                    22822989.270    22822989.441   119935566.448 7
  93456328.578 7        45.300          43.100
 14  1  3  0 32 30.0000000  0  9G04G02G14G32G25G29G24G12G31
  23498394.609                                    23498401.535   123484745.565 6
  96222028.37743        41.500          22.600
  23412200.102                                    23412203.512   123031965.676 7
  95869073.83244        42.700          25.800
  21730533.563                                    21730539.551   114194745.373 7
  88982914.32545        47.300          31.600
  25233314.289                                                   132601955.536 4
                        29.600
  20247620.047                    20247628.969                   106401942.103 8
  82910696.330 8        51.800          50.800
  22098635.219                    22098641.973    22098641.969   116129091.097 7
  90490260.334 7        45.800          43.300
  23784037.266                    23784047.125                   124985935.558 6
  97391720.691 7        41.200          42.500
  20821733.961                    20821739.543    20821739.246   109419062.781 8
  85261583.786 8        50.900          48.400
  22806061.078                    22806066.953    22806066.949   119846637.479 7
  93387033.281 7        45.100          42.800
 14  1  3  0 33  0.0000000  0  9G04G02G14G32G25G29G24G12G31
  23502744.016                                    23502751.059   123507603.984 6
  96239840.12543        40.400          22.600
  23402039.375                                    23402043.137   122978572.217 7
  95827468.57144        42.500          27.000
  21739274.844                                    21739280.949   114240678.928 7
  89018706.69445        47.100          31.300
  25242059.703                                                   132647919.584 5
                        30.700
  20243523.742                    20243533.250                   106380417.085 8
  82893923.592 8        51.600          50.300
  22080554.656                    22080561.000    22080561.113   116034076.942 7
  90416223.379 7        45.700          43.100
  23804395.422                    23804405.809                   125092918.383 6
  97475083.896 7        41.200          43.100
  20832517.461                    20832523.512    20832523.391   109475732.646 8
  85305742.109 8        51.100          48.800
  22789181.844                    22789187.953    22789187.539   119757934.588 7
  93317914.150 7        45.700          43.800
 14  1  3  0 33 30.0000000  0  9G04G02G14G32G25G29G24G12G31
  23507212.188                                    23507219.055   123531084.010 6
  96258136.22543        40.700          22.000
  23391958.813                                    23391963.043   122925600.752 7
  95786192.12444        43.000          26.200
  21748120.258                                    21748126.480   114287163.495 7
  89054928.42545        47.200          32.000
  25250890.164                                                   132694330.896 4
                        29.100
  20239511.313                    20239520.176                   106359329.610 8
  82877491.791 8        52.100          51.000
  22062538.234                    22062544.754    22062544.867   115939400.207 7
  90342449.366 7        45.000          43.300
  23824783.852                    23824794.531                   125200059.872 6
  97558570.708 7        41.300          42.600
  20843368.359                    20843373.941    20843373.762   109532752.806 8
  85350173.407 8        50.300          49.000
  22772345.984                    22772351.039    22772351.152   119669459.599 7
  93248972.597 7        45.700          43.800
 14  1  3  0 34  0.0000000  0  9G04G02G14G32G25G29G24G12G31
  23511798.586                                    23511805.395   123555184.651 6
  96276915.94143        40.600          22.800
  23381959.703                                    23381963.172   122873053.267 7
  95745246.06444        42.700          27.500
  21757070.281                                    21757076.152   114334197.185 7
  89091578.04845        47.000          32.100
  25259807.508                                                   132741187.103 4
                        28.900
  20235581.727                    20235590.648                   106338679.615 8
  82861400.891 8        51.700          51.100
  22044586.523                    22044593.160    22044593.215   115845062.705 7
  90268939.688 7        46.200          43.000
  23845203.641                    23845212.445                   125307358.135 6
  97642179.673 7        41.100          42.600
  20854285.023                    20854290.723    20854290.602   109590121.503 8
  85394876.278 8        50.900          48.900
  22755553.609                    22755558.488    22755558.602   119581214.086 7
  93180209.865 7        46.300          43.600
 14  1  3  0 34 30.0000000  0  9G04G02G14G32G25G29G24G12G31
  23516502.711                                    23516509.871   123579905.720 6
  96296179.08143        40.200          22.600
  23372040.750                                    23372044.160   122820932.239 6
  95704632.32444        41.600          27.200
  21766125.273                                    21766130.969   114381778.713 7
  89128654.55545        46.900          31.100
  25268809.234                                                   132788486.793 4
                        29.600
  20231735.555                    20231744.477                   106318467.733 8
  82845651.374 8        51.600          51.100
  22026699.578                    22026706.273    22026706.211   115751067.088 7
  90195696.400 7        46.400          43.800
  23865650.422                    23865660.047                   125414812.366 6
  97725910.193 7        41.500          42.500
  20865268.180                    20865274.055    20865273.875   109647837.570 8
  85439849.840 8        51.100          49.100
  22738804.484                    22738810.301    22738810.121   119493200.524 7
  93111627.869 7        45.400          44.100
 14  1  3  0 35  0.0000000  0  9G04G02G14G32G25G29G24G12G31
  23521324.398                                    23521331.676   123605245.981 6
  96315924.71343        39.300          21.800
  23362204.477                                    23362207.828   122769238.911 7
  95664351.82144        43.000          27.700
  21775283.688                                    21775289.559   114429906.207 7
  89166156.49545        47.200          31.300
  25277892.906                                                   132836228.02214
                        28.000
  20227972.344                    20227981.969                   106298693.814 8
  82830243.127 8        51.400          51.200
  22008878.102                    22008884.973    22008884.793   115657415.211 7
  90122720.982 7        46.300          43.600
  23886127.195                    23886137.465                   125522420.282 6
  97809760.450 7        41.100          42.100
  20876317.281                    20876322.688    20876322.449   109705899.355 8
  85485092.780 8        50.700          48.900
  22722101.305                    22722105.949    22722106.063   119405420.653 7
  93043227.971 7        45.200          43.900
 14  1  3  0 35 30.0000000  0  8G04G02G14G25G29G24G12G31
  23526264.508                                    23526270.965   123631204.389 6
  96336152.00043        41.100          21.100
  23352449.469                                    23352452.176   122717975.118 7
  95624406.01544        42.100          26.400
  21784545.133                                    21784551.648   114478577.348 7
  89204082.05845        46.700          30.700
  20224293.070                    20224302.109                   106279357.706 8
  82815176.033 8        51.300          51.200
  21991122.234                    21991128.754    21991128.691   115564108.705 7
  90050014.653 7        46.700          43.400
  23906633.828                    23906643.629                   125630179.741 6
  97893728.807 7        41.600          42.600
  20887431.336                    20887436.742    20887436.680   109764305.290 8
  85530603.896 8        51.200          48.700
  22705441.383                    22705447.082    22705447.137   119317875.859 7
  92975011.251 7        45.800          43.600
 14  1  3  0 36  0.0000000  0  8G04G02G14G25G29G24G12G31
  23531321.727                                    23531328.711   123657780.165 6
  96356860.38543        40.200          20.600
  23342776.633                                    23342779.926   122667143.321 7
  95584796.83444        43.300          27.900
  21793911.016                                    21793916.594   114527790.833 7
  89242430.21945        46.400          30.900
  20220696.930                    20220705.969                   106260459.693 8
  82800450.308 8        52.100          50.800
  21973432.469                    21973439.164    21973439.160   115471150.149 7
  89977579.476 7        45.400          43.100
  23927168.320                    23927178.121                   125738089.240 6
  97977814.062 7        40.900          42.600
  20898610.586                    20898616.285    20898616.105   109823053.608 8
  85576381.807 8        50.500          48.700
  22688827.758                    22688833.340    22688833.219   119230568.525 7
  92906979.571 7        45.400          44.600
 14  1  3  0 36 30.0000000  0  8G04G02G14G25G29G24G12G31
  23536497.031                                    23536503.137   123684972.926 6
  96378049.50143        41.500          21.500
  23333186.047                                    23333189.340   122616745.883 7
  95545526.13144        42.100          27.300
  21803378.555                                    21803384.602   114577545.337 7
  89281199.96445        46.400          30.400
  20217184.078                    20217193.469                   106242000.445 8
  82786066.475 8        51.600          51.300
  21955809.859                    21955816.613    21955816.434   115378542.187 7
  89905417.484 7        45.900          43.800
  23947731.180                    23947741.391                   125846148.098 6
  98062015.701 7        40.500          42.500
  20909855.133                    20909860.422    20909860.477   109882143.855 8
  85622426.150 8        51.000          48.900
  22672259.039                    22672264.680    22672264.500   119143500.874 7
  92839134.643 7        45.600          44.300
 14  1  3  0 37  0.0000000  0  8G04G02G14G25G29G24G12G31
  23541788.656                                    23541795.289   123712781.754 6
  96399718.70443        40.500          22.500
  23323678.977                                    23323681.977   122566784.717 7
  95506595.40444        42.900          26.800
  21812948.711                                    21812954.699   114627838.681 7
  89320389.58045        46.200          30.700
  20213754.875                    20213764.031                   106223979.831 8
  82772024.435 8        52.000          50.900
  21938254.781                    21938261.242    21938261.180   115286286.746 7
  89833530.210 7        45.700          43.500
  23968322.023                    23968332.293                   125954353.946 6
  98146331.892 7        40.400          42.000
  20921164.570                    20921169.918    20921169.797   109941574.941 8
  85668736.089 8        50.200          48.800
  22655736.680                    22655742.320    22655742.199   119056674.581 7
  92771477.792 7        45.400          43.500
 14  1  3  0 37 30.0000000  0  8G04G02G14G25G29G24G12G31
  23547197.953                                    23547204.234   123741205.412 6
  96421866.99443        41.700          21.700
  23314254.664                                    23314258.309   122517261.502 6
  95468005.91744        41.700          27.800
  21822621.625                                    21822627.262   114678669.026 7
  89359997.63045        46.000          30.400
  20210409.555                    20210418.652                   106206397.985 8
  82758324.298 8        51.300          51.100
  21920765.844                    21920772.715    21920772.418   115194385.944 7
  89761919.286 7        45.800          44.500
  23988940.820                    23988951.090                   126062705.219 6
  98230761.405 7        40.400          42.100
  20932538.703                    20932544.402    20932544.340   110001344.619 8
  85715309.863 8        50.900          48.700
  22639260.695                    22639265.926    22639266.039   118970091.608 7
  92704010.547 7        45.300          43.800
 14  1  3  0 38  0.0000000  0  8G04G02G14G25G29G24G12G31
  23552722.563                                    23552729.137   123770242.774 6
  96444493.48443        41.400          21.500
  23304914.242                                    23304917.945   122468177.697 7
  95429758.83244        43.400          26.500
  21832396.305                                    21832401.941   114730034.401 7
  89400022.60045        46.000          30.400
  20207146.938                    20207155.801                   106189254.559 8
  82744965.781 8        51.400          51.000
  21903346.133                    21903352.418    21903352.473   115102841.456 7
  89690585.984 7        46.300          43.900
  24009586.914                    24009596.656                   126171200.363 6
  98315303.021 6        40.600          41.900
  20943976.211                    20943982.613    20943982.434   110061451.122 8
  85762146.094 8        50.800          48.500
  22622830.875                    22622836.164    22622836.160   118883753.433 7
  92636734.050 7        45.600          43.400
 14  1  3  0 38 30.0000000  0  8G04G02G14G25G29G24G12G31
  23558366.398                                    23558372.211   123799893.659 6
  96467598.07643        41.500          21.500
  23295658.180                                    23295661.297   122419536.173 7
  95391856.36144        43.000          27.900
  21842272.273                                    21842278.203   114781933.772 7
  89440463.65545        46.100          30.800
  20203968.523                    20203977.445                   106172550.560 8
  82731949.679 8        51.600          50.200
  21885993.961                    21886000.480    21886000.418   115011656.316 7
  89619532.711 7        45.900          43.700
  24030259.602                    24030269.402                   126279837.794 6
  98399955.524 6        40.200          41.500
  20955478.344                    20955483.691    20955483.570   110121894.176 8
  85809244.574 8        50.700          48.000
  22606448.508                    22606453.855    22606453.910   118797662.895 7
  92569650.519 7        45.000          44.400
 14  1  3  0 39  0.0000000  0  8G04G02G14G25G29G24G12G31
  23564124.734                                    23564131.250   123830157.267 6
  96491180.12243        40.500          22.000
  23286486.727                                    23286489.434   122371339.072 7
  95354300.20844        43.900          27.700
  21852249.398                                    21852255.387   114834365.535 7
  89481319.58345        45.500          30.700
  20200873.359                    20200881.988                   106156286.328 8
  82719276.252 8        51.700          50.300
  21868710.656                    21868717.293    21868717.406   114920832.905 7
  89548761.300 7        46.000          43.100
  24050959.063                    24050969.801                   126388616.245 6
  98484717.895 6        40.100          41.600
  20967044.188                    20967050.004    20967049.766   110182673.089 8
  85856604.761 8        50.900          48.100
  22590113.016                    22590118.773    22590118.770   118711822.224 7
  92502761.689 7        45.500          44.500
 14  1  3  0 39 30.0000000  0  8G04G02G14G25G29G24G12G31
  23569999.758                                    23570006.098   123861032.192 6
  96515238.44943        40.900          20.100
  23277399.078                                    23277403.543   122323587.991 7
  95317091.58744        44.300          27.900
  21862327.922                                    21862334.027   114887327.421 7
  89522588.56845        46.900          30.900
  20197861.859                    20197870.371                   106140461.760 8
  82706945.424 8        52.100          50.300
  21851496.539                    21851503.410    21851503.289   114830373.109 7
  89478273.199 7        47.000          44.200
  24071685.703                    24071695.973                   126497533.793 6
  98569588.655 6        40.100          41.100
  20978673.258                    20978678.898    20978678.660   110243785.695 8
  85904224.971 7        51.000          47.500
  22573826.078                    22573832.012    22573831.539   118626233.149 7
  92436068.909 7        44.900          43.800
 14  1  3  0 40  0.0000000  0  8G04G02G14G25G29G24G12G31
  23575990.602                                    23575997.586   123892517.387 6
  96539772.36743        39.200          21.100
  23268398.523                                    23268401.758   122276284.545 7
  95280231.76844        43.900          27.700
  21872506.680                                    21872512.551   114940817.139 7
  89564268.86244        46.300          29.900
  20194934.586                    20194943.684                   106125076.524 8
  82694956.932 8        51.900          50.300
  21834352.070                    21834358.824    21834358.469   114740278.737 7
  89408069.842 7        46.800          44.100
  24092438.938                    24092448.621                   126606588.585 6
  98654566.353 6        40.100          41.300
  20990365.586                    20990371.168    20990371.164   110305229.964 8
  85952103.609 7        50.700          47.600
  22557587.313                    22557593.070    22557593.008   118540897.119 7
  92369573.302 7        46.100          44.300
 14  1  3  0 40 30.0000000  0  8G04G02G14G25G29G24G12G31
  23582097.688                                    23582105.375   123924612.096 6
  96564781.19143        39.000          20.900
  23259482.047                                    23259485.340   122229431.081 7
  95243722.58644        42.200          27.400
  21882785.609                                    21882791.480   114994833.578 7
  89606359.58645        46.600          30.600
  20192090.266                    20192099.129                   106110131.195 8
  82683311.222 8        51.200          49.900
  21817278.039                    21817284.441    21817283.852   114650552.171 7
  89338153.077 7        46.800          44.500
  24113216.117                    24113227.148                   126715779.376 6
  98739650.024 6        40.500          41.300
  21002121.109                    21002126.809    21002126.688   110367005.935 8
  86000240.725 7        51.100          47.900
  22541396.711                    22541402.000    22541402.055   118455816.681 7
  92303276.862 7        45.300          44.300
 14  1  3  0 41  0.0000000  0  8G04G02G14G25G29G24G12G31
  23588321.430                                    23588329.059   123957315.734 6
  96590264.50343        38.900          20.600
  23250652.547                                    23250655.664   122183030.446 7
  95207566.27744        42.700          29.000
  21893164.875                                    21893170.453   115049375.300 7
  89648859.64245        46.800          30.500
  20189330.141                    20189338.828                   106095626.565 8
  82672008.914 8        50.800          50.800
  21800273.703                    21800280.340    21800280.219   114561196.306 7
  89268525.180 7        47.500          43.800
  24134021.953                    24134030.816                   126825105.270 6
  98824838.969 6        39.800          40.800
  21013939.664                    21013945.188    21013945.008   110429112.394 8
  86048635.357 8        50.200          48.000
  22525256.328                    22525261.734    22525261.672   118370994.469 7
  92237181.633 7        45.300          44.500
 14  1  3  0 41 30.0000000  0  8G04G02G14G25G29G24G12G31
  23594660.234                                    23594667.746   123990625.438 6
  96616220.06943        38.700          19.600
  23241908.914                                    23241912.559   122137082.082 7
  95171762.39444        43.400          28.900
  21903642.867                                    21903649.383   115104438.391 7
  89691765.94945        46.200          31.900
  20186653.648                    20186662.336                   106081560.829 8
  82661048.603 8        51.700          50.700
  21783341.141                    21783347.191    21783347.012   114472211.552 7
  89199186.422 7        47.100          44.400
  24154849.641                    24154859.910                   126934562.535 6
  98910130.291 6        39.800          41.200
  21025820.414                    21025826.289    21025826.227   110491545.661 8
  86097284.645 7        50.000          47.400
  22509163.773                    22509169.473    22509169.469   118286430.575 7
  92171287.697 7        45.100          44.100
 14  1  3  0 42  0.0000000  0  8G04G02G14G25G29G24G12G31
  23601112.727                                    23601121.820   124024540.200 6
  96642647.12543        37.400          19.300
  23233251.570                                    23233255.566   122091588.309 7
  95136312.72444        44.300          29.600
  21914219.922                                    21914226.379   115160021.150 7
  89735077.18645        46.200          30.400
  20184060.406                    20184069.328                   106067934.149 8
  82650430.411 8        51.600          50.800
  21766478.453                    21766484.621    21766484.793   114383600.022 7
  89130138.551 7        47.100          44.100
  24175703.438                    24175713.473                   127044150.210 6
  98995523.229 6        39.200          40.800
  21037763.094                    21037768.559    21037768.613   110554304.326 8
  86146187.496 7        50.200          47.900
  22493121.563                    22493127.262    22493127.258   118202127.144 7
  92105596.713 7        45.000          44.100
 14  1  3  0 42 30.0000000  0  8G04G02G14G25G29G24G12G31
  23607683.617                                    23607690.777   124059061.592 6
  96669546.86843        38.400          20.900
  23224682.711                                    23224685.125   122046553.550 7
  95101220.71444        45.000          29.000
  21924895.758                                    21924902.215   115216124.403 7
  89778794.00045        45.800          30.000
  20181551.680                    20181560.367                   106054749.520 8
  82640156.681 8        51.500          50.800
  21749687.766                    21749694.520    21749694.340   114295366.178 7
  89061384.973 7        47.700          45.000
  24196582.977                    24196592.660                   127153869.065 6
  99081018.381 6        39.200          41.100
  21049768.109                    21049773.398    21049773.453   110617391.266 8
  86195346.146 7        49.700          47.400
  22477129.656                    22477135.414    22477135.352   118118089.018 7
  92040112.460 7        45.200          44.200
 14  1  3  0 43  0.0000000  0  8G04G02G14G25G29G24G12G31
  23614367.703                                    23614374.512   124094185.547 6
  96696916.15743        39.600          20.900
  23216199.242                                    23216202.770   122001976.432 7
  95066485.32145        44.400          30.000
  21935670.359                                    21935676.582   115272743.098 7
  89822912.45644        46.800          29.800
  20179126.102                    20179134.438                   106042003.803 8
  82630224.949 8        50.800          51.000
  21732969.117                    21732976.047    21732976.043   114207509.839 7
  88992925.575 7        46.700          44.000
  24217485.977                    24217495.484                   127263714.151 6
  99166611.902 6        39.200          40.000
  21061835.094                    21061840.676    21061840.613   110680801.275 8
  86244756.538 7        49.800          47.800
  22461187.781                    22461193.656    22461193.711   118034315.104 7
  91974834.086 7        44.100          44.200
 14  1  3  0 43 30.0000000  0  8G04G02G14G25G29G24G12G31
  23621166.453                                    23621172.852   124129911.171 6
  96724754.26243        39.500          20.900
  23207803.648                                    23207807.469   121957859.192 6
  95032108.25044        40.900          28.900
  21946542.242                                    21946547.879   115329875.294 7
  89867431.04845        46.000          30.400
  20176783.984                    20176793.551                   106029697.314 8
  82620635.481 8        50.800          50.900
  21716322.555                    21716329.309    21716329.480   114120032.802 7
  88924761.667 7        47.500          44.100
  24238412.148                    24238422.594                   127373684.118 6
  99252302.734 6        38.600          40.300
  21073962.328                    21073968.262    21073968.258   110744532.828 8
  86294417.491 7        50.100          47.800
  22445296.813                    22445302.395    22445302.508   117950807.390 7
  91909763.145 7        44.900          44.100
 14  1  3  0 44  0.0000000  0  8G04G02G14G25G29G24G12G31
  23628079.117                                    23628085.750   124166238.042 6
  96753060.89643        39.100          21.100
  23199497.305                                    23199499.777   121914204.863 7
  94998091.89445        44.000          30.900
  21957511.102                                    21957517.441   115387520.532 7
  89912349.40745        45.400          30.000
  20174526.109                    20174534.855                   106017831.267 8
  82611389.202 8        51.600          51.600
  21699749.477                    21699756.465    21699756.402   114032938.287 7
  88856895.781 7        46.400          44.000
  24259361.867                    24259373.016                   127483778.327 6
  99338090.381 6        37.900          40.200
  21086151.398                    21086157.215    21086156.977   110808585.653 8
  86344328.769 7        49.500          47.600
  22429457.398                    22429462.922    22429463.035   117867569.370 7
  91844902.351 7        43.900          44.400
 14  1  3  0 44 30.0000000  0  8G04G02G14G25G29G24G12G31
  23635106.102                                    23635111.973   124203165.451 6
  96781835.50643        38.700          21.300
  23191277.992                                    23191281.813   121871015.283 7
  94964437.67144        42.600          29.900
  21968578.086                                    21968584.133   115445677.100 7
  89957666.20244        46.200          29.900
  20172351.781                    20172360.820                   106006406.028 8
  82602486.422 8        51.200          51.100
  21683249.125                    21683255.703    21683255.582   113946228.693 7
  88789329.832 7        47.500          43.800
  24280335.758                    24280347.082                   127593995.863 6
  99423974.126 6        38.100          39.700
  21098401.000                    21098407.168    21098407.164   110872959.433 8
  86394490.161 7        50.200          47.600
  22413669.516                    22413674.746    22413674.742   117784603.233 7
  91780253.413 7        45.900          44.300
 14  1  3  0 45  0.0000000  0  8G04G02G14G25G29G24G12G31
  23642247.188                                    23642253.234   124240691.221 6
  96811076.38343        41.400          20.900
  23183147.586                                    23183151.465   121828291.571 7
  94931146.47044        43.600          28.100
  21979742.195                                    21979747.832   115504341.456 7
  90003378.68545        46.000          30.800
  20170261.648                    20170270.805                   105995420.704 8
  82593926.428 8        51.900          51.300
  21666822.258                    21666829.422    21666829.242   113859905.103 7
  88722064.671 7        46.600          44.700
  24301332.523                    24301343.145                   127704333.868 6
  99509951.725 6        38.400          39.800
  21110711.789                    21110717.371    21110717.426   110937651.493 8
  86444899.552 7        49.600          47.500
  22397933.539                    22397938.535    22397938.707   117701909.846 7
  91715817.007 7        43.600          43.800
 14  1  3  0 45 30.0000000  0  8G04G02G14G25G29G24G12G31
  23649502.055                                    23649508.160   124278814.471 6
  96840782.77143        40.800          19.900
  23175106.727                                    23175110.605   121786035.736 7
  94898219.85045        43.900          30.200
  21991001.391                                    21991007.672   115563512.188 7
  90049485.74144        45.900          29.400
  20168254.703                    20168264.211                   105984875.766 8
  82585709.589 8        51.900          50.900
  21650469.992                    21650475.926    21650476.098   113773969.957 8
  88655102.268 7        48.100          44.300
  24322351.828                    24322361.922                   127814791.312 6
  99596022.407 6        37.800          39.500
  21123082.219                    21123088.270    21123088.207   111002660.907 8
  86495556.238 7        50.400          47.500
  22382249.523                    22382255.516    22382255.629   117619491.718 7
  91651595.095 7        44.600          43.900
 14  1  3  0 46  0.0000000  0  8G04G02G14G25G29G24G12G31
  23656869.281                                    23656875.973   124317533.275 6
  96870953.26943        40.900          19.900
  23167155.078                                    23167159.191   121744248.736 7
  94865658.57144        44.100          29.800
  22002357.469                                    22002362.988   115623186.648 7
  90095985.30444        46.200          29.800
  20166332.438                    20166341.066                   105974770.653 8
  82577835.472 8        51.700          51.200
  21634190.852                    21634197.137    21634197.367   113688425.082 8
  88588444.001 7        48.700          45.300
  24343393.383                    24343404.004                   127925365.906 6
  99682184.363 6        38.600          39.900
  21135513.281                    21135519.215    21135518.977   111067985.696 8
  86546458.677 7        50.600          47.500
  22366619.188                    22366624.535    22366624.707   117537350.252 7
  91587588.755 7        45.800          43.700
 14  1  3  0 46 30.0000000  0  8G04G02G14G25G29G24G12G31
  23664350.031                                    23664356.957   124356846.845 6
  96901587.15643        40.700          20.400
  23159292.125                                    23159296.707   121702933.010 7
  94833464.49544        43.500          29.900
  22013808.523                                    22013814.395   115683363.514 7
  90142876.36244        46.000          28.900
  20164493.250                    20164502.172                   105965105.942 8
  82570304.529 8        51.800          51.400
  21617986.992                    21617993.512    21617993.273   113603272.927 8
  88522091.725 7        48.300          44.800
  24364457.039                    24364468.129                   128036056.299 6
  99768436.563 6        37.500          39.100
  21148004.094                    21148009.910    21148010.023   111133624.830 8
  86597606.046 7        50.800          47.900
  22351041.086                    22351046.668    22351046.723   117455488.143 7
  91523800.101 7        45.500          43.900
 14  1  3  0 47  0.0000000  0  8G04G02G14G25G29G24G12G31
  23671944.672                                    23671951.422   124396754.755 6
  96932684.22943        39.900          19.300
  23151521.227                                    23151524.871   121662091.147 7
  94801639.67644        43.200          29.300
  22025355.273                                    22025361.496   115744041.461 7
  90190157.87444        46.200          29.700
  20162737.867                    20162746.848                   105955882.519 8
  82563117.448 8        51.700          51.200
  21601858.336                    21601864.211    21601864.148   113518516.246 8
  88456047.571 7        48.100          44.700
  24385544.398                    24385553.555                   128146861.969 6
  99854778.594 6        36.900          39.000
  21160554.984                    21160560.449    21160560.504   111199578.312 8
  86648998.371 7        50.800          47.800
  22335517.070                    22335522.301    22335522.004   117373908.323 7
  91460231.416 7        44.900          44.200
 14  1  3  0 47 30.0000000  0  8G04G02G14G25G29G24G12G31
  23679650.688                                    23679658.199   124437253.101 6
  96964241.33243        39.700          18.600
  23143838.781                                    23143842.777   121621722.520 7
  94770183.60645        43.900          30.000
  22036996.914                                    22037002.551   115805216.015 7
  90237826.34945        45.600          30.400
  20161066.391                    20161075.254                   105947098.020 8
  82556272.391 8        51.700          50.900
  21585804.406                    21585811.102    21585811.098   113434154.677 8
  88390311.279 7        48.200          45.200
  24406648.656                    24406660.156                   128257778.406 6
  99941206.938 6        37.700          38.600
  21173164.328                    21173170.613    21173170.434   111265841.977 8
  86700632.393 7        50.200          47.600
  22320046.125                    22320051.824    22320051.820   117292610.412 7
  91396882.391 7        45.800          44.300
 14  1  3  0 48  0.0000000  0  8G04G02G14G25G29G24G12G31
  23687470.141                                    23687477.066   124478342.835 6
  96996259.24642        39.700          17.400
  23136248.000                                    23136251.469   121581830.974 7
  94739099.29844        43.400          29.700
  22048732.375                                    22048737.602   115866887.020 7
  90285881.66744        45.800          29.400
  20159478.555                    20159487.535                   105938754.657 8
  82549771.068 8        51.800          50.800
  21569827.250                    21569833.770    21569833.590   113350192.647 8
  88324886.396 7        48.800          45.300
  24427777.844                    24427788.406                   128368806.691 6
 100027722.431 6        37.300          38.900
  21185833.047                    21185839.098    21185839.035   111332416.846 8
  86752508.919 7        50.700          47.500
  22304629.883                    22304635.582    22304635.578   117211598.695 7
  91333756.379 7        45.600          44.200
 14  1  3  0 48 30.0000000  0  8G04G02G14G25G29G24G12G31
  23695401.594                                    23695408.695   124520022.614 6
  97028736.99143        39.000          19.000
  23128747.984                                    23128751.805   121542417.650 7
  94708387.64144        45.000          29.800
  22060562.406                                    22060567.691   115929052.355 7
  90334322.17645        45.800          31.100
  20157974.328                    20157983.074                   105930852.241 8
  82543613.347 8        52.000          51.000
  21553925.797                    21553931.965    21553932.137   113266631.692 8
  88259774.022 7        48.900          45.700
  24448925.703                    24448937.027                   128479944.796 5
 100114323.495 6        35.200          37.600
  21198560.805                    21198566.387    21198566.383   111399301.609 8
  86804626.911 7        50.100          47.500
  22289269.133                    22289274.129    22289274.242   117130874.880 7
  91270854.704 7        44.700          43.900
 14  1  3  0 49  0.0000000  0  8G04G02G14G25G29G24G12G31
  23703444.211                                    23703451.723   124562290.230 6
  97061672.79342        39.100          17.800
  23121339.555                                    23121343.258   121503484.366 7
  94678050.04044        43.200          29.900
  22072485.156                                    22072491.203   115991709.385 7
  90383145.82844        46.300          29.000
  20156554.555                    20156563.477                   105923390.537 8
  82537799.035 8        51.400          50.800
  21538101.664                    21538107.891    21538107.594   113183473.517 8
  88194975.469 7        48.400          45.600
  24470096.047                    24470106.434                   128591190.755 5
 100201008.620 6        35.400          37.600
  21211347.195                    21211353.012    21211352.949   111466494.700 8
  86856985.165 7        50.100          47.500
  22273963.055                    22273968.871    22273969.043   117050440.918 7
  91208178.896 7        45.600          43.900
 14  1  3  0 49 30.0000000  0  8G04G02G14G25G29G24G12G31
  23711599.063                                    23711607.102   124605144.343 6
  97095065.56343        39.200          18.600
  23114021.773                                    23114025.594   121465032.283 7
  94648087.40245        43.700          30.200
  22084501.539                                    22084506.941   116054855.916 7
  90432350.91844        46.400          29.300
  20155218.266                    20155227.539                   105916369.254 8
  82532327.908 8        51.500          51.100
  21522354.188                    21522360.590    21522360.645   113100719.517 8
  88130491.886 7        48.400          45.800
  24491286.133                    24491296.871                   128702542.892 5
 100287776.469 6        34.900          37.500
  21224191.906                    21224197.781    21224197.602   111533993.992 8
  86909582.013 7        50.000          47.100
  22258712.516                    22258717.922    22258717.625   116970298.526 7
  91145730.280 7        45.600          44.100
 14  1  3  0 50  0.0000000  0  8G04G02G14G25G29G24G12G31
  23719865.320                                    23719873.418   124648582.429 6
  97128913.40243        40.100          20.100
  23106796.180                                    23106800.293   121427062.434 7
  94618500.51544        43.000          29.500
  22096610.305                                    22096616.059   116118488.822 7
  90481934.99444        45.100          29.200
  20153966.219                    20153975.082                   105909787.525 8
  82527199.287 8        51.600          51.000
  21506683.328                    21506689.438    21506689.375   113018371.656 8
  88066324.762 7        48.400          46.000
  24512495.336                    24512505.898                   128813998.436 5
 100374624.922 6        34.900          37.900
  21237094.523                    21237100.926    21237100.746   111601797.837 8
  86962416.179 7        50.100          47.200
  22243517.648                    22243522.996    22243522.934   116890448.645 7
  91083509.597 7        45.600          44.100
 14  1  3  0 50 30.0000000  0  8G04G02G14G25G29G24G12G31
  23728243.367                                    23728249.824   124692603.981 6
  97163215.86943        40.100          19.000
  23099663.625                                    23099667.152   121389577.090 7
  94589291.15645        44.100          30.600
  22108811.742                                    22108817.145   116182606.762 7
  90531897.01944        46.400          28.600
  20152797.539                    20152806.168                   105903646.414 8
  82522414.009 8        51.300          50.900
  21491091.375                    21491097.895    21491097.832   112936432.644 8
  88002476.195 7        48.700          45.800
  24533723.734                    24533734.238                   128925556.827 5
 100461553.492 6        34.700          37.400
  21250055.180                    21250060.352    21250060.230   111669905.786 8
  87015487.304 7        49.600          47.200
  22228379.086                    22228385.195    22228385.074   116810894.415 7
  91021519.289 7        45.500          43.900
 14  1  3  0 51  0.0000000  0  8G04G02G14G25G29G24G12G31
  23736730.742                                    23736737.902   124737206.269 6
  97197970.82943        40.700          20.600
  23092622.219                                    23092625.805   121352576.709 7
  94560459.71845        42.800          30.000
  22121104.867                                    22121110.504   116247206.365 7
  90582234.36944        45.400          28.300
  20151712.578                    20151721.793                   105897944.526 8
  82517970.975 8        51.700          51.400
  21475576.680                    21475582.848    21475582.785   112854902.990 7
  87938946.600 7        47.900          46.300
  24554972.109                    24554982.789                   129037215.405 5
 100548560.138 6        34.600          37.600
  21263073.000                    21263078.465    21263078.402   111738314.768 8
  87068793.006 7        50.400          47.500
  22213296.516                    22213302.156    22213302.328   116731636.756 7
  90959760.070 7        44.900          43.600
 14  1  3  0 51 30.0000000  0  8G04G02G14G25G29G24G12G31
  23745329.133                                    23745335.648   124782389.022 6
  97233178.15943        41.100          19.900
  23085673.742                                    23085677.738   121316063.881 7
  94532008.18945        43.900          30.000
  22133488.953                                    22133494.766   116312286.743 7
  90632946.33844        45.700          29.100
  20150711.172                    20150719.918                   105892683.112 8
  82513871.171 8        52.300          51.000
  21460140.180                    21460147.168    21460146.813   112773785.705 7
  87875738.344 7        47.600          45.400
  24576238.711                    24576249.039                   129148973.116 5
 100635644.037 6        35.800          37.500
  21276147.914                    21276153.613    21276153.551   111807025.357 8
  87122333.724 8        49.700          48.000
  22198271.633                    22198276.629    22198276.918   116652678.880 7
  90898234.461 7        45.900          43.400
 14  1  3  0 52  0.0000000  0  8G04G02G14G25G29G24G12G31
  23754036.891                                    23754043.934   124828151.363 6
  97268837.06943        41.100          19.900
  23078819.250                                    23078822.953   121280041.223 7
  94503938.59945        43.100          30.500
  22145965.023                                    22145969.781   116377846.031 7
  90684031.50044        45.600          29.100
  20149794.000                    20149802.980                   105887862.831 8
  82510115.106 8        51.300          51.000
  21444783.086                    21444789.605    21444789.543   112693083.675 7
  87812853.655 7        45.600          46.000
  24597523.617                    24597534.824                   129260829.611 5
 100722804.916 6        35.500          37.500
  21289279.938                    21289286.340    21289286.336   111876036.372 8
  87176108.535 7        50.100          47.200
  22183304.023                    22183309.137    22183309.074   116574023.596 7
  90836944.630 7        44.300          44.200
 14  1  3  0 52 30.0000000  0  8G04G02G14G25G29G24G12G31
  23762856.039                                    23762862.027   124874492.027 6
  97304946.62543        41.200          20.100
  23072057.500                                    23072061.789   121244510.565 7
  94476252.39545        43.700          30.400
  22158530.930                                    22158536.332   116443882.459 7
  90735488.43944        43.600          28.600
  20148960.883                    20148969.570                   105883484.077 8
  82506703.086 8        51.800          51.000
  21429505.547                    21429512.477    21429512.297   112612799.181 7
  87750294.326 7        47.500          45.400
  24618827.289                    24618838.906                   129372783.514 5
 100810041.693 6        35.000          36.400
  21302469.883                    21302476.051    21302476.047   111945347.302 8
  87230117.041 7        48.900          47.300
  22168393.938                    22168399.813    22168399.926   116495673.514 7
  90775892.620 7        44.100          44.300
 14  1  3  0 53  0.0000000  0  8G04G02G14G25G29G24G12G31
  23771783.000                                    23771789.867   124921406.376 6
  97341503.22343        41.100          19.300
  23065389.992                                    23065393.168   121209469.989 7
  94448948.06245        44.200          30.100
  22171186.906                                    22171193.188   116510390.678 7
  90787313.02944        44.700          27.700
  20148210.672                    20148219.887                   105879543.511 8
  82503632.514 8        52.000          51.200
  21414307.109                    21414313.453    21414313.684   112532930.861 8
  87688059.279 7        49.000          45.700
  24640149.758                    24640160.438                   129484829.706 6
 100897350.391 5        36.300          35.900
  21315715.820                    21315721.637    21315721.398   112014953.442 8
  87284355.592 7        49.600          47.300
  22153542.789                    22153548.371    22153548.367   116417627.492 7
  90715077.537 7        47.200          43.900
 14  1  3  0 53 30.0000000  0  8G04G02G14G25G29G24G12G31
  23780819.750                                    23780826.324   124968894.303 6
  97378506.76543        41.000          19.300
  23058816.031                                    23058819.266   121174922.572 7
  94422028.00744        45.100          29.700
  22183932.820                                    22183938.516   116577369.818 7
  90839504.55544        45.500          28.700
  20147544.586                    20147553.801                   105876042.653 8
  82500904.571 8        52.400          51.500
  21399188.297                    21399195.109    21399194.988   112453482.223 8
  87626151.269 7        48.500          45.600
  24661489.320                    24661499.473                   129596968.141 5
 100984730.976 6        35.600          36.700
  21329017.672                    21329023.371    21329023.309   112084855.124 8
  87338824.436 7        49.900          47.200
  22138749.219                    22138754.508    22138754.445   116339888.411 7
  90654501.626 7        46.600          44.000
 14  1  3  0 54  0.0000000  0  8G04G02G14G25G29G24G12G31
  23789965.102                                    23789972.613   125016954.971 6
  97415956.59643        40.300          18.300
  23052336.242                                    23052339.828   121140870.578 7
  94395493.99645        44.400          30.800
  22196767.648                                    22196773.813   116644818.385 7
  90892061.86744        45.100          27.700
  20146962.438                    20146971.125                   105872982.110 8
  82498519.732 8        52.000          51.100
  21384150.648                    21384156.934    21384157.047   112374455.890 8
  87564572.317 7        48.600          45.900
  24682846.289                    24682855.973                   129709197.918 5
 101072182.734 5        35.700          35.800
  21342375.648                    21342381.289    21342380.934   112155051.562 8
  87393522.952 7        50.100          47.500
  22124014.836                    22124020.359    22124020.414   116262459.549 7
  90594167.448 7        47.300          43.900
 14  1  3  0 54 30.0000000  0  8G04G02G14G25G29G24G12G31
  23799219.367                                    23799226.059   125065585.488 6
  97453850.45743        40.200          18.300
  23045950.023                                    23045953.844   121107314.750 7
  94369346.60744        45.100          29.800
  22209691.594                                    22209697.289   116712732.973 7
  90944982.32544        44.800          27.000
  20146463.859                    20146472.664                   105870360.950 8
  82496477.270 8        52.000          51.200
  21369193.008                    21369199.176    21369198.996   112295852.804 8
  87503323.168 7        48.900          45.800
  24704218.930                    24704229.844                   129821516.482 5
 101159703.671 6        35.400          36.100
  21355789.008                    21355794.707    21355794.820   112225540.409 8
  87448449.319 7        49.400          47.200
  22109340.102                    22109345.684    22109345.445   116185341.882 7
  90534075.760 7        46.400          44.000
 14  1  3  0 55  0.0000000  0  8G04G02G14G25G29G24G12G31
  23808581.336                                    23808588.613   125114784.393 6
  97492187.19742        39.900          17.400
  23039659.430                                    23039663.367   121074256.370 7
  94343586.85544        44.300          29.900
  22222703.266                                    22222709.078   116781111.561 7
  90998264.32644        42.400          26.500
  20146048.438                    20146057.184                   105868179.065 8
  82494777.101 8        52.400          50.900
  21354315.945                    21354322.934    21354322.813   112217675.008 8
  87442405.418 7        48.000          46.000
  24725609.578                    24725620.141                   129933922.248 5
 101247292.575 5        35.500          35.500
  21369258.164                    21369263.980    21369263.684   112296319.874 8
  87503602.143 7        48.200          47.300
  22094725.227                    22094730.574    22094730.570   116108537.715 7
  90474228.356 7        47.000          44.000
 14  1  3  0 55 30.0000000  0  8G04G02G14G25G29G24G12G31
  23818051.414                                    23818058.281   125164550.316 6
  97530965.78842        38.700          16.900
  23033463.555                                    23033467.316   121041697.207 7
  94318216.08245        45.000          30.500
  22235802.969                                    22235809.133   116849952.005 7
  91051906.22044        44.700          26.600
  20145717.008                    20145725.871                   105866436.702 8
  82493419.413 8        52.100          51.300
  21339520.758                    21339527.336    21339527.156   112139924.487 8
  87381820.606 7        48.600          45.900
  24747015.664                    24747026.227                   130046414.057 5
 101334948.542 5        35.100          35.300
  21382782.063                    21382787.586    21382787.582   112367390.134 8
  87558981.566 7        49.200          47.200
  22080169.359                    22080174.766    22080174.820   116032049.407 7
  90414627.078 7        46.400          44.200
 14  1  3  0 56  0.0000000  0  8G04G02G14G25G29G24G12G31
  23827629.195                                    23827636.766   125214881.776 6
  97570185.06542        39.400          16.300
  23027362.727                                    23027366.547   121009638.730 7
  94293235.46445        44.900          30.100
  22248991.156                                    22248996.734   116919252.021 7
  91105906.22344        44.600          26.800
  20145468.859                    20145477.664                   105865133.971 8
  82492404.301 8        52.400          51.400
  21324806.672                    21324813.016    21324813.129   112062603.324 7
  87321570.361 7        47.600          45.700
  24768437.625                    24768448.773                   130158990.082 5
 101422670.103 5        35.200          34.600
  21396361.172                    21396367.047    21396367.043   112438749.844 8
  87614586.528 7        49.300          47.200
  22065674.602                    22065680.125    22065680.238   115955879.046 7
  90355273.546 7        44.600          44.300
 14  1  3  0 56 30.0000000  0  8G04G02G14G25G29G24G12G31
  23837313.672                                    23837321.711   125265777.563 6
  97609844.03842        39.100          16.900
  23021358.086                                    23021361.848   120978083.268 7
  94268646.80244        44.600          29.900
  22262264.813                                    22262270.859   116989009.930 7
  91160263.02044        44.400          26.700
  20145304.984                    20145313.965                   105864271.514 8
  82491732.262 8        51.500          51.300
  21310175.469                    21310181.813    21310181.691   111985714.121 8
  87261656.708 7        48.700          46.500
  24789876.852                    24789887.648                   130271649.263 5
 101510456.485 5        35.900          35.800
  21409995.305                    21410001.180    21410001.000   112510398.144 8
  87670416.366 7        48.500          46.700
  22051241.359                    22051246.473    22051246.469   115880029.376 7
  90296169.907 7        47.000          44.300
 14  1  3  0 57  0.0000000  0  8G04G02G14G25G29G24G12G31
  23847106.273                                    23847113.844   125317233.754 6
  97649939.77742        39.400          16.300
  23015449.469                                    23015452.879   120947029.554 7
  94244449.11344        45.200          29.700
  22275625.742                                    22275631.145   117059220.584 7
  91214972.59044        44.300          26.500
  20145223.938                    20145232.918                   105863846.671 8
  82491401.219 8        51.900          51.400
  21295625.578                    21295632.566    21295632.387   111909255.929 8
  87202078.902 7        48.800          46.400
  24811330.773                    24811340.926                   130384388.166 5
 101598304.987 5        35.300          34.400
  21423683.945                    21423689.762    21423689.699   112582330.989 8
  87726467.929 7        48.900          47.000
  22036868.445                    22036873.441    22036873.555   115804500.303 7
  90237316.079 7        47.300          44.300
 14  1  3  0 57 30.0000000  0  8G04G02G14G25G29G24G12G31
  23857005.344                                    23857011.977   125369249.238 6
  97690471.30642        40.000          17.800
  23009635.359                                    23009639.121   120916480.172 7
  94220644.40645        44.900          30.700
  22289072.359                                    22289078.172   117129883.098 7
  91270034.27144        44.100          25.800
  20145226.391                    20145235.898                   105863860.452 8
  82491411.956 8        51.800          51.500
  21281158.969                    21281165.020    21281164.957   111833232.227 8
  87142839.663 7        49.100          46.100
  24832799.391                    24832809.133                   130497205.570 5
 101686214.671 5        35.500          35.700
  21437426.367                    21437432.535    21437432.590   112654548.036 8
  87782740.950 7        49.300          46.500
  22022557.555                    22022562.727    22022562.723   115729294.800 7
  90178714.390 7        47.500          44.700
 14  1  3  0 58  0.0000000  0  8G04G02G14G25G29G24G12G31
  23867009.719                                    23867016.703   125421824.140 6
  97731438.68143        41.100          19.600
  23003918.781                                    23003922.367   120886437.989 7
  94197234.92645        45.600          30.500
  22302604.680                                    22302610.492   117200996.732 7
  91325447.48744        44.300          26.900
  20145312.930                    20145321.617                   105864314.591 8
  82491765.832 8        52.100          50.800
  21266775.141                    21266782.070    21266781.891   111757646.291 8
  87083941.540 7        48.800          46.500
  24854282.625                    24854292.191                   130610101.783 5
 101774185.751 5        35.100          35.700
  21451222.438                    21451228.664    21451228.660   112727050.442 8
  87839236.325 7        48.800          47.000
  22008308.070                    22008313.945    22008314.059   115654416.448 8
  90120367.616 7        48.000          44.100
 14  1  3  0 58 30.0000000  0  8G04G02G14G25G29G24G12G31
  23877119.703                                    23877127.098   125474955.000 6
  97772839.33843        41.100          18.300
  22998298.523                                    22998302.227   120856903.054 7
  94174220.70845        45.000          30.000
  22316221.984                                    22316228.383   117272557.206 7
  91381208.87144        43.600          26.900
  20145482.805                    20145491.961                   105865207.372 8
  82492461.506 8        51.700          51.100
  21252475.305                    21252481.590    21252481.879   111682498.137 8
  87025384.547 7        49.100          46.300
  24875780.883                    24875790.977                   130723073.648 5
 101862215.788 5        35.400          35.500
  21465073.500                    21465079.258    21465079.195   112799834.798 8
  87895951.407 7        48.800          47.000
  21994122.047                    21994127.629    21994127.508   115579865.877 7
  90062276.261 7        47.000          44.100
 14  1  3  0 59  0.0000000  0  8G04G02G14G25G29G24G12G31
  23887336.531                                    23887343.105   125528638.811 6
  97814670.81443        41.400          18.300
  22992774.867                                    22992777.984   120827875.221 7
  94151601.62445        45.000          30.600
  22329924.008                                    22329930.406   117344561.162 7
  91437315.82844        43.600          27.500
  20145735.750                    20145744.906                   105866537.214 8
  82493497.747 8        52.200          51.400
  21238258.617                    21238264.434    21238264.664   111607788.583 8
  86967169.318 7        48.500          46.400
  24897292.641                    24897302.441                   130836118.258 5
 101950302.518 5        34.800          35.400
  21478977.172                    21478982.988    21478982.750   112872898.530 7
  87952884.180 7        47.800          46.400
  21979997.719                    21980003.711    21980003.707   115505644.003 7
  90004441.033 7        47.400          44.700
 14  1  3  0 59 30.0000000  0  8G04G02G14G25G29G24G12G31
  23897656.672                                    23897664.008   125582874.542 6
  97856932.39942        40.400          17.400
  22987347.797                                    22987351.734   120799356.866 7
  94129379.54045        44.900          30.000
  22343709.984                                    22343716.148   117417006.585 7
  91493766.79144        43.600          26.200
  20146072.258                    20146081.180                   105868304.886 8
  82494875.155 8        52.300          51.500
  21224125.422                    21224131.824    21224131.703   111533519.826 8
  86909297.572 7        48.800          46.100
  24918817.625                    24918827.602                   130949234.561 5
 102038445.113 5        34.800          34.700
  21492933.906                    21492939.605    21492939.543   112946241.044 8
  88010034.185 7        48.300          46.000
  21965937.203                    21965942.785    21965942.430   115431753.392 7
  89946863.933 7        47.400          44.900
 14  1  3  1  0  0.0000000  4  5
MORP (COGO code)                                            COMMENT
   0.033      (antenna height)                              COMMENT
 +55.21279000 (latitude)                                    COMMENT
  -1.68549700 (longitude)                                   COMMENT
0144.425      (elevation)                                   COMMENT
 14  1  3  1  0  0.0000000  0  8G04G02G14G25G29G24G12G31
  23908082.281                                    23908089.734   125637661.485 6
  97899623.47143        40.800          18.600
  22982018.094                                    22982021.738   120771350.114 7
  94107556.10844        45.400          29.800
  22357579.563                                    22357586.195   117489892.717 7
  91550561.15144        43.900          25.600
  20146492.367                    20146500.762                   105870511.540 8
  82496594.626 8        52.500          51.200
  21210077.070                    21210083.824    21210083.996   111459695.252 8
  86851771.938 7        48.700          46.900
  24940355.984                    24940365.434                   131062422.092 5
 102126643.216 5        35.500          35.900
  21506943.430                    21506949.363    21506949.242   113019862.471 8
  88067401.531 7        48.500          46.500
  21951940.008                    21951945.238    21951945.059   115358197.569 7
  89889547.705 7        47.100          44.500
 14  1  3  1  0 30.0000000  0  8G04G02G14G25G29G24G12G31
  23918612.242                                    23918620.340   125692998.236 6
  97942742.91643        40.500          18.300
  22976785.992                                    22976789.813   120743856.886 7
  94086132.83544        44.500          29.200
  22371532.555                                    22371538.719   117563217.314 7
  91607697.17244        43.200          26.400
  20146995.805                    20147004.609                   105873157.492 8
  82498656.406 8        52.200          51.200
  21196113.680                    21196120.023    21196120.078   111386317.053 8
  86794594.132 7        48.900          45.900
  24961908.492                    24961918.176                   131175680.214 5
 102214896.304 5        35.300          35.300
  21521005.789                    21521011.840    21521011.777   113093762.389 8
  88124985.873 7        48.900          46.400
  21938007.195                    21938012.543    21938012.480   115284979.020 7
  89832494.291 7        47.300          44.700
 14  1  3  1  1  0.0000000  0  8G04G02G14G25G29G24G12G31
  23929246.617                                    23929254.129   125748880.649 6
  97986287.58942        39.400          17.400
  22971651.922                                    22971656.035   120716875.961 7
  94065108.73445        45.400          30.900
  22385569.508                                    22385574.910   117636975.713 7
  91665171.22544        42.700          25.400
  20147582.336                    20147591.082                   105876240.300 8
  82501058.590 8        52.800          50.800
  21182235.344                    21182242.039    21182241.801   111313384.595 8
  86737763.653 7        48.800          46.600
  24983473.117                    24983483.094                   131289004.207 5
 102303200.737 5        35.200          34.900
  21535121.188                    21535126.301    21535126.297   113167936.519 8
  88182783.901 7        48.200          46.200
  21924137.695                    21924143.219    21924142.980   115212097.653 7
  89775703.611 7        47.400          44.300
 14  1  3  1  1 30.0000000  0  8G04G02G14G25G29G24G12G31
  23939984.188                                    23939991.934   125805307.245 6
  98030256.38942        39.300          17.800
  22966615.273                                    22966618.859   120690409.213 7
  94044485.31644        45.400          29.600
  22399686.789                                    22399693.246   117711165.480 7
  91722981.40144        42.700          25.200
  20148252.398                    20148261.086                   105879759.985 8
  82503801.200 8        52.300          50.500
  21168442.305                    21168448.531    21168448.586   111240899.747 8
  86681281.960 7        49.200          45.800
  25005049.672                    25005060.879                   131402393.714 5
 102391556.232 5        34.600          34.900
  21549287.398                    21549293.742    21549293.563   113242384.363 8
  88240795.202 7        48.700          46.000
  21910333.406                    21910339.164    21910339.043   115139555.747 7
  89719177.450 7        47.600          45.000
 14  1  3  1  2  0.0000000  0  8G04G02G14G25G29G24G12G31
  23950824.891                                    23950832.520   125862276.603 6
  98074648.01942        39.700          16.900
  22961677.805                                    22961681.332   120664458.199 7
  94024263.74745        45.500          30.000
  22413886.180                                    22413892.695   117785784.825 7
  91781126.30544        43.400          24.400
  20149005.148                    20149014.188                   105883717.300 8
  82506884.821 8        52.300          50.400
  21154733.664                    21154740.770    21154740.531   111168865.148 8
  86625151.110 7        49.700          46.100
  25026640.922                    25026650.313                   131515847.047 5
 102479961.462 5        35.000          34.300
  21563506.438                    21563512.723    21563512.719   113317105.220 8
  88299019.242 7        49.200          46.200
  21896594.898                    21896600.188    21896600.125   115067356.112 7
  89662917.993 7        47.900          44.500
 14  1  3  1  2 30.0000000  0  8G04G02G14G25G29G24G12G31
  23961768.664                                    23961777.055   125919787.568 6
  98119461.71442        38.500          16.900
  22956837.992                                    22956841.344   120639025.106 7
  94004445.75944        45.800          29.900
  22428167.492                                    22428173.480   117860832.163 7
  91839604.74644        43.200          25.300
  20149841.680                    20149850.660                   105888112.643 8
  82510309.761 8        52.300          51.100
  21141112.336                    21141118.973    21141118.676   111097283.291 8
  86569373.050 7        48.900          46.200
  25048240.805                    25048252.188                   131629363.300 5
 102568415.705 5        34.200          34.900
  21577777.742                    21577783.793    21577783.555   113392098.494 8
  88357455.556 7        49.200          46.400
  21882920.984                    21882926.566    21882926.504   114995501.282 8
  89606927.223 7        48.000          45.000
 14  1  3  1  3  0.0000000  0  8G04G02G14G25G29G24G12G31
  23972815.961                                    23972823.297   125977836.680 6
  98164694.76542        39.600          17.400
  22952096.039                                    22952099.332   120614109.319 7
  93985030.85744        45.400          29.700
  22442529.477                                    22442535.289   117936303.655 7
  91898413.66944        42.100          24.200
  20150760.969                    20150770.242                   105892944.563 8
  82514074.891 8        51.900          51.100
  21127577.352                    21127583.285    21127583.457   111026154.447 8
  86513947.986 7        49.500          46.400
  25069855.148                    25069864.773                   131742939.622 5
 102656916.772 5        33.900          35.700
  21592099.313                    21592105.422    21592105.359   113467361.286 8
  88416101.873 7        48.700          45.900
  21869313.289                    21869318.930    21869318.984   114923992.099 7
  89551205.781 7        47.600          45.000
 14  1  3  1  3 30.0000000  0  8G04G02G14G25G29G24G12G31
  23983964.125                                    23983971.813   126036421.256 6
  98210345.05742        38.600          16.900
  22947453.227                                    22947457.340   120589711.475 7
  93966019.56745        45.700          30.100
  22456971.453                                    22456977.266   118012195.629 7
  91957550.26944        42.700          24.500
  20151763.523                    20151772.914                   105898211.930 8
  82518179.330 8        52.400          51.200
  21114127.773                    21114134.234    21114134.172   110955479.080 8
  86458876.277 7        49.700          46.800
  25091478.094                    25091489.242                   131856573.668 5
 102745462.831 5        33.100          35.600
  21606472.391                    21606478.148    21606478.203   113542891.700 8
  88474956.734 7        50.200          46.200
  21855771.461                    21855776.691    21855776.980   114852829.904 8
  89495754.716 7        48.600          45.100
 14  1  3  1  4  0.0000000  0  8G04G02G14G25G29G24G12G31
  23995214.164                                    23995221.852   126095541.426 6
  98256412.65342        38.500          15.600
  22942910.352                                    22942913.410   120565834.811 7
  93947414.37445        44.700          30.400
  22471492.891                                    22471498.938   118088507.876 6
  92017014.30843        41.800          23.900
  20152848.898                    20152857.762                   105903916.970 8
  82522624.820 8        51.800          51.300
  21100766.414                    21100772.113    21100772.227   110885261.476 8
  86404161.268 7        49.800          46.300
  25113113.023                    25113123.293                   131970266.037 5
 102834054.326 5        33.200          34.800
  21620896.992                    21620902.340    21620901.867   113618690.696 8
  88534020.890 7        48.500          45.700
  21842296.953                    21842302.418    21842302.414   114782019.395 8
  89440577.700 7        48.000          46.300
 14  1  3  1  4 30.0000000  0  8G04G02G14G25G29G24G12G31
  24006565.000                                    24006574.211   126155194.833 6
  98302895.82542        38.500          16.300
  22938465.227                                    22938469.516   120542480.229 7
  93929216.01444        45.000          29.100
  22486094.656                                    22486100.059   118165237.291 7
  92076803.43743        42.100          23.600
  20154018.047                    20154026.910                   105910059.047 8
  82527410.853 8        51.700          51.200
  21087491.133                    21087498.180    21087498.176   110815503.124 8
  86349804.122 7        49.900          46.800
  25134757.797                    25134769.414                   132084014.529 5
 102922689.542 5        32.600          34.800
  21635371.828                    21635377.352    21635377.230   113694756.239 8
  88593292.732 7        48.600          45.400
  21828889.047                    21828894.688    21828894.625   114711561.353 8
  89385675.325 7        48.100          45.800
 14  1  3  1  5  0.0000000  0  8G04G02G14G25G29G24G12G31
  24018018.109                                    24018025.563   126215378.172 6
  98349791.90642        38.600          16.900
  22934120.969                                    22934124.320   120519647.763 7
  93911424.48345        45.600          30.600
  22500774.547                                    22500780.301   118242380.702 7
  92136915.11144        42.400          24.400
  20155269.352                    20155277.863                   105916636.683 8
  82532536.278 8        52.000          51.200
  21074304.563                    21074310.906    21074310.785   110746204.289 8
  86295805.028 7        50.100          47.000
  25156413.148                    25156424.531                   132197816.139 5
 103011366.160 5        32.600          34.300
  21649896.852                    21649902.551    21649902.547   113771086.865 8
  88652771.143 7        48.900          46.100
  21815548.922                    21815554.152    21815554.324   114641457.137 7
  89331048.664 7        47.900          45.500
 14  1  3  1  5 30.0000000  0  8G04G02G14G25G29G24G12G31
  24029571.594                                    24029578.813   126276089.731 6
  98397099.62542        38.600          17.400
  22929875.320                                    22929878.613   120497338.080 7
  93894040.32845        45.400          30.400
  22515531.922                                    22515538.203   118319935.110 6
  92197347.11944        41.600          25.100
  20156603.898                    20156612.938                   105923649.941 8
  82538001.156 8        51.700          51.300
  21061205.188                    21061211.297    21061211.117   110677366.666 8
  86242165.330 7        50.000          46.300
  25178080.133                    25178089.523                   132311669.660 5
 103100083.249 5        31.000          34.300
  21664471.984                    21664478.152    21664477.973   113847680.672 8
  88712454.620 7        48.800          46.300
  21802275.719                    21802281.652    21802281.590   114571708.799 8
  89276699.310 7        48.200          45.600
 14  1  3  1  6  0.0000000  0  8G04G02G14G25G29G24G12G31
  24041224.438                                    24041231.598   126337327.533 6
  98444817.36842        39.200          16.300
  22925730.094                                    22925733.504   120475553.013 7
  93877064.95445        44.500          30.500
  22530367.508                                    22530373.730   118397898.259 6
  92258097.52643        41.200          22.800
  20158021.617                    20158030.539                   105931098.830 8
  82543805.484 8        52.500          51.400
  21048193.477                    21048200.406    21048200.227   110608992.028 8
  86188886.399 7        49.200          47.200
  25199754.227                    25199765.551                   132425573.759 5
 103188839.708 5        31.200          35.800
  21679096.977                    21679103.027    21679103.023   113924536.354 8
  88772342.158 7        48.400          46.400
  21789071.211                    21789076.793    21789076.906   114502318.721 7
  89222629.119 7        46.200          45.500
 14  1  3  1  6 30.0000000  0  8G04G02G14G25G29G24G12G31
  24052978.414                                    24052984.227   126399090.022 6
  98492943.95142        39.000          16.300
  22921684.555                                    22921687.848   120454294.025 7
  93860499.50845        44.300          30.900
  22545281.977                                    22545287.848   118476267.903 7
  92319164.73644        42.100          25.100
  20159521.953                    20159531.051                   105938983.593 8
  82549949.459 8        51.900          51.000
  21035270.883                    21035277.344    21035277.574   110541082.603 8
  86135969.973 7        50.200          46.900
  25221441.188                    25221450.344                   132539527.421 5
 103277634.798 5        31.200          34.200
  21693771.797                    21693777.613    21693777.434   114001653.643 8
  88832433.553 7        49.000          46.200
  21775935.672                    21775941.430    21775941.543   114433289.440 7
  89168840.067 7        47.100          45.800
 14  1  3  1  7  0.0000000  0  8G04G02G14G25G29G24G12G31
  24064830.031                                    24064837.660   126461375.600 6
  98541478.20242        39.100          17.400
  22917739.547                                    22917743.426   120433562.397 7
  93844344.99745        44.900          30.400
  22560271.781                                    22560278.004   118555042.384 6
  92380547.38644        41.500          24.800
  20161105.297                    20161114.453                   105947304.483 8
  82556433.271 8        51.900          51.800
  21022437.250                    21022443.711    21022443.590   110473640.102 8
  86083417.378 7        50.900          47.000
  25243133.930                    25243143.379                   132653529.339 5
 103366467.500 5        30.700          34.300
  21708496.742                    21708502.031    21708502.086   114079031.893 8
  88892728.288 7        48.800          46.100
  21762868.773                    21762874.297    21762874.234   114364623.642 8
  89115334.250 7        48.700          45.700
 14  1  3  1  7 30.0000000  0  8G04G02G14G25G29G24G12G31
  24076780.430                                    24076788.938   126524179.342 6
  98590416.14742        38.600          16.300
  22913894.289                                    22913897.406   120413356.589 7
  93828600.21645        45.800          30.200
  22575337.828                                    22575343.523   118634216.236 6
  92442241.21543        41.300          22.900
  20162771.273                    20162780.195                   105956058.654 8
  82563254.704 8        51.700          51.000
  21009692.031                    21009698.258    21009697.961   110406664.228 8
  86031228.392 7        50.600          47.200
  25264834.172                    25264846.199                   132767574.772 5
 103455334.125 5        31.200          33.200
  21723270.195                    21723276.070    21723275.949   114156667.074 8
  88953223.222 7        48.800          46.200
  21749871.422                    21749877.297    21749877.176   114296320.616 8
  89062111.118 7        48.700          45.700
 14  1  3  1  8  0.0000000  0  8G04G02G14G25G29G24G12G31
  24088831.094                                    24088838.723   126587501.842 6
  98639758.34042        38.400          16.300
  22910150.602                                    22910153.836   120393680.086 7
  93813267.87745        45.100          30.800
  22590480.563                                    22590485.730   118713789.050 6
  92504245.94043        41.300          23.000
  20164520.086                    20164528.891                   105965248.356 8
  82570415.514 8        51.900          51.100
  20997036.313                    20997042.773    20997042.594   110340158.830 8
  85979406.006 7        50.200          46.500
  25286544.922                    25286556.539                   132881665.21614
 103544235.42715        29.600          34.000
  21738092.484                    21738098.184    21738098.121   114234560.208 8
  89013919.160 7        49.300          45.900
  21736943.477                    21736949.059    21736948.996   114228384.870 8
  89009174.174 7        48.300          45.400
 14  1  3  1  8 30.0000000  0  7G04G02G14G25G29G12G31
  24100979.258                                    24100986.711   126651337.899 6
  98689500.64042        38.100          14.800
  22906506.156                                    22906509.684   120374530.941 7
  93798346.47845        43.500          30.600
  22605697.984                                    22605703.621   118793755.330 6
  92566557.25343        41.400          23.000
  20166351.172                    20166360.094                   105974870.424 8
  82577913.224 8        52.300          51.200
  20984469.938                    20984476.516    20984476.453   110274122.219 8
  85927948.916 7        50.500          47.100
  21752963.859                    21752969.383    21752969.262   114312707.248 8
  89074812.941 7        48.900          46.300
  21724085.852                    21724091.492    21724091.664   114160815.545 8
  88956522.752 7        48.500          45.100
 14  1  3  1  9  0.0000000  0  7G04G02G14G25G29G12G31
  24113224.586                                    24113232.566   126715690.264 6
  98739645.37442        36.800          14.800
  22902963.219                                    22902966.570   120355914.863 7
  93783840.45045        45.900          31.400
  22620989.875                                    22620996.391   118874117.476 6
  92629176.99343        41.500          22.900
  20168265.406                    20168274.152                   105984929.530 8
  82585751.492 8        52.800          50.900
  20971994.508                    20972000.793    20972000.672   110208560.949 8
  85876862.224 7        50.300          47.000
  21767883.438                    21767889.254    21767889.309   114391111.519 8
  89135907.160 7        48.900          45.600
  21711298.781                    21711304.539    21711304.301   114093619.473 8
  88904162.176 7        49.100          45.800
 14  1  3  1  9 30.0000000  0  8G04G02G14G25G29G24G12G31
  24125566.445                                    24125575.188   126780552.158 6
  98790187.06942        36.100          15.600
  22899521.469                                    22899525.523   120337828.255 7
  93769746.99445        44.300          30.700
  22636356.773                                    22636362.352   118954868.012 6
  92692099.36743        39.800          22.800
  20170261.539                    20170270.461                   105995420.701 8
  82593926.428 8        52.200          50.800
  20959608.281                    20959614.918    20959614.621   110143471.925 8
  85826143.508 7        50.300          46.700
  25351723.633                    25351734.547                   133224184.452 5
 103811114.906 5        30.500          33.900
  21782850.656                    21782856.824    21782856.762   114469767.426 8
  89197197.462 7        48.300          45.700
  21698582.070                    21698588.238    21698587.883   114026794.211 8
  88852090.545 7        48.300          46.000
 14  1  3  1 10  0.0000000  0  8G04G02G14G25G29G24G12G31
  24138005.961                                                   126845922.619 5
                        34.800
  22896181.469                                    22896184.879   120320273.176 7
  93756067.71945        44.000          31.900
  22651796.945                                    22651802.816   119036005.776 6
  92755323.56343        41.400          23.000
  20172340.445                    20172349.543                   106006344.978 8
  82602438.856 8        51.700          51.500
  20947312.391                    20947318.500    20947318.379   110078858.006 8
  85775795.006 7        50.200          47.300
  25373465.234                    25373475.797                   133338432.28015
 103900139.22115        30.300          32.500
  21797867.320                    21797872.492    21797872.723   114548675.148 8
  89258683.995 7        48.800          45.600
  21685936.469                    21685942.227    21685942.164   113960343.081 8
  88800310.446 7        48.300          45.600
 14  1  3  1 10 30.0000000  0  8G04G02G14G25G29G24G12G31
  24150543.164                                                   126911801.855 5
                        35.600
  22892942.344                                    22892946.105   120303253.370 7
  93742805.53245        44.300          30.400
  22667310.344                                    22667316.332   119117530.600 6
  92818849.29344        41.300          24.100
  20174502.117                    20174511.391                   106017704.926 8
  82611290.759 8        51.900          51.200
  20935108.125                    20935114.645    20935114.875   110014723.286 8
  85725819.911 7        49.600          46.900
  25395212.625                    25395223.598                   133452718.510 4
 103989193.465 5        28.000          31.300
  21812930.492                    21812936.191    21812936.129   114627835.604 8
  89320367.456 7        49.000          45.500
  21673364.156                    21673370.031    21673369.910   113894270.824 8
  88748825.574 7        48.200          46.300
 14  1  3  1 11  0.0000000  0  7G04G02G14G25G29G12G31
  24163175.945                                                   126978184.118 5
                        35.000
  22889804.984                                    22889808.688   120286765.354 7
  93729957.73845        43.900          31.000
  22682895.773                                    22682902.348   119199435.988 6
  92882671.59343        41.300          22.600
  20176746.016                    20176755.230                   106029495.980 8
  82620478.587 8        52.100          51.300
  20922994.336                    20923000.855    20923000.676   109951065.157 7
  85676216.182 7        47.200          47.100
  21828041.977                    21828047.090    21828046.793   114707243.971 8
  89382244.098 7        48.900          45.500
  21660862.219                    21660867.801    21660867.738   113828575.206 7
  88697634.182 7        45.600          46.300
 14  1  3  1 11 30.0000000  0  7G04G02G14G25G29G12G31
  24175902.266                                                   127045069.251 5
                        35.400
  22886768.492                                    22886772.723   120270812.779 7
  93717527.16545        44.000          30.800
  22698554.578                                    22698560.801   119281721.563 6
  92946790.15143        40.400          22.800
  20179072.094                    20179081.074                   106041720.538 8
  82630004.216 8        51.700          51.400
  20910971.859                    20910978.379    20910978.375   109887887.817 8
  85626987.094 7        48.800          47.200
  21843199.836                    21843205.418    21843205.414   114786901.621 8
  89444314.976 7        49.200          45.300
  21648433.453                    21648438.742    21648438.797   113763260.947 7
  88646739.959 7        47.100          45.800
 14  1  3  1 12  0.0000000  0  7G04G02G14G25G29G12G31
  24188724.984                                                   127112452.595 6
                        36.300
  22883834.828                                    22883838.590   120255393.887 7
  93705512.46045        42.900          30.500
  22714284.953                                    22714290.414   119364382.027 6
  93011200.84943        37.800          23.000
  20181480.656                    20181488.992                   106054375.819 8
  82639865.474 8        50.900          51.000
  20899041.109                    20899047.453    20899047.449   109825189.991 7
  85578131.646 7        47.300          47.500
  21858405.070                    21858410.887    21858410.531   114866804.423 8
  89506576.886 7        48.800          45.700
  21636077.219                    21636083.094    21636083.090   113698327.676 7
  88596142.603 7        45.800          45.900
 14  1  3  1 12 30.0000000  0  7G04G02G14G25G29G12G31
  24201643.703                                                   127180333.811 6
                        36.800
  22881002.758                                    22881005.992   120240511.512 7
  93693915.80445        44.300          30.700
  22730085.469                                    22730091.164   119447416.704 6
  93075903.14343        39.900          22.600
  20183971.359                    20183980.340                   106067463.403 8
  82650063.580 8        51.900          51.600
  20887201.789                    20887208.426    20887208.305   109762975.151 8
  85529652.564 7        50.500          47.000
  21873656.555                    21873662.371    21873662.191   114946953.030 8
  89569030.338 7        49.500          45.000
  21623793.938                    21623799.578    21623799.574   113633779.263 8
  88545845.142 7        49.200          46.400
 14  1  3  1 13  0.0000000  0  7G04G02G14G25G29G12G31
  24214654.984                                                   127248709.562 6
                        37.700
  22878272.430                                    22878276.543   120226165.066 7
  93682736.76645        43.800          30.000
  22745956.977                                    22745962.906   119530821.897 6
  93140894.17743        40.400          22.500
  20186543.344                    20186552.793                   106080982.016 8
  82660597.564 8        51.600          51.000
  20875454.523                    20875461.160    20875461.098   109701243.730 8
  85481550.167 7        50.200          47.000
  21888954.688                    21888960.387    21888960.324   115027345.341 8
  89631673.700 7        49.100          45.700
  21611584.180                    21611589.703    21611589.758   113569617.081 8
  88495848.639 7        49.200          46.300
 14  1  3  1 13 30.0000000  0  7G04G02G14G25G29G12G31
  24227760.469                                                   127317578.212 6
                        37.100
  22875645.328                                    22875649.148   120212355.964 7
  93671976.42745        42.200          31.100
  22761898.328                                    22761904.668   119614595.043 6
  93206171.92943        40.500          22.300
  20189197.969                    20189207.359                   106094931.603 8
  82671467.370 8        50.800          51.000
  20863800.109                    20863806.512    20863806.332   109639997.458 8
  85433825.800 7        48.400          47.200
  21904298.992                    21904305.277    21904305.391   115107980.379 8
  89694506.184 7        49.300          45.500
  21599448.609                    21599453.898    21599453.895   113505842.680 7
  88446154.302 7        47.000          46.400
 14  1  3  1 14  0.0000000  0  7G04G02G14G25G29G12G31
  24240958.906                                                   127386938.443 6
                        37.900
  22873119.836                                    22873123.891   120199086.242 7
  93661636.39445        42.700          30.000
  22777910.180                                    22777915.934   119698735.083 6
  93271735.56343        39.200          21.800
  20191934.656                    20191943.637                   106109313.240 8
  82682673.839 8        52.000          51.000
  20852237.852                    20852243.961    20852243.898   109579239.152 8
  85386481.669 7        50.600          47.100
  21919690.000                    21919695.582    21919695.461   115188858.318 8
  89757527.941 7        48.800          45.700
  21587386.961                    21587392.777    21587392.539   113442459.815 8
  88396765.064 7        49.100          46.500
 14  1  3  1 14 30.0000000  0  7G04G02G14G25G29G12G31
  24254250.305                                                   127456785.488 6
                        37.200
  22870696.820                                    22870700.582   120186354.075 7
  93651715.21944        42.800          29.800
  22793989.563                                    22793996.078   119783236.206 6
  93337580.55943        40.900          23.000
  20194753.422                    20194762.051                   106124124.208 8
  82694214.855 8        52.300          51.100
  20840768.672                    20840775.426    20840775.539   109518967.604 8
  85339516.834 7        50.700          47.200
  21935126.188                    21935131.945    21935131.766   115269975.598 8
  89820736.201 7        49.000          45.900
  21575399.852                    21575405.961    21575405.840   113379467.885 8
  88347680.444 7        48.900          46.900
 14  1  3  1 15  0.0000000  0  7G04G02G14G25G29G12G31
  24267634.773                                                   127527118.625 6
                        37.300
  22868376.656                                    22868380.301   120174161.734 7
  93642214.71445        43.500          30.200
  22810138.656                                    22810144.703   119868097.721 6
  93403706.40043        38.300          22.600
  20197653.469                    20197662.684                   106139365.617 8
  82706091.270 8        52.800          51.400
  20829392.930                    20829399.039    20829399.152   109459185.882 8
  85292933.672 7        50.300          47.100
  21950607.508                    21950613.500    21950613.320   115351332.109 8
  89884130.888 7        48.200          45.300
  21563488.383                    21563493.906    21563493.844   113316870.635 8
  88298903.370 7        49.300          46.400
 14  1  3  1 15 30.0000000  0  7G04G02G14G25G29G12G31
  24281109.922                                                   127597933.649 5
                        35.700
  22866158.891                                    22866163.121   120162507.747 7
  93633133.68044        43.200          29.600
  22826355.523                                    22826361.277   119953314.800 6
  93470109.31943        40.800          22.600
  20200635.258                    20200644.297                   106155035.312 8
  82718301.421 8        51.800          51.500
  20818109.438                    20818115.605    20818115.484   109399893.251 8
  85246731.633 7        50.100          47.600
  21966134.227                    21966140.219    21966140.039   115432925.218 8
  89947709.934 7        48.700          45.300
  21551651.453                    21551656.684    21551656.621   113254668.109 8
  88250433.875 7        49.500          47.000
 14  1  3  1 16  0.0000000  0  7G04G02G14G25G29G12G31
  24294677.133                                                   127669228.889 5
                        35.700
  22864044.281                                    22864047.691   120151393.843 7
  93624473.50244        42.500          29.700
  22842638.086                                    22842644.719   120038885.395 6
  93536787.65943        40.800          22.200
  20203698.828                    20203707.633                   106171133.589 8
  82730845.532 8        51.900          51.400
  20806920.094                    20806926.379    20806926.316   109341091.937 8
  85200912.424 7        50.200          47.600
  21981705.680                    21981711.730    21981711.785   115514754.388 8
  90011472.913 7        48.700          45.700
  21539889.680                    21539895.906    21539895.902   113192862.940 8
  88202274.001 7        49.500          46.900
 14  1  3  1 16 30.0000000  0  7G04G02G14G25G29G12G31
  24308335.727                                                   127741003.153 5
                        35.200
  22862032.641                                    22862036.168   120140821.956 7
  93616235.67545        42.400          30.400
  22858989.266                                    22858995.078   120124808.081 6
  93603740.37143        40.900          22.200
  20206843.695                    20206852.793                   106187661.681 8
  82743724.560 8        51.800          51.300
  20795824.906                    20795831.016    20795831.070   109282784.679 8
  85155478.198 7        49.800          47.400
  21997322.242                    21997328.410    21997328.348   115596819.496 8
  90075419.738 7        48.100          45.200
  21528205.492                    21528211.250    21528211.188   113131458.905 8
  88154426.707 7        49.200          46.700
 14  1  3  1 17  0.0000000  0  7G04G02G14G25G29G12G31
  24322084.453                                                   127813253.221 5
                        34.200
  22860124.188                                    22860127.188   120130791.396 7
  93608419.65245        44.500          30.400
  22875405.555                                    22875411.895   120211078.792 6
  93670964.25943        40.500          22.600
  20210070.625                    20210079.137                   106204617.879 8
  82756937.187 8        52.200          51.200
  20784823.531                    20784829.523    20784829.637   109224971.455 8
  85110428.945 7        50.400          47.500
  22012983.242                    22012989.000    22012988.820   115679117.789 8
  90139548.264 7        49.000          44.900
  21516597.586                    21516602.465    21516602.637   113070456.519 8
  88106892.378 7        49.400          46.700
 14  1  3  1 17 30.0000000  0  7G04G02G14G25G29G12G31
  24335922.586                                                   127885975.777 5
                        34.000
  22858317.641                                    22858321.461   120121302.315 7
  93601025.56845        43.100          30.000
  22891888.523                                    22891894.219   120297694.291 6
  93738456.85443        40.400          22.300
  20213378.445                    20213387.484                   106222001.318 8
  82770482.727 8        51.800          51.000
  20773916.148                    20773922.492    20773922.195   109167652.919 8
  85065765.155 7        48.800          47.800
  22028687.836                    22028693.828    22028693.824   115761648.096 8
  90203857.568 7        48.300          45.200
  21505065.539                    21505071.238    21505071.176   113009857.124 7
  88059672.073 7        46.300          46.200
 14  1  3  1 18  0.0000000  0  7G04G02G14G25G29G12G31
  24349849.844                                                   127959170.434 5
                        33.000
  22856615.805                                    22856619.391   120112357.175 7
  93594055.32845        43.200          30.500
  22908436.156                                    22908442.555   120384653.527 6
  93806217.24243        39.700          22.600
  20216768.234                    20216776.863                   106239813.403 8
  82784362.276 8        52.000          50.900
  20763103.422                    20763109.004    20763109.117   109110832.451 8
  85021489.472 7        50.200          47.500
  22044437.234                    22044443.051    22044443.164   115844410.803 8
  90268347.964 7        48.100          45.000
  21493611.250                    21493616.832    21493617.004   112949664.511 8
  88012768.743 7        49.700          46.300
 14  1  3  1 18 30.0000000  0  7G04G02G14G25G29G12G31
  24363868.586                                                   128032833.428 5
                        32.200
  22855016.922                                    22855020.215   120103955.334 7
  93587508.44545        44.400          30.700
  22925048.484                                    22925054.941   120471952.589 6
  93874242.47143        40.800          21.700
  20220238.492                    20220247.473                   106258052.639 8
  82798574.668 8        51.800          51.200
  20752385.375                    20752392.188    20752392.008   109054509.999 8
  84977601.855 7        50.500          47.600
  22060230.336                    22060235.801    22060235.738   115927403.730 7
  90333017.770 7        47.900          45.000
  21482234.375                    21482239.781    21482239.660   112889879.472 8
  87966182.997 7        49.100          46.800
 14  1  3  1 19  0.0000000  0  7G04G02G14G25G29G12G31
  24377973.914                                                   128106961.905 5
                        33.400
  22853521.461                                    22853524.520   120096096.047 7
  93581384.33545        44.500          30.200
  22941725.266                                    22941730.551   120559587.688 6
  93942529.50543        40.100          22.500
  20223790.539                    20223799.637                   106276717.824 8
  82813118.968 8        51.800          50.800
  20741762.719                    20741768.770    20741768.883   108998685.984 8
  84934102.618 8        50.100          48.300
  22076066.711                    22076072.938    22076072.992   116010624.220 7
  90397864.895 7        47.300          44.900
  21470935.133                    21470940.773    21470940.770   112830503.425 8
  87919915.944 7        48.200          46.900
 14  1  3  1 19 30.0000000  0  7G04G02G14G25G29G12G31
  24392169.516                                                   128181555.271 5
                        32.800
  22852130.430                                    22852132.785   120088782.714 7
  93575685.63345        43.600          30.200
  22958464.953                                    22958471.586   120647558.393 6
  94011078.08943        40.800          22.600
  20227423.828                    20227432.691                   106295810.966 8
  82827996.743 8        50.800          51.100
  20731234.906                    20731241.250    20731241.188   108943363.754 8
  84890994.404 8        50.700          48.500
  22091947.008                    22091953.117    22091952.762   116094074.172 8
  90462890.803 7        48.200          45.000
  21459714.930                    21459721.156    21459720.742   112771540.240 8
  87873970.609 7        49.500          46.800
 14  1  3  1 20  0.0000000  0  7G04G02G14G25G29G12G31
  24406451.281                                                   128256609.333 5
                        34.600
  22850841.852                                    22850845.320   120082013.695 7
  93570411.07145        44.700          30.500
  22975268.461                                    22975274.977   120735859.915 6
  94079884.42943        40.300          22.500
  20231138.117                    20231147.039                   106315329.723 8
  82843206.159 8        51.700          50.700
  20720803.164                    20720809.508    20720809.445   108888542.970 8
  84848276.913 8        51.400          48.100
  22107869.805                    22107875.797    22107875.734   116177749.954 8
  90528092.697 7        48.000          44.900
  21448573.430                    21448578.953    21448579.008   112712990.124 8
  87828347.141 7        50.000          47.000
 14  1  3  1 20 30.0000000  0  7G04G02G14G25G29G12G31
  24420821.234                                                   128332120.713 5
                        34.600
  22849657.063                                    22849660.590   120075788.696 7
  93565560.42245        44.500          31.500
  22992133.992                                    22992140.039   120824488.859 6
  94148945.90043        40.700          21.800
  20234933.438                    20234942.477                   106335272.849 8
  82858746.252 8        51.500          51.200
  20710466.805                    20710472.621    20710472.617   108834224.096 8
  84805950.517 7        51.100          47.900
  22123834.898                    22123840.832    22123840.770   116261649.702 7
  90593469.129 7        47.000          44.100
  21437510.664                    21437516.012    21437515.949   112654854.498 8
  87783046.653 7        50.000          46.100
 14  1  3  1 21  0.0000000  0  7G04G02G14G25G29G12G31
  24435276.680                                                   128408086.875 5
                        35.000
  22848575.719                                    22848579.539   120070107.987 7
  93561133.90545        45.400          30.000
  23009061.492                                    23009067.305   120913442.110 6
  94218260.08343        40.900          22.500
  20238808.766                    20238818.508                   106355639.640 8
  82874616.480 8        51.800          51.500
  20700225.594                    20700232.055    20700231.875   108780407.751 8
  84764015.708 8        50.500          48.600
  22139843.219                    22139848.625    22139848.680   116345771.963 7
  90659018.940 7        47.100          45.100
  21426526.867                    21426532.508    21426532.680   112597134.526 8
  87738070.054 7        49.800          46.800
 14  1  3  1 21 30.0000000  0  7G04G02G14G25G29G12G31
  24449819.727                                                   128484506.790 5
                        34.400
  22847599.203                                    22847602.203   120064973.516 7
  93557133.03344        45.400          29.800
  23026050.266                                    23026056.488   121002718.179 6
  94287825.80243        40.800          22.600
  20242765.633                    20242774.438                   106376431.438 8
  82890817.874 8        52.200          50.800
  20690080.789                    20690087.367    20690087.363   108727096.812 8
  84722474.727 8        49.100          48.200
  22155893.477                    22155899.059    22155899.172   116430116.690 7
  90724742.094 7        47.100          44.100
  21415622.984                    21415628.391    21415628.445   112539834.251 7
  87693420.491 7        47.900          46.900
 14  1  3  1 22  0.0000000  0  7G04G02G14G25G29G12G31
  24464446.719                                                   128561377.481 5
                        35.200
  22846725.961                                    22846729.664   120060385.106 7
  93553557.64145        45.300          31.800
  23043099.883                                    23043105.871   121092313.917 6
  94357640.62643        40.700          22.900
  20246802.984                    20246811.438                   106397647.325 8
  82907349.734 8        51.800          51.200
  20680032.023                    20680038.895    20680038.891   108674292.127 8
  84681328.225 7        50.700          47.900
  22171985.969                    22171991.785    22171991.781   116514682.970 7
  90790637.899 7        47.200          44.100
  21404799.305                    21404804.945    21404805.000   112482955.105 8
  87649099.073 7        50.300          46.700
 14  1  3  1 22 30.0000000  0  7G04G02G14G25G29G12G31
  24479160.828                                                   128638697.381 5
                        35.000
  22845957.289                                    22845960.523   120056344.084 7
  93550408.79645        45.000          30.900
  23060209.734                                    23060215.840   121182227.304 6
  94427702.94343        40.400          22.000
  20250920.680                    20250930.070                   106419287.805 8
  82924212.436 8        51.800          51.500
  20670080.906                    20670087.250    20670087.129   108621995.446 8
  84640577.565 8        51.000          48.500
  22188120.516                    22188125.980    22188125.918   116599470.224 7
  90856705.881 7        46.300          44.200
  21394056.266                    21394062.082    21394062.137   112426499.683 8
  87605107.836 7        49.800          47.000
 14  1  3  1 23  0.0000000  0  7G04G02G14G25G29G12G31
  24493959.383                                                   128716461.571 5
                        34.900
  22845292.008                                    22845295.184   120052848.624 7
  93547685.06745        45.500          30.500
  23077379.102                                    23077384.738   121272452.964 6
  94498008.61743        40.600          22.600
  20255119.281                    20255127.969                   106441350.092 8
  82941403.829 8        52.100          51.000
  20660225.336                    20660231.680    20660231.676   108570205.750 8
  84600221.968 8        50.800          48.800
  22204296.211                    22204301.852    22204301.730   116684474.755 7
  90922943.161 7        46.000          44.100
  21383393.625                    21383399.383    21383399.320   112370467.704 8
  87561446.552 7        50.000          46.900
 14  1  3  1 23 30.0000000  0  7G04G02G14G25G29G12G31
  24508841.930                                                   128794670.257 5
                        34.900
  22844731.391                                    22844734.508   120049901.923 7
  93545388.93045        45.100          30.300
  23094606.953                                    23094613.645   121362990.740 6
  94568557.51143        41.100          22.500
  20259398.391                    20259407.605                   106463836.525 8
  82958925.727 8        52.000          51.100
  20650467.320                    20650474.133    20650474.012   108518926.894 8
  84560264.422 8        51.100          48.100
  22220514.047                    22220519.512    22220519.449   116769698.174 7
  90989351.010 7        46.800          43.800
  21372812.906                    21372818.195    21372818.191   112314863.780 8
  87518118.826 7        50.300          47.000
 14  1  3  1 24  0.0000000  0  7G04G02G14G25G29G12G31
  24523807.992                                                   128873319.275 5
                        33.800
  22844274.633                                    22844277.926   120047502.314 7
  93543519.10645        45.000          31.600
  23111895.383                                    23111900.961   121453836.703 6
  94639346.54743        40.800          22.000
  20263757.383                    20263766.480                   106486744.914 8
  82976776.415 8        51.700          50.900
  20640806.242                    20640812.879    20640812.875   108468158.066 8
  84520704.302 7        51.000          47.900
  22236772.461                    22236778.160    22236778.098   116855137.866 7
  91055927.368 7        46.100          44.300
  21362313.141                    21362318.781    21362318.777   112259688.182 8
  87475124.852 7        50.600          47.000
 14  1  3  1 24 30.0000000  0  7G04G02G14G25G29G12G31
  24538859.305                                                   128952406.510 5
                        32.400
  22843921.961                                    22843926.016   120045650.830 7
  93542076.38845        44.300          31.000
  23129240.789                                    23129247.422   121544987.865 6
  94710373.35743        40.500          22.200
  20268197.063                    20268206.160                   106510075.354 8
  82994955.979 8        51.600          50.500
  20631242.609                    20631249.363    20631249.066   108417901.153 8
  84481543.080 8        50.700          48.000
  22253071.930                    22253077.980    22253077.918   116940792.708 7
  91122671.404 7        45.900          43.200
  21351895.414                    21351901.113    21351901.168   112204943.166 8
  87432466.394 7        50.200          47.300
 14  1  3  1 25  0.0000000  0  7G04G02G14G25G29G12G31
  24553990.859                                                   129031927.394 5
                        31.200
  22843674.188                                    22843677.598   120044345.618 7
  93541059.34645        44.900          31.400
  23146643.500                                    23146649.547   121636439.380 6
  94781634.23143        41.000          22.300
  20272716.797                    20272726.012                   106533825.388 8
  83013462.504 8        51.500          51.000
  20621776.586                    20621782.285    20621782.457   108368155.185 8
  84442779.994 8        51.000          48.600
  22269411.617                    22269417.844    22269417.723   117026659.742 7
  91189580.756 7        45.600          44.500
  21341560.055                    21341565.461    21341565.398   112150628.533 8
  87390143.301 7        50.400          47.200
 14  1  3  1 25 30.0000000  0  7G04G02G14G25G29G12G31
  24569204.992                                                   129111881.687 5
                        31.900
  22843529.703                                    22843533.641   120043589.355 7
  93540470.05045        44.600          31.100
  23164102.758                                    23164109.508   121728190.843 6
  94853128.84343        41.100          22.000
  20277316.227                    20277325.441                   106557996.943 8
  83032297.481 8        50.600          51.200
  20612407.797                    20612414.258    20612414.137   108318923.314 8
  84404417.504 8        50.500          48.500
  22285792.398                    22285797.863    22285798.152   117112740.088 7
  91256656.344 7        45.500          43.700
  21331306.844                    21331312.367    21331312.246   112096748.848 8
  87348159.135 7        49.900          47.200
 14  1  3  1 26  0.0000000  0  7G04G02G14G25G29G12G31
  24584502.617                                                   129192264.567 5
                        30.800
  22843490.063                                    22843492.945   120043379.817 7
  93540306.76545        45.300          30.700
  23181619.125                                    23181624.938   121820236.862 6
  94924852.94243        41.100          21.300
  20281995.930                    20282004.559                   106582587.352 8
  83051458.838 8        51.000          51.100
  20603136.586                    20603143.223    20603142.867   108270204.495 8
  84366454.799 8        50.700          48.300
  22302212.883                    22302218.816    22302218.695   117199030.508 7
  91323895.625 7        45.900          44.100
  21321136.484                    21321142.242    21321142.004   112043303.773 8
  87306513.625 7        50.200          47.000
 14  1  3  1 26 30.0000000  0  7G04G02G14G25G29G12G31
  24599880.727                                                   129273077.573 5
                        31.200
  22843555.398                                    22843558.809   120043721.701 7
  93540573.17945        45.200          30.800
  23199190.594                                    23199197.695   121912579.023 6
  94996807.78943        41.300          22.500
  20286755.125                    20286764.398                   106607600.238 8
  83070949.400 8        51.400          50.500
  20593964.883                    20593971.168    20593971.281   108222003.929 8
  84328895.920 7        51.100          47.500
  22318673.852                    22318679.727    22318679.371   117285533.614 7
  91391300.641 7        46.000          44.400
  21311050.000                    21311056.109    21311055.988   111990299.162 8
  87265211.323 7        50.500          47.200
 14  1  3  1 27  0.0000000  0  7G04G02G14G25G29G12G31
  24615339.477                                                   129354316.772 4
                        28.600
  22843724.477                                    22843728.414   120044613.390 7
  93541267.99645        45.000          30.900
  23216819.070                                    23216824.414   122005212.738 6
  95068989.82443        41.000          20.600
  20291595.563                    20291604.426                   106633033.660 8
  83090767.653 8        51.500          50.900
  20584891.125                    20584897.352    20584897.172   108174320.976 8
  84291740.369 8        51.300          48.400
  22335174.273                    22335180.500    22335180.555   117372246.572 7
  91458869.162 7        45.600          43.900
  21301047.477                    21301052.883    21301052.820   111937735.512 8
  87224252.636 7        50.700          46.800
 14  1  3  1 27 30.0000000  0  7G04G02G14G25G29G12G31
  24630880.305                                                   129435977.180 4
                        29.400
  22843998.148                                    22844002.086   120046053.138 7
  93542389.87545        45.000          30.400
  23234500.852                                    23234507.016   122098133.336 6
  95141395.39943        40.600          21.800
  20296514.625                    20296523.957                   106658884.899 8
  83110911.479 8        52.000          51.200
  20575915.227                    20575922.156    20575922.211   108127154.447 8
  84254987.235 8        50.800          48.800
  22351715.000                    22351721.402    22351721.457   117459166.568 7
  91526599.024 7        47.000          43.700
  21291128.547                    21291134.715    21291134.652   111885612.256 8
  87183637.114 7        49.900          47.100
 14  1  3  1 28  0.0000000  0  7G04G02G14G25G29G12G31
  24646498.711                                                   129518056.241 4
                        28.600
  22844375.984                                    22844380.508   120048041.043 7
  93543938.89444        45.000          29.900
  23252237.617                                    23252243.840   122191337.428 6
  95214021.88443        40.900          21.500
  20301513.211                    20301522.426                   106685153.518 8
  83131380.531 8        52.400          50.300
  20567038.539                    20567045.234    20567045.055   108080505.366 8
  84218637.311 8        50.900          48.800
  22368294.367                    22368301.297    22368301.117   117546292.088 7
  91594489.027 7        46.400          44.300
  21281294.602                    21281300.008    21281300.180   111833931.338 8
  87143366.271 7        50.700          47.200
 14  1  3  1 28 30.0000000  0  7G04G02G14G25G29G12G31
  24662197.594                                                   129600551.429 4
                        28.300
  22844859.703                                    22844863.113   120050577.512 7
  93545915.36144        45.200          29.700
  23270026.398                                    23270033.266   122284822.438 6
  95286867.29243        40.600          20.900
  20306591.773                    20306600.168                   106711839.287 8
  83152174.643 8        52.300          50.700
  20558260.203                    20558266.078    20558266.191   108034375.020 8
  84182691.590 8        51.400          48.600
  22384912.578                    22384918.980    22384918.859   117633622.264 7
  91662538.504 7        46.200          43.900
  21271544.781                    21271549.836    21271549.715   111782694.878 8
  87103441.752 7        51.000          47.400
 14  1  3  1 29  0.0000000  0  7G04G02G14G25G29G12G31
  24677974.383                                                   129683462.074 4
                        29.600
  22845447.086                                    22845451.023   120053664.382 7
  93548320.71945        45.700          30.500
  23287869.594                                    23287876.695   122378587.034 6
  95359930.53043        41.100          21.100
  20311749.078                    20311757.824                   106738943.533 8
  83173294.836 8        51.600          50.700
  20549580.758                    20549587.219    20549587.156   107988765.553 8
  84147151.746 8        50.900          48.100
  22401570.789                    22401576.020    22401576.074   117721157.972 7
  91730748.139 7        46.400          43.800
  21261879.531                    21261884.938    21261884.992   111731906.640 8
  87063866.502 7        50.000          47.500
 14  1  3  1 29 30.0000000  0  7G04G02G14G25G29G12G31
  24693828.391                                                   129766781.87714
                        28.000
  22846138.813                                    22846141.871   120057298.120 7
  93551152.20644        45.100          29.900
  23305765.375                                    23305771.656   122472624.974 6
  95433206.77743        40.800          20.600
  20316985.734                    20316994.715                   106766462.122 8
  83194737.891 8        52.400          50.600
  20541000.266                    20541007.078    20541007.016   107943675.234 8
  84112016.435 8        51.500          48.300
  22418265.453                    22418271.973    22418271.969   117808894.224 7
  91799114.056 7        46.300          44.200
  21252299.773                    21252305.297    21252305.469   111681564.743 8
  87024639.050 7        50.000          47.700
 14  1  3  1 30  0.0000000  0  7G04G02G14G25G29G12G31
  24709762.820                                                   129850512.773 4
                        26.800
  22846934.344                                    22846938.457   120061483.621 7
  93554413.64845        45.500          30.200
  23323711.414                                    23323718.516   122566937.955 6
  95506697.32243        40.800          21.500
  20322302.117                    20322311.449                   106794399.360 8
  83216507.169 8        52.900          51.100
  20532519.742                    20532526.086    20532525.965   107899109.401 8
  84077289.820 8        52.200          48.700
  22435000.688                    22435006.211    22435006.148   117896834.282 7
  91867638.765 7        46.100          43.900
  21242806.242                    21242811.824    21242811.527   111631675.822 8
  86985764.570 7        50.700          47.500
 14  1  3  1 30 30.0000000  0  7G04G02G14G25G29G12G31
  24725772.523                                                   129934647.538 4
                        26.400
  22847835.594                                    22847838.711   120066215.820 7
  93558101.06744        45.400          29.800
  23341710.188                                    23341716.879   122661518.453 6
  95580396.32443        40.800          21.100
  20327697.031                    20327706.070                   106822749.759 8
  83238598.384 8        52.900          50.900
  20524138.539                    20524144.941    20524144.938   107855063.786 8
  84042968.566 8        51.200          48.200
  22451772.961                    22451778.895    22451778.949   117984972.330 7
  91936317.744 7        45.800          43.900
  21233398.719                    21233404.418    21233404.355   111582237.022 8
  86947240.831 7        49.900          47.200
 14  1  3  1 31  0.0000000  0  7G04G02G14G25G29G12G31
  24741860.117                                                   130019185.51214
                        26.400
  22848840.906                                    22848843.262   120071497.390 7
  93562216.58044        45.700          29.400
  23359759.406                                    23359765.277   122756365.625 6
  95654303.13843        41.000          21.700
  20333170.977                    20333180.250                   106851515.095 8
  83261012.928 8        52.600          50.500
  20515856.414                    20515862.699    20515862.578   107811540.936 8
  84009054.655 8        51.900          48.900
  22468582.906                    22468589.016    22468588.660   118073309.724 7
  92005152.067 7        45.900          43.000
  21224076.695                    21224082.336    21224082.391   111533252.019 8
  86909070.701 7        50.200          47.400
 14  1  3  1 31 30.0000000  0  6G02G14G25G29G12G31
  22849949.828                                    22849953.004   120077327.298 7
  93566759.37445        45.900          30.500
  23377858.180                                    23377864.461   122851475.529 6
  95728414.71443        41.100          21.100
  20338723.789                    20338732.066                   106880694.019 8
  83283749.750 8        52.100          50.500
  20507673.914                    20507680.316    20507680.371   107768542.060 8
  83975549.046 8        51.800          48.800
  22485429.805                    22485436.441    22485436.379   118161844.407 7
  92074140.122 7        45.500          44.100
  21214841.844                    21214847.426    21214847.363   111484721.774 8
  86871254.923 7        50.100          47.800
 14  1  3  1 32  0.0000000  0  6G02G14G25G29G12G31
  22851163.922                                    22851167.215   120083707.577 7
  93571731.02044        45.500          29.900
  23396006.273                                    23396013.316   122946847.418 6
  95802730.38443        41.000          20.400
  20344355.203                    20344363.891                   106910288.158 8
  83306810.119 8        51.700          50.700
  20499591.328                    20499598.023    20499597.844   107726069.541 8
  83942453.584 8        51.700          49.000
  22502315.758                    22502321.340    22502321.395   118250577.108 7
  92143282.476 7        45.300          44.300
  21205693.938                    21205699.754    21205699.516   111436650.286 8
  86833796.625 7        50.400          47.600
 14  1  3  1 32 30.0000000  0  6G02G14G25G29G12G31
  22852482.664                                    22852486.074   120090637.398 7
  93577130.88745        45.400          30.400
  23414204.648                                    23414211.223   123042477.457 6
  95877247.21443        40.800          21.500
  20350065.383                    20350073.836                   106940295.945 8
  83330192.811 8        51.800          50.800
  20491609.344                    20491615.805    20491615.684   107684123.339 8
  83909768.227 8        50.900          49.100
  22519238.344                    22519244.453    22519244.566   118339505.970 7
  92212577.693 7        45.000          43.500
  21196633.766                    21196639.348    21196639.285   111389038.381 8
  86796696.442 7        49.600          47.800
 14  1  3  1 33  0.0000000  0  6G02G14G25G29G12G31
  22853906.141                                    22853909.551   120098116.369 7
  93582958.66845        46.300          30.600
  23432451.016                                    23432457.414   123138362.129 6
  95951962.44043        40.000          21.100
  20355854.188                    20355863.344                   106970716.421 8
  83353897.079 8        51.400          50.800
  20483727.563                    20483734.316    20483734.020   107642703.700 8
  83877493.199 8        51.500          49.300
  22536197.898                    22536203.891    22536203.770   118428629.189 7
  92282024.348 7        45.400          43.900
  21187661.633                    21187667.215    21187667.270   111341887.316 8
  86759955.356 7        49.600          47.200
 14  1  3  1 33 30.0000000  0  6G02G14G25G29G12G31
  22855433.672                                    22855436.262   120106142.574 7
  93589212.86145        45.600          30.600
  23450744.625                                    23450751.375   123234496.597 6
  96026872.34043        39.900          20.100
  20361721.102                    20361730.316                   107001547.141 8
  83377921.018 8        51.400          50.800
  20475945.352                    20475951.754    20475951.457   107601809.342 8
  83845627.441 8        51.100          49.100
  22553193.289                    22553199.926    22553199.980   118517943.715 7
  92351620.089 7        44.900          43.800
  21178776.156                    21178782.148    21178782.262   111295197.339 8
  86723573.554 7        49.700          47.200
 14  1  3  1 34  0.0000000  0  6G02G14G25G29G12G31
  22857065.172                                    22857068.875   120114718.906 7
  93595895.73045        45.600          30.200
  23469086.328                                    23469093.078   123330881.750 6
  96101977.61343        39.600          20.100
  20367666.594                    20367675.516                   107032791.321 8
  83402267.132 8        51.200          51.100
  20468264.453                    20468271.031    20468271.027   107561445.249 8
  83814174.920 8        51.700          48.900
  22570226.727                    22570232.660    22570232.773   118607452.023 7
  92421366.821 7        44.700          43.600
  21169980.563                    21169985.910    21169986.023   111248973.655 8
  86687555.102 7        50.000          47.100
 14  1  3  1 34 30.0000000  0  6G02G14G25G29G12G31
  22858801.469                                    22858804.879   120123841.893 7
  93603004.55445        45.600          30.100
  23487474.430                                    23487480.711   123427511.006 6
  96177273.03043        40.400          19.900
  20373689.992                    20373699.090                   107064444.708 8
  83426932.107 8        51.300          51.500
  20460683.555                    20460689.840    20460689.719   107521608.157 8
  83783133.060 8        51.500          49.800
  22587295.727                    22587301.660    22587301.656   118697149.459 7
  92491260.915 7        45.300          43.100
  21161272.930                    21161278.395    21161278.332   111203214.277 8
  86651898.443 7        49.800          47.200
 14  1  3  1 35  0.0000000  0  6G02G14G25G29G12G31
  22860641.719                                    22860645.246   120133514.282 7
  93610541.48045        45.300          30.000
  23505908.469                                    23505914.691   123524383.856 6
  96252758.29843        39.600          19.000
  20379791.664                    20379800.469                   107096509.319 8
  83451917.515 8        51.300          50.300
  20453204.141                    20453209.781    20453209.836   107482301.467 8
  83752504.483 8        51.600          49.000
  22604400.266                    22604406.375    22604406.605   118787037.586 7
  92561303.616 7        44.600          43.800
  21152653.914                    21152659.555    21152659.434   111157923.535 8
  86616606.956 7        50.200          47.300
 14  1  3  1 35 30.0000000  0  6G02G14G25G29G12G31
  22862586.953                                    22862589.836   120143734.379 7
  93618505.19744        45.100          29.900
  23524387.867                                    23524394.617   123621495.643 6
  96328429.72943        39.600          19.000
  20385971.375                    20385980.238                   107128982.946 8
  83477221.642 8        51.800          50.800
  20445824.625                    20445831.086    20445830.906   107443523.535 8
  83722287.920 8        51.300          49.300
  22621541.398                    22621546.746    22621546.684   118877113.445 7
  92631492.585 7        45.900          44.300
  21144124.891                    21144130.590    21144130.352   111113101.387 8
  86581680.614 7        50.400          47.700
 14  1  3  1 36  0.0000000  0  6G02G14G25G29G12G31
  22864635.570                                    22864639.332   120154502.840 7
  93626896.22145        44.700          30.200
  23542913.398                                    23542919.797   123718844.445 6
  96404285.81443        39.400          19.900
  20392228.813                    20392237.500                   107161866.173 8
  83502844.933 8        51.500          50.300
  20438546.727                    20438553.246    20438553.008   107405276.982 8
  83692485.421 8        50.900          49.500
  22638718.398                    22638724.039    22638724.152   118967376.979 7
  92701827.794 7        45.400          43.700
  21135685.023                    21135690.781    21135690.836   111068750.797 8
  86547121.707 7        50.200          47.100
 14  1  3  1 36 30.0000000  0  6G02G14G25G29G12G31
  22866788.781                                    22866792.133   120165817.509 7
  93635712.85445        45.300          30.300
  23561482.172                                    23561489.215   123816425.705 6
  96480323.08143        39.400          19.300
  20398563.672                    20398572.301                   107195156.449 8
  83528785.407 8        51.400          50.700
  20431369.508                    20431375.910    20431375.965   107367560.823 8
  83663096.210 8        51.000          49.900
  22655929.656                    22655936.059    22655936.055   119057825.044 7
  92772306.783 7        45.400          43.800
  21127335.211                    21127340.793    21127340.848   111024871.556 8
  86512930.091 7        50.500          47.800
 14  1  3  1 37  0.0000000  0  6G02G14G25G29G12G31
  22869046.063                                    22869049.883   120177680.176 7
  93644956.48744        45.100          29.900
  23580095.578                                    23580102.621   123914237.890 6
  96556540.22843        39.600          18.300
  20404976.242                    20404984.988                   107228854.916 8
  83555043.954 8        51.400          50.200
  20424293.680                    20424300.141    20424300.254   107330376.833 8
  83634121.676 8        51.100          49.100
  22673176.977                    22673182.969    22673182.965   119148458.357 7
  92842930.125 7        44.600          43.800
  21119075.461                    21119081.277    21119081.273   110981467.218 8
  86479108.529 7        50.500          47.500
 14  1  3  1 37 30.0000000  0  6G02G14G25G29G12G31
  22871407.508                                    22871410.801   120190089.315 7
  93654625.95345        45.000          30.700
  23598751.711                                    23598758.871   124012277.000 6
  96632934.20543        39.100          18.600
  20411466.438                    20411475.359                   107262960.012 8
  83581619.348 8        51.600          50.500
  20417319.164                    20417325.566    20417325.387   107293724.813 8
  83605561.653 8        50.900          49.400
  22690459.297                    22690465.055    22690464.934   119239274.829 7
  92913696.175 7        46.200          43.600
  21110906.625                    21110912.148    21110912.262   110938538.396 8
  86445657.496 8        50.500          48.000
 14  1  3  1 38  0.0000000  0  6G02G14G25G29G12G31
  22873873.555                                    22873876.965   120203047.250 7
  93664723.04945        45.200          30.800
  23617451.617                                    23617457.723   124110542.944 6
  96709504.96343        38.700          19.000
  20418034.141                    20418042.594                   107297473.683 8
  83608513.112 8        52.100          50.400
  20410446.195                    20410452.422    20410452.359   107257607.582 8
  83577418.362 8        51.300          49.300
  22707775.461                    22707781.746    22707781.625   119330275.811 7
  92984606.013 7        45.100          43.700
  21102828.625                    21102834.148    21102834.086   110896089.201 8
  86412580.200 7        50.900          47.900
 14  1  3  1 38 30.0000000  0  6G02G14G25G29G12G31
  22876443.023                                    22876446.082   120216548.952 7
  93675243.87145        44.800          30.300
  23636192.297                                    23636199.164   124209027.801 6
  96786246.31043        38.800          18.600
  20424678.609                    20424687.180                   107332390.568 8
  83635721.078 8        52.000          50.300
  20403674.320                    20403680.605    20403680.719   107222021.686 8
  83549689.096 8        50.800          49.800
  22725126.539                    22725132.648    22725132.645   119421455.585 7
  93055655.176 7        45.900          44.000
  21094841.883                    21094847.055    21094847.344   110854116.618 8
  86379874.296 7        50.900          47.500
 14  1  3  1 39  0.0000000  0  6G02G14G25G29G12G31
  22879115.813                                    22879119.105   120230597.288 7
  93686190.62445        44.800          30.600
  23654974.922                                    23654982.082   124307731.618 6
  96863158.26643        38.800          18.600
  20431400.289                    20431408.742                   107367713.155 8
  83663245.162 8        51.000          50.400
  20397004.375                    20397010.602    20397010.598   107186970.454 8
  83522376.450 8        51.300          49.300
  22742511.742                    22742517.793    22742517.789   119512815.741 7
  93126844.903 7        45.300          43.700
  21086946.016                    21086951.305    21086951.359   110812625.297 8
  86347543.394 7        50.800          47.900
 14  1  3  1 39 30.0000000  0  6G02G14G25G29G12G31
  22881893.359                                    22881896.359   120245191.896 7
  93697563.05245        44.100          30.800
  23673799.078                                    23673805.594   124406651.564 6
  96940238.67643        38.000          18.600
  20438199.141                    20438207.711                   107403440.842 8
  83691084.917 8        51.900          50.500
  20390436.508                    20390442.266    20390442.379   107152454.426 8
  83495480.848 8        51.700          49.700
  22759931.195                    22759937.246    22759937.008   119604355.389 7
  93198174.490 7        45.800          43.900
  21079142.266                    21079147.730    21079147.609   110771616.917 8
  86315588.810 7        51.000          47.900
 14  1  3  1 40  0.0000000  0  6G02G14G25G29G12G31
  22884774.281                                    22884777.691   120260331.487 7
  93709360.13744        43.900          29.400
  23692663.648                                    23692670.750   124505783.642 6
  97017484.41843        37.100          18.600
  20445074.852                    20445083.832                   107439572.079 8
  83719239.124 8        51.300          50.400
  20383969.563                    20383976.023    20383976.020   107118473.390 8
  83469002.121 8        51.500          49.100
  22777384.867                    22777390.273    22777390.387   119696072.427 7
  93269642.300 7        45.500          43.800
  21071430.938                    21071436.754    21071436.574   110731092.372 8
  86284011.247 7        50.500          47.800
 14  1  3  1 40 30.0000000  0  6G02G14G25G29G12G31
  22887758.773                                    22887762.770   120276015.881 7
  93721581.73845        44.500          30.200
  23711568.227                                    23711575.035   124605125.363 6
  97094893.48242        36.300          17.400
  20452026.859                    20452035.547                   107476106.547 8
  83747707.540 8        51.700          50.600
  20377605.414                    20377611.523    20377611.637   107085027.939 8
  83442940.742 8        51.500          49.300
  22794871.477                    22794877.117    22794877.055   119787966.129 7
  93341247.762 7        45.500          43.300
  21063811.664                    21063817.422    21063817.359   110691053.283 8
  86252811.955 8        50.800          48.100
 14  1  3  1 41  0.0000000  0  6G02G14G25G29G12G31
  22890846.992                                    22890851.398   120292245.005 7
  93734227.81045        45.000          30.000
  23730510.422                                    23730518.227   124704673.592 6
  97172463.47142        37.700          17.400
  20459055.750                    20459064.496                   107513043.809 8
  83776489.821 8        51.700          50.700
  20371342.875                    20371348.867    20371348.805   107052118.797 8
  83417297.260 8        51.400          49.600
  22812391.359                    22812397.234    22812397.289   119880035.466 7
  93412990.097 7        45.200          43.900
  21056285.219                    21056290.918    21056290.797   110651501.629 8
  86221992.481 8        50.800          48.100
 14  1  3  1 41 30.0000000  0  6G02G14G25G29G12G31
  22894038.664                                    22894042.719   120309018.632 7
  93747298.16645        44.500          30.200
  23749492.695                                    23749499.738   124804425.574 6
  97250192.18143        37.900          18.300
  20466161.219                    20466170.375                   107550383.277 8
  83805585.511 8        51.700          50.500
  20365182.406                    20365188.867    20365188.746   107019746.558 8
  83392072.138 8        51.800          49.900
  22829945.094                    22829951.203    22829950.789   119972279.205 7
  93484868.313 7        45.400          43.500
  21048851.852                    21048857.727    21048857.781   110612438.957 8
  86191554.039 7        50.400          47.900
 14  1  3  1 42  0.0000000  0  6G02G14G25G29G12G31
  22897334.391                                    22897338.387   120326336.222 7
  93760792.38745        43.800          30.600
  23768513.727                                    23768520.477   124904378.187 6
  97328077.24442        38.900          17.400
  20473343.102                    20473352.434                   107588124.309 8
  83834994.102 8        51.600          50.700
  20359124.578                    20359131.625    20359131.328   106987911.786 8
  83367265.820 8        51.600          50.200
  22847531.531                    22847537.758    22847537.871   120064696.219 7
  93556881.560 7        44.600          43.600
  21041512.117                    21041517.641    21041517.754   110573867.064 8
  86161498.024 7        51.000          47.800
 14  1  3  1 42 30.0000000  0  6G02G14G25G29G12G31
  22900733.313                                    22900736.898   120344196.387 7
  93774709.39945        44.900          30.400
  23787571.805                                    23787578.613   125004527.823 6
  97406115.83242        37.800          17.400
  20480601.094                    20480609.605                   107626265.320 8
  83864714.366 8        51.200          50.500
  20353168.766                    20353175.168    20353175.047   106956613.991 8
  83342877.934 8        51.200          49.900
  22865150.758                    22865156.633    22865156.512   120157285.081 7
  93629028.728 7        43.900          43.900
  21034265.367                    21034271.418    21034271.473   110535786.421 8
  86131824.789 7        51.000          47.400
 14  1  3  1 43  0.0000000  0  6G02G14G25G29G12G31
  22904235.391                                    22904238.684   120362599.696 7
  93789049.64045        45.000          30.700
  23806667.219                                    23806673.676   125104872.160 6
  97484306.13342        37.400          17.400
  20487935.555                    20487944.125                   107664806.813 8
  83894746.684 8        51.400          50.700
  20347315.797                    20347321.730    20347321.785   106925854.381 8
  83318909.405 8        51.800          49.900
  22882801.609                    22882807.660    22882808.008   120250045.382 7
  93701309.471 7        44.600          43.500
  21027112.859                    21027118.676    21027118.730   110498199.785 8
  86102536.499 8        50.200          48.000
 14  1  3  1 43 30.0000000  0  6G02G14G25G29G12G31
  22907840.164                                    22907843.691   120381543.975 7
  93803811.41145        44.600          30.900
  23825796.938                                    23825804.684   125205406.808 6
  97562644.71242        37.600          17.400
  20495345.297                    20495353.691                   107703746.306 8
  83925089.132 8        51.100          50.500
  20341564.492                    20341571.070    20341570.949   106895632.106 8
  83295359.584 8        51.400          49.300
  22900485.883                    22900491.992    22900491.637   120342973.994 7
  93773721.350 7        43.900          43.700
  21020054.547                    21020059.719    21020059.539   110461106.653 8
  86073632.766 7        50.700          47.700
 14  1  3  1 44  0.0000000  0  6G02G14G25G29G12G31
  22911548.711                                    22911551.945   120401030.599 7
  93818995.79245        45.000          30.900
  23844965.469                                    23844972.453   125306130.497 6
  97641130.59442        37.700          17.400
  20502831.391                    20502840.547                   107743085.101 8
  83955742.728 8        51.400          50.700
  20335916.539                    20335922.766    20335922.527   106865949.719 8
  83272230.451 8        51.000          49.800
  22918201.539                    22918208.176    22918208.289   120436071.756 7
  93846265.048 7        43.900          43.500
  21013090.438                    21013095.434    21013095.488   110424510.634 8
  86045116.386 8        50.400          48.200
 14  1  3  1 44 30.0000000  0  6G02G14G25G29G12G31
  22915359.266                                    22915363.086   120421056.363 7
  93834600.28045        45.400          30.400
  23864166.555                                    23864174.242   125407037.764 6
  97719759.52942        38.200          16.900
  20510392.680                    20510401.426                   107782819.967 8
  83986704.955 8        52.200          50.400
  20330369.641                    20330376.746    20330376.684   106836804.591 8
  83249519.972 8        50.600          49.700
  22935949.422                    22935955.180    22935955.059   120529335.220 7
  93918937.868 7        42.800          43.200
  21006220.773                    21006226.180    21006226.117   110388410.747 8
  86016986.607 7        50.900          47.800
 14  1  3  1 45  0.0000000  0  6G02G14G25G29G12G31
  22919273.055                                    22919276.348   120441622.811 7
  93850626.08745        45.300          30.800
  23883403.500                                    23883410.836   125508127.244 6
  97798530.50242        37.300          16.300
  20518029.133                    20518038.406                   107822951.669 8
  84017976.397 8        51.800          50.000
  20324926.242                    20324932.234    20324932.289   106808198.330 8
  83227229.386 8        51.300          49.800
  22953728.297                    22953734.641    22953734.344   120622764.317 7
  93991739.732 7        43.800          43.500
  20999446.367                    20999451.598    20999451.652   110352809.957 8
  85989245.728 7        49.600          47.700
 14  1  3  1 45 30.0000000  0  6G02G14G25G29G12G31
  22923289.664                                    22923293.074   120462730.191 7
  93867073.38845        45.100          30.100
  23902675.461                                    23902682.680   125609397.502 6
  97877442.22142        38.000          16.900
  20525742.078                    20525751.000                   107863481.361 8
  84049557.974 8        52.000          51.000
  20319585.742                    20319591.969    20319591.965   106780133.423 8
  83205360.626 8        50.400          50.300
  22971538.875                    22971545.102    22971545.039   120716360.364 7
  94064671.684 7        44.600          43.200
  20992767.195                    20992772.602    20992772.656   110317711.606 8
  85961896.366 7        50.500          47.800
 14  1  3  1 46  0.0000000  0  6G02G14G25G29G12G31
  22927408.938                                    22927411.820   120484375.852 7
  93883940.14245        45.600          30.700
  23921979.141                                    23921986.711   125710843.101 6
  97956490.61142        38.600          16.900
  20533529.695                    20533538.969                   107904405.854 8
  84081447.191 8        51.600          51.000
  20314347.945                    20314354.113    20314354.051   106752607.620 8
  83183911.951 8        51.400          50.000
  22989380.789                    22989387.250    22989386.895   120810119.476 7
  94137730.727 7        44.300          43.000
  20986183.484                    20986189.242    20986189.180   110283114.461 8
  85934937.548 7        50.900          47.800
 14  1  3  1 46 30.0000000  0  6G02G14G25G29G12G31
  22931630.148                                    22931633.676   120506559.508 7
  93901226.11245        45.100          30.900
  23941316.977                                    23941324.313   125812461.483 6
  98035673.65642        38.700          16.900
  20541392.453                    20541401.023                   107945724.719 8
  84113643.704 8        51.400          50.200
  20309212.844                    20309219.422    20309219.359   106725621.694 8
  83162883.965 8        51.600          49.800
  23007253.641                    23007259.223    23007259.219   120904040.924 7
  94210916.263 7        44.900          42.000
  20979695.516                    20979701.332    20979701.152   110249020.435 8
  85908370.777 8        49.600          48.000
 14  1  3  1 47  0.0000000  0  6G02G14G25G29G12G31
  22935954.367                                    22935957.484   120529282.923 7
  93918932.67145        45.200          31.100
  23960688.648                                    23960694.344   125914251.739 6
  98114990.63342        38.300          16.900
  20549330.375                    20549339.590                   107987439.633 8
  84146148.826 8        51.800          49.900
  20304180.391                    20304187.027    20304186.906   106699178.093 8
  83142278.572 8        51.000          50.000
  23025157.688                    23025162.742    23025162.504   120998126.023 7
  94284229.316 6        44.700          41.600
  20973304.125                    20973309.766    20973309.645   110215433.413 8
  85882199.071 7        50.200          47.400
 14  1  3  1 47 30.0000000  0  6G02G14G25G29G12G31
  22940379.883                                    22940383.117   120552539.763 7
  93937054.88345        44.900          30.700
  23980088.688                                    23980095.965   126016205.577 6
  98194435.10842        38.000          16.900
  20557342.383                    20557351.891                   108029544.315 8
  84178957.666 8        51.900          50.200
  20299250.672                    20299257.133    20299257.070   106673271.536 8
  83122091.645 8        52.000          49.900
  23043090.680                    23043096.027    23043095.965   121092367.772 7
  94357664.428 7        45.100          42.000
  20967008.461                    20967013.984    20967013.805   110182349.258 8
  85856419.211 8        50.500          48.100
 14  1  3  1 48  0.0000000  0  6G02G14G25G29G12G31
  22944907.938                                    22944911.582   120576335.860 7
  93955597.30045        45.200          30.300
  23999521.102                                    23999528.262   126118326.396 6
  98274009.71742        38.400          17.800
  20565429.836                    20565439.578                   108072044.528 8
  84212074.713 8        51.200          49.800
  20294424.086                    20294430.664    20294430.484   106647909.009 8
  83102328.640 8        50.900          49.700
  23061055.242                    23061060.473    23061060.527   121186771.578 7
  94431225.840 6        45.000          41.800
  20960809.820                    20960815.520    20960815.633   110149775.801 8
  85831037.298 7        49.800          47.800
 14  1  3  1 48 30.0000000  0  6G02G14G25G29G12G31
  22949538.469                                    22949541.410   120600667.509 7
  93974557.02645        45.100          30.600
  24018985.656                                    24018991.469   126220607.765 6
  98353709.40742        38.100          16.900
  20573592.188                    20573600.816                   108114936.582 8
  84245497.095 8        51.800          50.200
  20289700.961                    20289707.070    20289706.891   106623087.186 8
  83082986.968 8        50.800          50.200
  23079049.820                    23079055.754    23079055.750   121281333.676 7
  94504910.591 6        43.900          41.700
  20954708.602                    20954714.242    20954714.121   110117711.388 8
  85806052.043 8        49.700          48.100
 14  1  3  1 49  0.0000000  0  6G02G14G25G29G12G31
  22954270.148                                    22954273.441   120625534.324 7
  93993933.77245        44.700          30.000
  24038479.211                                    24038485.668   126323047.710 6
  98433532.61542        38.100          16.300
  20581828.906                    20581837.828                   108158220.043 8
  84279224.466 8        51.100          49.900
  20285080.344                    20285086.922    20285086.918   106598807.091 8
  83064067.416 8        50.900          50.900
  23097074.648                    23097079.938    23097079.641   121376052.943 7
  94578717.804 6        43.400          41.500
  20948703.961                    20948709.719    20948709.773   110086157.734 8
  85781464.782 8        50.000          48.000
 14  1  3  1 49 30.0000000  0  6G02G14G25G29G12G31
  22959103.336                                    22959107.215   120650934.414 7
  94013726.05844        45.300          29.500
  24058002.180                                    24058009.281   126425642.081 6
  98513476.23042        37.600          16.900
  20590139.258                    20590148.297                   108201893.077 8
  84313255.404 8        51.400          49.600
  20280563.266                    20280569.199    20280569.078   106575067.923 8
  83045569.367 8        51.200          51.000
  23115128.016                    23115133.773    23115133.594   121470927.025 7
  94652645.650 6        44.100          41.500
  20942796.945                    20942802.469    20942802.582   110055115.269 8
  85757275.846 7        49.500          47.800
 14  1  3  1 50  0.0000000  0  6G02G14G25G29G12G31
  22964038.133                                    22964041.191   120676865.840 7
  94033932.37044        44.600          29.900
  24077554.203                                    24077561.012   126528386.328 6
  98593536.64542        37.700          15.600
  20598523.664                    20598532.996                   108245953.634 8
  84347588.305 8        51.500          49.900
  20276148.086                    20276155.016    20276154.953   106551868.285 8
  83027491.731 8        50.500          50.700
  23133211.281                    23133216.922    23133216.684   121565954.000 7
  94726692.610 6        42.800          41.700
  20936987.063                    20936992.352    20936992.348   110024583.926 8
  85733485.188 7        49.600          47.800
 14  1  3  1 50 30.0000000  0  6G02G14G25G29G12G31
  22969074.063                                    22969077.648   120703331.358 7
  94054554.84444        43.900          29.100
  24097133.586                                    24097141.156   126631280.779 6
  98673714.09142        37.200          16.900
  20606982.578                    20606991.559                   108290404.615 8
  84382225.433 8        51.600          49.800
  20271836.805                    20271843.207    20271843.262   106529211.652 8
  83009837.211 8        51.400          50.200
  23151323.852                    23151329.551    23151329.547   121661136.222 7
  94800860.553 6        43.100          41.300
  20931275.328                    20931280.383    20931280.379   109994568.527 8
  85710096.566 8        49.800          48.200
 14  1  3  1 51  0.0000000  0  6G02G14G25G29G12G31
  22974211.453                                    22974215.215   120730329.766 7
  94075592.57444        44.100          29.100
  24116742.508                                    24116749.082   126734322.256 6
  98754006.11842        36.700          14.800
  20615515.719                    20615524.758                   108335244.894 8
  84417165.888 8        51.900          49.700
  20267628.773                    20267635.117    20267635.348   106507098.141 8
  82992605.907 8        50.300          50.900
  23169465.797                    23169471.320    23169471.785   121756471.912 7
  94875148.083 6        42.200          41.100
  20925661.938                    20925667.695    20925667.574   109965070.220 8
  85687110.867 8        49.700          48.000
 14  1  3  1 51 30.0000000  0  6G02G14G25G29G12G31
  22979450.883                                    22979454.176   120757859.145 7
  94097044.04144        44.500          28.400
  24136377.281                                    24136384.910   126837506.871 6
  98834409.60342        36.000          14.800
  20624122.008                    20624131.281                   108380472.635 8
  84452408.280 8        51.500          49.500
  20263523.852                    20263530.488    20263530.426   106485527.275 8
  82975797.447 8        50.900          50.700
  23187636.570                    23187641.801    23187641.738   121851959.290 7
  94949553.808 6        42.400          41.100
  20920146.953                    20920152.418    20920152.531   109936089.268 8
  85664528.311 7        50.200          47.600
 14  1  3  1 52  0.0000000  0  6G02G14G25G29G12G31
  22984790.008                                    22984793.770   120785919.483 7
  94118909.23544        44.100          29.900
  24156039.773                                    24156047.168   126940832.174 5
  98914922.78042        35.300          14.800
  20632802.320                    20632811.008                   108426087.658 8
  84487952.431 8        51.900          50.200
  20259522.383                    20259529.254    20259529.191   106464499.337 8
  82959412.040 8        51.200          50.400
  23205835.531                    23205841.348    23205841.227   121947597.518 7
  95024077.077 6        42.600          40.800
  20914731.141                    20914736.313    20914736.191   109907627.652 8
  85642350.424 8        50.700          48.600
 14  1  3  1 52 30.0000000  0  6G02G14G25G29G12G31
  22990230.148                                    22990234.027   120814507.494 7
  94141185.60945        43.900          30.100
  24175727.680                                    24175734.723   127044293.082 5
  98995541.60442        35.800          14.800
  20641555.422                    20641564.520                   108472087.148 8
  84523796.184 8        51.400          50.000
  20255623.992                    20255630.102    20255630.156   106444012.221 8
  82943448.053 8        51.800          50.700
  23224062.797                    23224069.316    23224069.137   122043383.705 7
  95098715.629 6        43.400          41.000
  20909413.453                    20909418.684    20909418.504   109879684.384 8
  85620576.444 7        50.500          47.900
 14  1  3  1 53  0.0000000  0  6G02G14G25G29G12G31
  22995771.234                                    22995775.113   120843625.101 7
  94163874.64544        43.000          29.400
  24195440.695                                    24195448.383   127147889.022 5
  99076265.60542        34.500          13.900
  20650382.477                    20650391.223                   108518472.949 8
  84559940.952 8        52.000          49.900
  20251828.734                    20251835.430    20251835.309   106424068.168 8
  82927907.235 8        52.100          50.700
  23242319.281                    23242324.863    23242324.801   122139319.295 7
  95173470.608 6        42.400          41.300
  20904195.406                    20904201.164    20904200.984   109852263.510 8
  85599209.534 8        50.200          48.300
 14  1  3  1 53 30.0000000  0  6G02G14G25G29G12G31
  23001412.492                                    23001416.254   120873269.019 7
  94186973.80044        43.600          29.800
  24215179.875                                    24215187.094   127251614.758 5
  99157090.89342        34.800          15.600
  20659282.797                    20659292.012                   108565241.902 8
  84596384.281 8        51.000          50.900
  20248136.531                    20248143.109    20248143.105   106404665.861 8
  82912788.554 8        51.400          50.300
  23260602.750                    23260608.566    23260608.621   122235400.705 6
  95248339.236 6        41.900          41.100
  20899076.633                    20899082.098    20899082.152   109825363.620 8
  85578248.577 8        49.900          48.200
 14  1  3  1 54  0.0000000  0  6G02G14G25G29G12G31
  23007153.492                                    23007157.254   120903439.249 7
  94210483.08144        43.900          29.900
  24234941.969                                    24234949.891   127355468.507 5
  99238015.76242        33.900          16.300
  20668255.516                    20668264.496                   108612394.276 8
  84633126.369 8        51.300          50.500
  20244547.500                    20244553.902    20244553.723   106385805.970 8
  82898092.534 8        52.100          50.800
  23278914.336                    23278920.211    23278920.324   122331628.055 7
  95323321.588 6        42.300          40.700
  20894057.023                    20894063.016    20894063.070   109798987.198 8
  85557695.516 8        49.800          48.800
 14  1  3  1 54 30.0000000  0  6G02G14G25G29G12G31
  23012994.734                                    23012998.789   120934134.233 7
  94234401.25245        43.800          30.200
  24254728.469                                    24254736.508   127459446.507 5
  99319037.64642        34.600          15.600
  20677300.750                    20677309.965                   108659928.382 8
  84670165.924 8        51.700          50.000
  20241062.125                    20241067.648    20241067.762   106367487.341 8
  82883818.280 8        52.100          50.800
  23297253.063                    23297259.113    23297258.992   122427998.915 7
  95398415.762 6        42.700          41.000
  20889137.320                    20889142.902    20889143.016   109773134.531 8
  85537550.578 8        49.900          48.400
 14  1  3  1 55  0.0000000  0  6G02G14G25G29G12G31
  23018935.852                                    23018939.730   120965354.726 7
  94258728.91045        43.600          31.100
  24274537.438                                    24274546.414   127563546.927 5
  99400154.72842        34.000          13.900
  20686419.211                    20686428.133                   108707845.264 8
  84707503.740 8        51.700          50.200
  20237678.961                    20237685.305    20237685.242   106349712.059 8
  82869967.404 8        51.200          50.800
  23315619.336                    23315625.563    23315625.148   122524514.564 7
  95473622.743 6        42.100          41.700
  20884318.688                    20884323.918    20884324.266   109747808.841 8
  85517816.277 8        49.900          48.300
 14  1  3  1 55 30.0000000  0  7G02G14G25G29G21G12G31
  23024976.523                                    23024980.285   120997098.957 7
  94283464.66745        44.000          30.000
  24294370.664                                    24294379.113   127667766.468 5
  99481364.71642        33.900          13.900
  20695609.875                    20695618.738                   108756143.339 8
  84745138.611 8        51.500          50.200
  20234400.070                    20234406.531    20234406.469   106332479.111 8
  82856539.127 8        51.200          50.700
  25336457.148                                                   133143912.62115
                        31.600
  23334012.883                    23334019.168    23334018.871   122621172.879 7
  95548940.889 6        42.600          41.600
  20879599.477                    20879605.293    20879605.113   109723010.269 8
  85498492.714 7        50.000          47.900
 14  1  3  1 56  0.0000000  0  7G02G14G25G29G21G12G31
  23031116.188                                    23031119.539   121029363.751 7
  94308606.06445        43.800          30.400
  24314224.109                                                   127772100.214 5
                        34.300
  20704872.781                    20704882.055                   108804819.889 8
  84783068.387 8        51.000          49.800
  20231223.523                    20231229.867    20231229.863   106315786.861 8
  82843532.168 8        51.800          50.300
  25317586.070                                                   133044746.824 5
                        33.400
  23352432.969                    23352438.727    23352438.488   122717970.812 7
  95624367.809 6        42.100          41.200
  20874980.703                    20874985.992    20874986.047   109698738.322 8
  85479579.503 8        50.000          48.200
 14  1  3  1 56 30.0000000  0  7G02G14G25G29G21G12G31
  23037355.656                                    23037359.594   121062152.787 7
  94334155.96745        44.100          30.500
  24334100.898                                                   127876549.754 5
                        35.000
  20714208.664                    20714217.645                   108853878.518 8
  84821295.888 8        51.400          50.000
  20228150.492                    20228156.777    20228156.773   106299639.028 8
  82830949.440 8        51.200          50.700
  25298714.484                                                   132945572.097 5
                        31.900
  23370879.969                    23370886.605    23370886.543   122814911.624 7
  95699906.060 6        42.400          41.800
  20870462.852                    20870468.492    20870468.488   109674998.789 8
  85461081.170 8        50.700          48.500
 14  1  3  1 57  0.0000000  0  7G02G14G25G29G21G12G31
  23043693.320                                    23043697.258   121095459.307 7
  94360109.10345        44.400          30.500
  24353997.398                                                   127981106.465 5
                        35.200
  20723615.047                    20723624.145                   108903313.231 8
  84859816.436 8        51.200          50.500
  20225180.305                    20225186.941    20225187.113   106284031.135 8
  82818787.444 8        51.100          50.600
  25279839.125                                                   132846384.395 5
                        31.600
  23389353.039                    23389359.500    23389359.496   122911989.253 7
  95775550.916 6        43.000          40.700
  20866045.727                    20866051.250    20866051.305   109651787.091 8
  85442994.125 8        50.700          48.400
 14  1  3  1 57 30.0000000  0  7G02G14G25G29G21G12G31
  23050131.297                                    23050134.883   121129288.287 7
  94386469.33445        43.900          31.300
  24373915.531                                                   128085772.865 5
                        34.500
  20733094.891                    20733103.871                   108953128.275 8
  84898633.333 8        51.000          50.100
  20222313.469                    20222320.340    20222320.453   106268967.828 8
  82807049.801 8        51.200          50.900
  25260964.305                                                   132747191.411 5
                        32.400
  23407853.211                    23407859.965    23407859.961   123009207.612 7
  95851305.458 6        42.200          41.800
  20861730.578                    20861735.984    20861735.746   109629109.658 8
  85425323.399 8        50.400          48.400
 14  1  3  1 58  0.0000000  0  7G02G14G25G29G21G12G31
  23056666.930                                    23056670.750   121163635.107 7
  94413233.10444        44.200          29.900
  24393851.516                                                   128190542.319 5
                        34.500
  20742645.898                    20742654.586                   109003319.514 8
  84937743.391 8        51.600          50.000
  20219550.609                    20219557.539    20219557.594   106254445.574 8
  82795733.764 8        51.100          51.000
  25242084.813                                                   132647991.675 5
                        33.100
  23426379.086                    23426385.488    23426385.250   123106562.178 7
  95927166.144 6        42.700          41.200
  20857516.367                    20857522.477    20857522.590   109606964.175 8
  85408067.180 8        51.000          48.800
 14  1  3  1 58 30.0000000  0  7G02G14G25G29G21G12G31
  23063301.438                                    23063305.375   121198499.396 7
  94440400.08245        44.100          30.500
  24413806.758                                                   128295412.979 5
                        33.600
  20752268.523                    20752277.738                   109053887.111 8
  84977146.679 8        50.500          49.500
  20216890.477                    20216896.352    20216896.406   106240465.814 8
  82784840.438 8        51.800          50.500
  25223208.211                                                   132548788.586 5
                        32.500
  23444931.094                    23444937.789    23444937.902   123204052.862 7
  96003132.900 6        42.000          41.600
  20853404.141                    20853409.547    20853409.660   109585352.735 8
  85391227.098 8        50.700          48.800
 14  1  3  1 59  0.0000000  0  7G02G14G25G29G21G12G31
  23070034.016                                    23070038.070   121233878.793 7
  94467968.44545        43.600          30.000
  24433782.422                                                   128400380.658 5
                        34.100
  20761962.633                    20761971.672                   109104829.041 8
  85016841.674 8        51.500          49.600
  20214332.977                    20214339.730    20214339.785   106227026.652 8
  82774368.366 8        50.900          51.200
  25204330.141                                                   132449583.174 5
                        33.600
  23463508.523                    23463515.043    23463514.922   123301677.763 6
  96079204.232 6        40.600          41.300
  20849392.820                    20849398.285    20849398.223   109564275.434 8
  85374803.230 8        50.400          49.000
 14  1  3  1 59 30.0000000  0  7G02G14G25G29G21G12G31
  23076865.078                                    23076868.371   121269773.623 7
  94495938.43845        44.500          30.900
  24453775.102                                                   128505443.886 5
                        33.200
  20771727.828                    20771736.750                   109156145.935 8
  85056828.850 8        50.700          49.100
  20211878.336                    20211885.031    20211884.910   106214129.506 8
  82764318.638 8        51.100          51.000
  25185451.000                                                   132350379.123 5
                        32.900
  23482111.805                    23482118.324    23482118.203   123399436.797 6
  96155380.076 6        41.500          41.100
  20845484.242                    20845490.234    20845490.055   109543734.777 8
  85358797.517 8        50.700          48.300
 14  1  3  2  0  0.0000000  4  5
MORP (COGO code)                                            COMMENT
   0.033      (antenna height)                              COMMENT
 +55.21279000 (latitude)                                    COMMENT
  -1.68549700 (longitude)                                   COMMENT
0144.425      (elevation)                                   COMMENT
 14  1  3  2  0  0.0000000  0  7G02G14G25G29G21G12G31
  23083792.820                                    23083796.406   121306181.041 7
  94524307.85845        44.800          30.400
  24473785.813                                                   128610598.017 5
                        33.100
  20781563.742                    20781573.074                   109207835.259 8
  85097106.248 8        50.400          49.800
  20209527.352                    20209533.754    20209533.750   106201772.098 8
  82754689.488 8        51.700          51.300
  25166574.625                                                   132251177.207 5
                        33.600
  23500739.625                    23500745.910    23500745.789   123497327.338 6
  96231658.400 6        41.300          41.400
  20841677.172                    20841683.223    20841683.102   109523729.792 8
  85343209.223 8        50.800          48.300
 14  1  3  2  0 30.0000000  0  7G02G14G25G29G21G12G31
  23090818.938                                    23090822.758   121343103.765 7
  94553078.81245        44.700          30.200
  24493812.742                                                   128715843.429 5
                        33.300
  20791471.320                    20791480.301                   109259899.680 8
  85137675.924 8        50.500          49.300
  20207279.164                    20207285.391    20207285.504   106189958.500 8
  82745484.082 8        51.200          50.900
  25147698.703                                                   132151982.986 5
                        33.500
  23519392.953                    23519399.473    23519399.234   123595351.755 6
  96308041.045 6        41.700          41.300
  20837973.805                    20837979.328    20837979.207   109504265.516 8
  85328042.250 8        50.900          48.700
 14  1  3  2  1  0.0000000  0  7G02G14G25G29G21G12G31
  23097942.609                                    23097946.020   121380536.733 7
  94582247.36544        44.100          29.900
  24513857.180                                                   128821174.119 5
                        33.700
  20801449.680                    20801458.543                   109312335.153 8
  85178534.722 8        49.800          48.800
  20205134.125                    20205140.352    20205140.289   106178684.903 8
  82736699.464 8        51.200          51.000
  25128822.938                                                   132052795.644 5
                        32.900
  23538071.688                    23538077.563    23538077.500   123693505.863 6
  96384524.724 6        41.600          41.300
  20834372.180                    20834377.645    20834377.641   109485339.558 8
  85313294.756 8        50.000          49.300
 14  1  3  2  1 30.0000000  0  7G02G14G25G29G21G12G31
  23105163.023                                    23105166.434   121418481.482 7
  94611814.69344        43.800          29.800
  24533917.211                                                   128926589.260 5
                        33.100
  20811498.828                    20811508.160                   109365142.987 8
  85219683.680 8        49.800          49.500
  20203091.945                    20203098.172    20203098.051   106167953.452 8
  82728337.292 8        51.400          50.900
  25109951.570                                                   131953619.426 5
                        33.400
  23556774.180                    23556781.227    23556780.988   123791790.879 7
  96461110.432 6        42.500          41.400
  20830873.422                    20830878.594    20830878.414   109466955.201 8
  85298969.275 8        50.900          49.100
 14  1  3  2  2  0.0000000  0  7G02G14G25G29G21G12G31
  23112479.797                                    23112484.027   121456933.160 7
  94641777.04645        44.300          30.200
  24553992.023                                                   129032082.625 5
                        32.500
  20821617.719                    20821626.816                   109418318.816 8
  85261119.387 8        49.900          48.700
  20201152.133                    20201158.828    20201158.590   106157759.965 8
  82720394.319 8        50.800          51.100
  25091079.844                                                   131854453.108 5
                        34.600
  23575501.289                    23575507.340    23575507.512   123890202.068 6
  96537794.465 6        41.900          40.800
  20827477.711                    20827483.527    20827483.348   109449109.591 8
  85285063.612 8        51.200          48.600
 14  1  3  2  2 30.0000000  0  8G02G14G25G23G29G21G12G31
  23119893.648                                    23119897.469   121495893.443 7
  94672135.69744        43.400          29.600
  24574081.633                                                   129137653.621 5
                        32.300
  20831807.219                    20831816.023                   109471864.497 8
  85302843.281 8        48.200          49.100
  24961174.977                                                   131171820.04715
                        30.800
  20199315.352                    20199321.578    20199321.633   106148107.313 8
  82712872.783 8        49.800          51.200
  25072212.453                                                   131755301.659 5
                        34.600
  23594252.961                    23594258.895    23594259.184   123988741.086 7
  96614578.093 6        42.400          40.800
  20824185.344                    20824190.867    20824190.922   109431807.098 8
  85271581.145 8        50.900          48.600
 14  1  3  2  3  0.0000000  0  8G02G14G25G23G29G21G12G31
  23127404.750                                    23127407.457   121535360.370 7
  94702889.15045        44.300          30.800
  24594184.641                                                   129243298.901 5
                        32.200
  20842066.930                    20842075.734                   109525778.688 8
  85344854.328 8        49.500          49.300
  24948247.398                                                   131103891.129 5
                        30.800
  20197581.133                    20197587.359    20197587.238   106138994.319 8
  82705771.761 8        51.800          51.100
  25053347.188                                                   131656166.996 6
                        36.200
  23613028.703                    23613034.637    23613034.516   124087406.424 7
  96691460.154 6        43.200          40.400
  20820995.969                    20821001.434    20821001.371   109415047.421 8
  85258521.651 8        51.500          48.900
 14  1  3  2  3 30.0000000  0  8G02G14G25G23G29G21G12G31
  23135010.516                                    23135014.395   121575331.446 7
  94734035.43544        44.100          29.800
  24614301.711                                                   129349014.049 5
                        31.500
  20852395.914                    20852404.895                   109580059.152 7
  85387150.784 8        47.800          49.600
  24935405.664                                                   131036397.236 4
                        29.100
  20195949.531                    20195956.051    20195955.988   106130419.818 8
  82699090.333 8        49.900          51.300
  25034486.695                                                   131557050.216 5
                        35.000
  23631827.805                    23631833.035    23631832.738   124186195.248 7
  96768438.420 6        42.500          40.000
  20817909.945                    20817915.703    20817915.523   109398830.305 8
  85245884.937 8        51.300          48.900
 14  1  3  2  4  0.0000000  0  8G02G14G25G23G29G21G12G31
  23142712.813                                    23142716.105   121615807.680 7
  94765575.36544        43.800          29.600
  24634430.594                                                   129454798.567 5
                        32.400
  20862795.047                    20862804.555                   109634707.453 7
  85429733.861 8        46.700          49.500
  24922645.164                                                   130969342.995 4
                        29.400
  20194420.539                    20194427.352    20194427.172   106122385.906 8
  82692830.151 8        50.200          51.200
  25015629.969                                    25015635.664   131457955.844 5
 102434840.43842        35.400          15.600
  23650649.734                    23650656.020    23650655.781   124285109.353 7
  96845514.286 6        43.000          39.400
  20814927.445                    20814933.203    20814933.082   109383159.045 8
  85233673.561 8        50.400          48.700
 14  1  3  2  4 30.0000000  0  8G02G14G25G23G29G21G12G31
  23150510.836                                    23150514.949   121656787.786 7
  94797507.90545        43.800          30.400
  24654573.430                                                   129560649.620 5
                        31.800
  20873264.469                    20873273.098                   109689722.458 7
  85472602.694 8        47.200          49.200
  24909968.602                                                   130902730.379 5
                        31.800
  20192994.883                    20193000.875    20193000.930   106114891.729 8
  82686990.535 8        49.800          51.300
  24996776.656                                    24996783.758   131358885.887 5
 102357643.09142        35.400          14.800
  23669496.297                    23669501.938    23669501.875   124384147.754 7
  96922687.026 6        42.600          40.000
  20812049.555                    20812055.254    20812055.133   109368034.650 8
  85221888.318 8        50.900          48.700
 14  1  3  2  5  0.0000000  0  8G02G14G25G23G29G21G12G31
  23158404.852                                    23158407.969   121698268.555 7
  94829830.59044        43.500          28.700
  24674728.016                                                   129666562.519 5
                        31.600
  20883802.039                    20883811.898                   109745101.764 8
  85515755.396 8        48.700          49.100
  24897375.945                                                   130836559.975 4
                        27.600
  20191670.992                    20191676.633    20191676.863   106107935.265 8
  82681569.913 8        51.500          51.400
  24977929.391                                    24977936.492   131259840.816 5
 102280465.12542        35.700          16.300
  23688366.383                    23688371.906    23688371.668   124483307.112 7
  96999953.999 6        42.800          39.700
  20809275.547                    20809281.246    20809281.125   109353456.313 8
  85210528.572 8        51.100          48.400
 14  1  3  2  5 30.0000000  0  7G02G14G25G29G21G12G31
  23166392.609                                    23166396.254   121740248.615 7
  94862542.31644        44.000          28.900
  24694893.594                                                   129772534.060 5
                        31.500
  20894409.766                    20894418.980                   109800844.222 8
  85559191.083 8        49.200          49.400
  20190449.086                    20190455.664    20190455.543   106101516.282 8
  82676568.114 8        51.500          51.300
  24959086.289                                    24959093.859   131160822.876 5
 102203308.20642        35.500          14.800
  23707258.297                    23707264.113    23707263.875   124582586.473 7
  97077314.473 6        42.500          39.200
  20806605.289                    20806610.695    20806610.691   109339424.778 8
  85199594.906 8        50.500          49.100
 14  1  3  2  6  0.0000000  0  7G02G14G25G29G21G12G31
  23174476.852                                    23174480.379   121782728.854 7
  94895643.80144        44.400          28.800
  24715069.773                                                   129878563.465 5
                        30.800
  20905086.695                    20905095.383                   109856951.091 8
  85602910.728 8        49.300          49.300
  20189330.141                    20189336.895    20189336.715   106095636.337 8
  82671986.336 8        51.200          50.900
  24940249.477                                    24940258.160   131061836.434 5
 102126175.89542        34.900          16.300
  23726173.797                    23726179.496    23726179.434   124681986.605 7
  97154769.095 6        42.800          39.200
  20804039.891                    20804045.355    20804045.234   109325942.617 8
  85189089.331 8        50.700          49.100
 14  1  3  2  6 30.0000000  0  7G02G14G25G29G21G12G31
  23182654.586                                    23182658.348   121825706.010 7
  94929132.48744        44.400          29.300
  24735256.844                                                   129984646.043 5
                        31.000
  20915832.641                    20915841.504                   109913419.524 8
  85646912.093 8        48.200          49.100
  20188313.430                    20188319.656    20188319.477   106090293.278 8
  82667822.909 8        50.500          50.900
  24921420.055                                    24921426.980   130962881.801 6
 102049068.41442        36.800          15.600
  23745111.219                    23745117.914    23745117.617   124781504.859 7
  97232315.719 6        42.200          39.400
  20801578.758                    20801583.754    20801583.867   109313009.177 8
  85179011.322 8        51.200          48.100
 14  1  3  2  7  0.0000000  0  8G02G14G25G23G29G21G12G31
  23190927.805                                    23190931.156   121869178.987 7
  94963007.53144        43.900          28.900
  24755454.078                                                   130090778.702 4
                        29.900
  20926646.594                    20926655.984                   109970249.029 8
  85691194.808 8        48.600          49.300
  24847862.766                                                   130576345.522 5
                        31.500
  20187399.172                    20187405.457    20187405.395   106085487.038 8
  82664077.784 8        50.600          51.000
  24902595.961                                    24902603.707   130863961.399 5
 101971987.51842        35.800          16.300
  23764071.023                    23764077.484    23764077.012   124881140.928 7
  97309954.154 6        42.300          39.500
  20799222.039                    20799227.270    20799227.207   109300625.464 8
  85169361.668 8        50.500          48.300
 14  1  3  2  7 30.0000000  0  7G02G14G25G29G21G12G31
  23199294.859                                    23199298.797   121913148.041 7
  94997269.14044        44.600          29.400
  24775659.914                                                   130196960.892 4
                        28.300
  20937529.836                    20937539.051                   110027440.432 8
  85735759.526 8        48.400          49.100
  20186586.750                    20186593.270    20186592.855   106081218.228 8
  82660751.443 8        50.500          50.800
  24883779.047                                    24883787.555   130765079.528 6
 101894936.69842        36.600          16.900
  23783053.969                    23783060.078    23783060.074   124980894.984 7
  97387684.540 6        42.800          38.700
  20796970.859                    20796976.148    20796975.969   109288794.141 8
  85160142.465 8        50.300          48.600
 14  1  3  2  8  0.0000000  0  7G02G14G25G29G21G12G31
  23207755.789                                    23207759.258   121957612.180 7
  95031916.51444        44.600          28.500
  24795873.586                                                   130303189.803 4
                        27.300
  20948481.898                    20948490.820                   110084993.032 8
  85780605.717 8        49.000          48.700
  20185876.680                    20185882.965    20185882.668   106077487.738 8
  82657844.569 8        51.300          51.500
  24864969.586                                    24864978.387   130666238.574 6
 101817917.68442        36.600          16.900
  23802059.250                    23802064.012    23802064.301   125080766.309 7
  97465506.299 6        42.500          38.400
  20794824.063                    20794829.879    20794829.758   109277515.925 8
  85151354.237 8        50.400          48.600
 14  1  3  2  8 30.0000000  0  8G02G14G25G23G29G21G12G31
  23216311.000                                    23216313.941   122002567.046 7
  95066946.27644        44.100          29.700
  24816097.000                                                   130409459.56414
                        28.000
  20959501.508                    20959510.723                   110142903.139 8
  85825730.470 8        50.000          49.500
  24811632.000                                                   130385935.848 5
                        32.500
  20185268.422                    20185274.883    20185274.879   106074292.195 8
  82655354.536 8        51.600          51.400
  24846169.656                                    24846177.227   130567438.420 5
 101740930.51242        35.800          15.600
  23821085.313                    23821091.480    23821091.594   125180750.997 7
  97543416.395 6        42.800          38.600
  20792783.266                    20792788.848    20792788.492   109266789.156 8
  85142995.714 8        50.300          48.700
 14  1  3  2  9  0.0000000  0  8G02G14G25G23G29G21G12G31
  23224958.922                                    23224962.449   122048013.660 7
  95102359.21944        44.900          27.900
  24836327.820                                                   130515770.137 4
                        28.300
  20970589.883                    20970598.570                   110201172.395 8
  85871135.087 8        50.000          49.300
  24799728.172                                                   130323389.824 5
                        32.500
  20184762.375                    20184768.836    20184768.891   106071632.861 8
  82653282.332 8        51.500          51.300
  24827377.266                                    24827384.895   130468683.540 6
 101663978.64942        36.600          16.300
  23840133.773                    23840139.531    23840139.938   125280850.501 7
  97621415.990 6        42.600          38.300
  20790847.539                    20790852.828    20790852.824   109256616.847 8
  85135069.241 8        50.200          48.900
 14  1  3  2  9 30.0000000  0  7G02G25G23G29G21G12G31
  23233699.766                                    23233703.234   122093948.073 7
  95138152.27144        44.900          28.100
  20981746.055                    20981754.977                   110259797.309 8
  85916816.845 8        50.000          48.400
  24787913.328                                                   130261305.211 5
                        32.200
  20184357.781                    20184364.125    20184364.238   106069507.318 8
  82651626.072 8        51.000          51.100
  24808593.742                                    24808601.723   130369973.425 6
 101587061.64042        36.600          16.300
  23859202.984                    23859208.801    23859208.973   125381061.366 7
  97699502.375 6        42.500          37.800
  20789016.820                    20789022.402    20789022.281   109246997.276 8
  85127573.474 8        50.300          48.100
 14  1  3  2 10  0.0000000  0  7G02G25G23G29G21G12G31
  23242533.414                                    23242537.059   122140369.189 7
  95174324.57144        44.900          29.400
  20992969.328                    20992978.250                   110318777.228 8
  85962775.237 8        50.200          49.200
  24776187.281                                                   130199683.855 5
                        33.900
  20184054.836                    20184061.355    20184061.352   106067914.784 8
  82650385.134 8        51.700          51.000
  24789819.219                                    24789826.789   130271311.156 6
 101510181.99142        37.200          16.900
  23878293.578                    23878299.102    23878298.980   125481382.932 7
  97777675.038 6        42.800          37.700
  20787291.734                    20787297.141    20787297.020   109237931.532 8
  85120509.253 8        50.900          48.300
 14  1  3  2 10 30.0000000  0  7G02G25G23G29G21G12G31
  23251459.805                                    23251463.156   122187275.526 7
  95210874.95444        45.300          29.700
  21004260.508                    21004269.840                   110378111.235 8
  86009009.526 7        50.500          47.900
  24764549.953                                                   130138528.197 5
                        33.100
  20183853.156                    20183859.559    20183859.613   106066855.167 8
  82649559.455 8        51.300          50.800
  24771052.977                                    24771060.371   130172699.036 6
 101433341.39342        36.600          17.400
  23897404.375                    23897410.777    23897410.949   125581813.832 7
  97855932.864 6        42.400          38.100
  20785672.195                    20785677.719    20785677.656   109229420.011 8
  85113876.899 8        50.600          48.000
 14  1  3  2 11  0.0000000  0  7G02G25G23G29G21G12G31
  23260478.508                                    23260482.094   122234669.201 7
  95247805.08944        45.800          29.600
  21015618.906                    21015627.945                   110437801.875 8
  86055521.702 8        49.900          48.900
  24752999.719                                                   130077843.316 5
                        33.600
  20183753.742                    20183759.910    20183760.023   106066331.756 8
  82649151.599 8        51.100          50.900
  24752299.148                                    24752305.371   130074142.495 6
 101356544.04842        36.800          17.400
  23916537.578                    23916542.809    23916543.098   125682356.563 6
  97934277.844 6        41.700          37.700
  20784158.469                    20784164.051    20784164.164   109221467.132 8
  85107679.848 8        50.300          48.400
 14  1  3  2 11 30.0000000  0  7G02G25G23G29G21G12G31
  23269588.039                                    23269592.387   122282542.969 7
  95285109.32244        45.300          28.700
  21027044.656                    21027053.637                   110497842.849 8
  86102306.865 8        50.200          48.800
  24741542.711                                                   130017625.856 5
                        32.000
  20183754.594                    20183760.645    20183760.816   106066338.089 8
  82649156.533 8        50.900          50.900
  24733554.906                                    24733561.598   129975638.355 6
 101279787.62242        36.600          16.900
  23935690.586                    23935696.461    23935695.871   125783004.793 7
  98012705.002 6        42.500          37.700
  20782750.813                    20782755.691    20782755.688   109214067.929 8
  85101914.244 8        50.900          48.300
 14  1  3  2 12  0.0000000  0  7G02G25G23G29G21G12G31
  23278790.641                                    23278793.699   122330898.875 7
  95322789.25144        45.700          29.300
  21038536.664                    21038545.996                   110558236.499 8
  86149366.861 8        50.100          48.200
  24730174.563                                                   129957881.652 5
                        33.500
  20183857.500                    20183864.020    20183863.840   106066876.755 8
  82649576.268 8        51.100          51.100
  24714820.398                                    24714827.500   129877192.296 5
 101203076.37542        35.800          15.600
  23954863.719                    23954869.535    23954869.238   125883760.543 6
  98091215.957 6        41.500          36.700
  20781449.047                    20781454.629    20781454.566   109207226.666 8
  85096583.385 8        51.000          48.400
 14  1  3  2 12 30.0000000  0  7G02G25G23G29G21G12G31
  23288083.703                                    23288086.645   122379735.127 7
  95360843.46945        45.300          30.100
  21050095.961                    21050105.645                   110618981.443 8
  86196700.571 8        49.100          48.700
  24718894.711                                                   129898612.786 5
                        33.700
  20184061.281                    20184067.391    20184067.445   106067947.212 8
  82650410.382 8        51.500          51.500
  24696097.969                                    24696105.539   129778806.381 6
 101126412.00342        36.200          17.400
  23974057.125                    23974063.234    23974063.230   125984622.693 6
  98169809.832 6        40.900          37.000
  20780253.109                    20780258.633    20780258.629   109200943.412 8
  85091687.343 8        51.100          48.900
 14  1  3  2 13  0.0000000  0  7G02G25G23G29G21G12G31
  23297467.695                                    23297471.457   122429050.055 7
  95399270.67244        45.300          29.400
  21061721.969                    21061731.418                   110680076.877 8
  86244307.389 8        49.400          48.600
  24707707.063                                                   129839820.422 5
                        33.700
  20184366.156                    20184371.914    20184371.969   106069548.865 8
  82651658.412 8        51.200          51.600
  24677387.367                                    24677396.051   129680482.955 5
 101049796.33842        35.800          16.900
  23993270.492                    23993277.188    23993276.539   126085590.043 6
  98248485.647 6        39.800          37.200
  20779164.180                    20779169.527    20779169.465   109195218.811 8
  85087226.609 8        50.700          48.300
 14  1  3  2 13 30.0000000  0  7G02G25G23G29G21G12G31
  23306942.367                                    23306946.070   122478840.219 7
  95438068.20044        45.700          28.100
  21073414.789                    21073424.473                   110741520.196 8
  86292185.288 8        49.500          48.600
  24696610.750                                                   129781504.973 5
                        33.800
  20184771.156                    20184778.262    20184778.082   106071679.080 8
  82653318.320 8        51.200          51.200
  24658689.000                                    24658696.570   129582222.595 6
 100973229.81342        36.500          15.600
  24012503.414                    24012509.172    24012509.285   126186659.863 6
  98327241.299 6        39.700          37.100
  20778180.555                    20778186.020    20778185.957   109190051.664 8
  85083200.264 8        50.800          48.500
 14  1  3  2 14  0.0000000  0  7G02G25G23G29G21G12G31
  23316507.680                                    23316511.559   122529106.281 7
  95477236.55544        45.300          29.100
  21085173.539                    21085182.520                   110803312.685 8
  86340335.269 8        48.800          48.600
  24685606.719                                                   129723670.928 5
                        33.900
  20185277.789                    20185284.309    20185284.070   106074339.723 8
  82655391.547 8        51.300          50.800
  24640003.844                                    24640011.180   129484029.667 6
 100896715.82842        37.300          15.600
  24031756.000                    24031762.754    24031762.398   126287833.720 6
  98406078.035 6        40.500          37.600
  20777304.047                    20777309.570    20777309.801   109185444.861 8
  85079610.549 8        50.300          48.700
 14  1  3  2 14 30.0000000  0  7G02G25G23G29G21G12G31
  23326163.539                                    23326167.066   122579846.769 7
  95516774.58944        45.100          28.400
  21096998.391                    21097007.313                   110865453.096 8
  86388756.358 8        48.700          48.400
  24674691.961                                                   129666319.905 5
                        35.500
  20185884.586                    20185891.164    20185891.219   106077530.252 8
  82657877.676 8        51.600          51.200
  24621332.219                                    24621338.969   129385906.347 6
 100820256.11142        37.800          17.400
  24051027.914                    24051033.789    24051033.902   126389110.135 6
  98484994.664 6        39.700          37.700
  20776534.352                    20776539.758    20776539.813   109181399.132 8
  85076458.029 8        50.700          48.700
 14  1  3  2 15  0.0000000  0  7G02G25G23G29G21G12G31
  23335908.984                                    23335912.512   122631058.947 7
  95556680.17744        44.700          29.100
  21108889.016                    21108898.230                   110927939.621 8
  86437447.147 8        48.600          48.600
  24663870.773                                                   129609453.005 5
                        34.700
  20186592.508                    20186598.910    20186598.965   106081248.489 8
  82660775.005 8        51.700          51.000
  24602673.109                                    24602679.918   129287854.237 6
 100743851.87042        38.100          16.300
  24070319.195                    24070325.715    24070325.652   126490487.108 6
  98563989.656 6        39.300          37.200
  20775871.039                    20775876.211    20775876.148   109177913.609 8
  85073742.036 8        50.300          48.600
 14  1  3  2 15 30.0000000  0  7G02G25G23G29G21G12G31
  23345744.188                                    23345747.422   122682743.896 7
  95596954.14744        45.300          28.500
  21120846.133                    21120855.582                   110990773.761 7
  86486408.814 8        46.500          48.400
  24653142.742                                                   129553074.353 5
                        34.700
  20187400.789                    20187406.898    20187406.777   106085496.653 8
  82664085.260 8        51.500          51.900
  24584028.734                                    24584035.777   129189877.774 6
 100667506.61542        38.800          16.900
  24089630.500                    24089636.902    24089636.605   126591965.990 6
  98643064.043 6        39.800          37.300
  20775315.008                    20775320.297    20775320.117   109174991.213 8
  85071464.843 8        50.500          48.700
 14  1  3  2 16  0.0000000  0  7G02G25G23G29G21G12G31
  23355668.734                                    23355672.438   122734897.185 7
  95637593.06944        44.900          29.100
  21132868.359                    21132877.516                   111053951.816 8
  86535638.464 8        49.100          48.000
  24642507.148                                                   129497183.339 5
                        35.700
  20188309.195                    20188315.656    20188315.770   106090271.609 8
  82667806.010 8        51.600          51.400
  24565398.641                                    24565406.094   129091976.644 6
 100591220.04242        38.700          16.900
  24108960.391                    24108966.324    24108966.027   126693543.047 6
  98722214.947 6        39.800          37.500
  20774865.320                    20774870.961    20774870.957   109172629.971 8
  85069624.915 8        50.700          48.800
 14  1  3  2 16 30.0000000  0  7G02G25G23G29G21G12G31
  23365680.727                                    23365684.664   122787514.150 7
  95678593.28244        44.500          27.300
  21144955.531                    21144964.629                   111117470.179 7
  86585133.297 8        47.700          48.500
  24631963.836                                                   129441779.193 5
                        34.600
  20189317.695                    20189323.863    20189323.977   106095569.243 8
  82671934.034 8        50.800          51.200
  24546782.813                                    24546789.797   128994150.259 6
 100514991.76242        38.900          16.900
  24128307.961                    24128314.598    24128314.301   126795214.961 6
  98801439.751 6        39.600          37.300
  20774522.289                    20774527.871    20774527.691   109170827.543 8
  85068220.418 8        51.400          48.400
 14  1  3  2 17  0.0000000  0  7G02G25G23G29G21G12G31
  23375782.742                                    23375786.563   122840597.757 7
  95719957.12744        44.600          28.900
  21157107.977                    21157117.367                   111181332.118 8
  86634895.842 8        48.900          48.400
  24621514.695                                                   129386868.46115
                        33.700
  20190426.016                    20190431.656    20190431.711   106101392.745 8
  82676471.823 8        51.500          51.300
  24528183.148                                    24528189.957   128896405.634 6
 100438827.13342        38.100          16.900
  24147673.531                    24147680.637    24147680.457   126896984.807 6
  98880740.861 6        39.100          37.300
  20774286.469                    20774292.109    20774291.930   109169588.758 8
  85067255.130 8        50.400          49.000
 14  1  3  2 17 30.0000000  0  7G02G25G23G29G21G12G31
  23385971.438                                    23385975.492   122894143.033 7
  95761680.71044        44.400          28.300
  21169325.000                    21169334.508                   111245533.528 8
  86684922.908 8        48.400          48.300
  24611158.234                                                   129332448.265 5
                        34.600
  20191633.102                    20191640.031    20191639.793   106107739.415 8
  82681417.282 8        51.400          51.500
  24509598.266                                    24509605.309   128798741.737 6
 100362725.45342        38.500          16.300
  24167057.555                    24167063.898    24167064.070   126998848.099 6
  98960114.796 6        39.600          37.100
  20774157.875                    20774163.340    20774163.277   109168910.750 8
  85066726.815 8        51.100          48.800
 14  1  3  2 18  0.0000000  0  7G02G25G23G29G21G12G31
  23396249.406                                    23396253.695   122948154.321 7
  95803767.42044        43.800          27.400
  21181607.727                    21181617.000                   111310079.460 7
  86735218.435 8        47.200          48.300
  24600897.875                                                   129278528.247 5
                        33.600
  20192941.680                    20192948.434    20192948.137   106114614.315 8
  82686774.351 8        51.000          51.200
  24491029.539                                    24491037.168   128701166.236 6
 100286692.66742        39.000          16.300
  24186460.758                    24186467.277    24186467.156   127100810.059 6
  99039565.634 6        39.200          37.500
  20774136.773                    20774142.180    20774142.117   109168800.423 8
  85066640.843 8        50.800          49.200
 14  1  3  2 18 30.0000000  0  7G02G25G23G29G21G12G31
  23406615.344                                    23406619.281   123002626.788 7
  95846213.48444        44.300          27.200
  21193955.367                    21193964.465                   111374965.658 8
  86785779.099 8        48.500          48.400
  24590731.289                                                   129225106.344 5
                        33.800
  20194349.594                    20194355.879    20194355.758   106122013.095 8
  82692539.634 8        51.600          51.400
  24472479.430                                    24472485.359   128603678.970 6
 100210728.61642        38.400          16.900
  24205881.422                    24205887.766    24205887.645   127202866.413 6
  99119090.049 6        39.500          36.900
  20774223.148                    20774228.848    20774228.727   109169254.444 8
  85066994.625 8        50.500          48.800
 14  1  3  2 19  0.0000000  0  7G02G25G23G29G21G12G31
  23417068.813                                    23417071.695   123057555.941 7
  95889015.41644        44.300          27.900
  21206366.914                    21206375.367                   111440188.379 8
  86836601.963 8        48.300          48.600
  24580660.109                                                   129172182.198 5
                        32.600
  20195856.742                    20195863.203    20195863.082   106129932.472 8
  82698710.566 8        51.500          51.000
  24453943.383                                    24453950.895   128506279.485 6
 100134832.93242        38.400          17.400
  24225319.281                    24225325.684    24225326.207   127305013.661 6
  99198685.283 6        38.900          37.900
  20774415.945                    20774421.762    20774421.758   109170270.475 8
  85067786.339 8        50.900          48.100
 14  1  3  2 19 30.0000000  0  7G02G25G23G29G21G12G31
  23427608.430                                    23427611.547   123112943.344 7
  95932174.41444        44.500          28.700
  21218842.789                    21218851.652                   111505750.049 7
  86887688.982 8        47.900          48.000
  24570685.008                                                   129119759.561 5
                        33.200
  20197463.031                    20197469.727    20197469.664   106138374.383 8
  82705288.680 8        51.200          51.600
  24435427.758                                    24435434.859   128408973.358 6
 100059010.01843        38.900          18.300
  24244775.688                    24244781.094    24244781.383   127407253.856 6
  99278352.949 6        38.700          37.500
  20774717.328                    20774723.027    20774723.082   109171852.182 8
  85069018.829 7        50.800          47.900
 14  1  3  2 20  0.0000000  0  7G02G25G23G29G21G12G31
  23438234.117                                    23438238.582   123168786.203 7
  95975688.31744        43.700          27.200
  21231382.922                    21231391.902                   111571648.517 8
  86939038.422 8        48.400          48.100
  24560805.195                                                   129067840.445 5
                        33.800
  20199168.859                    20199175.672    20199175.375   106147337.601 8
  82712273.005 8        51.100          51.300
  24416928.227                                    24416935.328   128311761.461 6
  99983260.54142        39.200          17.400
  24264247.813                    24264254.039    24264254.328   127509584.778 6
  99358091.287 6        38.300          37.300
  20775125.734                    20775131.199    20775131.078   109173999.065 8
  85070691.721 8        50.400          48.700
 14  1  3  2 20 30.0000000  0  7G02G25G23G29G21G12G31
  23448947.906                                    23448950.789   123225081.920 7
  96019555.11144        44.300          27.900
  21243986.758                    21243995.270                   111637881.992 8
  86990648.915 7        48.200          47.600
  24551021.000                                                   129016425.458 5
                        34.100
  20200973.102                    20200979.797    20200979.500   106156820.383 8
  82719662.186 8        51.300          51.200
  24398448.164                                    24398455.031   128214645.685 6
  99907585.95142        39.200          17.800
  24283738.156                    24283744.559    24283744.613   127612004.711 6
  99437898.994 6        36.500          37.600
  20775642.133                    20775648.066    20775648.121   109176710.444 8
  85072804.480 8        50.300          48.800
 14  1  3  2 21  0.0000000  0  7G02G25G23G29G21G12G31
  23459747.180                                    23459749.828   123281828.813 7
  96063773.46144        44.300          27.600
  21256654.391                    21256663.547                   111704449.438 7
  87042519.646 8        47.500          48.100
  24541332.594                                                   128965516.173 5
                        33.200
  20202876.422                    20202882.941    20202882.938   106166821.655 8
  82727455.392 8        51.100          51.200
  24379986.586                                    24379993.805   128117627.983 6
  99831987.84042        39.400          17.400
  24303244.484                    24303250.770    24303250.766   127714512.648 6
  99517775.299 6        36.600          37.500
  20776265.359                    20776271.059    20776271.055   109179986.651 8
  85075357.370 8        49.900          49.300
 14  1  3  2 21 30.0000000  0  7G02G25G23G29G21G12G31
  23470629.711                                    23470633.238   123339022.546 7
  96108339.98144        44.100          27.100
  21269384.813                    21269392.973                   111771347.607 7
  87094648.090 8        47.900          48.200
  24531741.633                                                   128915112.052 5
                        33.300
  20204877.430                    20204884.008    20204883.887   106177338.201 8
  82735650.106 8        51.500          51.200
  24361543.016                                    24361550.117   128020708.066 6
  99756465.91642        38.900          17.400
  24322767.516                    24322774.035    24322774.207   127817105.309 5
  99597717.613 6        35.900          36.900
  20776995.578                    20777001.219    20777001.156   109183825.759 8
  85078348.876 8        49.300          48.600
 14  1  3  2 22  0.0000000  0  7G02G25G23G29G21G12G31
  23481599.641                                    23481602.875   123396668.311 7
  96153258.74444        44.200          27.400
  21282178.492                    21282187.707                   111838582.176 7
  87147038.662 7        47.600          47.800
  24522248.445                                                   128865221.586 5
                        32.800
  20206977.805                    20206984.090    20206984.086   106188376.100 8
  82744251.080 8        51.500          51.200
  24343119.406                                    24343126.566   127923895.399 6
  99681027.53442        39.000          17.400
  24342306.266                    24342313.605    24342313.426   127919788.037 6
  99677730.124 6        37.300          36.200
  20777834.930                    20777840.512    20777840.566   109188234.654 8
  85081784.376 8        49.700          48.400
 14  1  3  2 22 30.0000000  0  7G02G25G23G29G21G12G31
  23492654.305                                    23492657.422   123454759.525 7
  96198524.61744        44.500          28.500
  21295036.023                    21295045.180                   111906147.325 8
  87199686.831 8        48.400          48.000
  24512849.344                                                   128815841.444 5
                        33.500
  20209176.164                    20209182.859    20209182.914   106199929.396 8
  82753253.646 8        51.600          50.900
  24324717.773                                    24324724.055   127827187.472 6
  99605670.78143        40.000          19.000
  24361863.156                    24361869.676    24361869.730   128022555.408 6
  99757808.566 6        37.600          36.100
  20778781.188                    20778787.531    20778787.352   109193208.922 8
  85085660.424 8        50.300          48.400
 14  1  3  2 23  0.0000000  0  7G02G25G23G29G21G12G31
  23503792.969                                    23503796.496   123513295.367 7
  96244136.93944        44.700          26.200
  21307956.094                    21307964.957                   111974043.058 8
  87252592.587 7        48.200          47.900
  24503551.414                                                   128766974.201 5
                        32.800
  20211473.203                    20211479.781    20211479.660   106211998.905 8
  82762658.458 8        51.500          51.500
  24306333.852                                    24306341.305   127730587.310 6
  99530397.96642        39.600          17.400
  24381434.188                    24381441.762    24381441.992   128125407.529 6
  99837953.045 6        37.600          36.400
  20779835.789                    20779840.902    20779841.016   109198749.574 8
  85089977.811 8        50.100          48.800
 14  1  3  2 23 30.0000000  0  7G02G25G23G29G21G12G31
  23515016.289                                    23515019.348   123572273.899 7
  96290094.23144        43.900          27.700
  21320939.117                    21320947.688                   112042268.438 7
  87305755.204 8        47.400          48.200
  24494349.258                                                   128718622.029 5
                        33.000
  20213868.023                    20213874.484    20213874.656   106224583.623 8
  82772464.730 8        51.200          50.700
  24287972.805                                    24287979.848   127634097.618 6
  99455211.27642        39.800          17.800
  24401023.977                    24401030.379    24401030.258   128228343.035 6
  99918162.490 6        38.300          36.300
  20780997.602                    20781004.063    20781003.941   109204856.788 8
  85094736.677 8        49.700          48.900
 14  1  3  2 24  0.0000000  0  7G02G25G23G29G21G12G31
  23526323.914                                    23526327.031   123631694.256 7
  96336395.78844        44.300          27.900
  21333984.000                    21333993.684                   112110823.420 7
  87359174.654 8        47.900          48.000
  24485248.563                                                   128670787.483 5
                        34.600
  20216361.102                    20216367.387    20216367.148   106237683.441 8
  82782672.375 8        51.900          51.300
  24269633.039                                    24269640.316   127537721.648 6
  99380113.18143        40.500          19.300
  24420627.383                    24420633.844    24420633.781   128331362.116 6
  99998437.074 6        38.300          36.600
  20782268.008                    20782273.707    20782273.586   109211531.776 8
  85099937.970 8        49.800          48.300
 14  1  3  2 24 30.0000000  0  7G02G25G23G29G21G12G31
  23537714.852                                    23537718.027   123691553.252 7
  96383039.15844        43.200          26.300
  21347092.352                    21347101.566                   112179705.124 8
  87412848.700 7        48.700          47.800
  24476244.438                                                   128623470.207 5
                        35.400
  20218951.141                    20218957.719    20218957.949   106251295.100 8
  82793278.855 8        51.700          50.700
  24251315.227                                    24251322.094   127441459.630 6
  99305103.89943        39.700          18.300
  24440246.563                    24440252.789    24440253.137   128434462.063 6
 100078774.668 5        37.200          35.700
  20783646.234                    20783651.406    20783651.402   109218773.053 8
  85105580.519 8        50.200          48.100
 14  1  3  2 25  0.0000000  0  7G02G25G23G29G21G12G31
  23549188.836                                    23549191.895   123751849.046 7
  96430022.87344        44.500          26.500
  21360262.070                    21360271.344                   112248913.156 8
  87466777.030 7        48.700          47.900
  24467338.438                                                   128576672.499 5
                        35.200
  20221638.461                    20221645.449    20221645.270   106265418.677 8
  82804284.232 8        51.300          51.200
  24233019.289                                    24233025.805   127345314.481 6
  99230185.66643        38.800          19.000
  24459880.414                    24459887.930    24459888.219   128537642.416 6
 100159174.921 5        36.300          35.200
  20785131.969                    20785137.844    20785137.781   109226581.287 8
  85111664.852 8        50.300          48.500
 14  1  3  2 25 30.0000000  0  7G02G25G23G29G21G12G31
  23560745.086                                    23560748.496   123812579.433 7
  96477345.24644        43.900          26.100
  21373494.188                    21373503.285                   112318445.959 8
  87520958.416 7        48.600          47.900
  24458532.617                                    24458536.379   128530395.593 6
 100153611.54442        36.400          14.800
  20224423.781                    20224430.125    20224430.180   106280052.920 8
  82815687.544 8        52.000          51.100
  24214746.203                                    24214752.660   127249288.191 6
  99155360.10643        39.400          19.300
  24479530.406                    24479536.984    24479537.508   128640901.591 5
 100239636.585 5        35.700          35.900
  20786725.781                    20786731.305    20786731.359   109234956.080 8
  85118190.668 8        50.500          48.500
