     2.11           OBSERVATION DATA    G (GPS)             RINEX VERSION / TYPE
teqc  2013Mar15                         20140106 12:52:54UTCPGM / RUN BY / DATE
Linux 2.4.20-8|Pentium IV|gcc -static|Linux|486/DX+         COMMENT
   0.033      (antenna height)                              COMMENT
 +55.21279000 (latitude)                                    COMMENT
  -1.68549700 (longitude)                                   COMMENT
0144.425      (elevation)                                   COMMENT
BIT 2 OF LLI FLAGS DATA COLLECTED UNDER A/S CONDITION       COMMENT
MORP (COGO code)                                            COMMENT
MORP                                                        MARKER NAME
13299S001                                                   MARKER NUMBER
Matt King           NCL                                     OBSERVER / AGENCY
4843K3347           TRIMBLE NETR8       4.19                REC # / TYPE / VERS
221                 AOAD/M_T        NONE                    ANT # / TYPE
  3645667.8584  -107277.2886  5215053.4919                  APPROX POSITION XYZ
        0.0330        0.0000        0.0000                  ANTENNA: DELTA H/E/N
     1     1                                                WAVELENGTH FACT L1/2
     8    C1    P1    C2    P2    L1    L2    S1    S2      # / TYPES OF OBSERV
    30.0000                                                 INTERVAL
    16                                                      LEAP SECONDS
Forced Modulo Decimation to 30 seconds                      COMMENT
 SNR is mapped to RINEX snr flag value [0-9]                COMMENT
  L1 & L2: min(max(int(snr_dBHz/6), 0), 9)                  COMMENT
  2014     1     1     0     0    0.0000000     GPS         TIME OF FIRST OBS
                                                            END OF HEADER
 14  1  1  0  0  0.0000000  0  9G04G02G14G32G25G29G24G12G31
  23543820.984                                    23543827.734   123723536.802 6
  96408038.70743        40.100          19.900
  24464738.922                                    24464743.094   128562865.285 7
 100179042.02143        42.400          23.200
  21392261.992                                    21392268.156   112417012.990 7
  87597757.09645        47.500          34.500
  24837749.945                                                   130523246.538 5
                        35.300
  20853735.070                    20853744.168                   109587071.676 8
  85392625.485 8        50.300          48.500
  23734183.133                    23734189.945    23734190.234   124723785.121 7
  97187535.507 6        42.000          39.000
  22254020.125                    22254029.691                   116945827.612 7
  91126564.310 7        44.900          46.600
  20191374.289                    20191379.578    20191379.516   106106495.015 8
  82680353.957 8        52.600          51.500
  24285333.656                    24285339.707                   127620299.137 6
  99444401.939 5        36.600          33.600
 14  1  1  0  0 30.0000000  0  9G04G02G14G32G25G29G24G12G31
  23538557.352                                    23538565.215   123695880.663 6
  96386488.45443        39.900          21.100
  24449560.078                                    24449564.250   128483103.116 7
 100116889.71143        42.600          21.800
  21391803.555                                    21391809.074   112414603.251 7
  87595879.36945        47.300          34.600
  24838575.094                                                   130527582.38515
                        34.000
  20843125.750                    20843134.730                   109531318.805 8
  85349181.695 8        50.000          48.400
  23712402.297                    23712408.465    23712408.578   124609323.625 6
  97098344.760 6        41.500          39.500
  22270923.500                    22270933.008                   117034655.598 7
  91195780.896 7        44.900          46.900
  20195930.805                    20195936.680    20195936.383   106130440.350 8
  82699012.662 8        53.200          51.200
  24266090.227                    24266095.984                   127519172.953 5
  99365602.319 5        35.700          33.400
 14  1  1  0  1  0.0000000  0  9G04G02G14G32G25G29G24G12G31
  23533408.039                                    23533415.375   123668816.191 6
  96365399.26543        40.100          21.100
  24434424.578                                    24434428.633   128403565.084 7
 100054912.06343        42.500          21.700
  21391460.602                                    21391466.766   112412802.909 7
  87594476.48845        47.700          33.700
  24839505.211                                                   130532466.334 5
                        34.700
  20832592.273                    20832601.020                   109475963.498 8
  85306047.687 8        49.800          49.000
  23690648.039                    23690654.500    23690654.438   124495005.968 7
  97009266.079 6        42.100          39.600
  22287880.672                    22287890.531                   117123766.877 7
  91265218.228 7        44.900          46.400
  20200573.633                    20200578.863    20200578.918   106154837.275 8
  82718023.252 8        52.900          51.400
  24246863.375                    24246869.133                   127418134.340 6
  99286870.923 5        36.500          33.200
 14  1  1  0  1 30.0000000  0  9G04G02G14G32G25G29G24G12G31
  23528370.102                                    23528377.613   123642342.304 6
  96344770.29243        39.900          21.100
  24419331.422                                    24419336.121   128324251.475 7
  99993109.31743        42.600          22.900
  21391233.938                                    21391239.984   112411609.644 8
  87593546.66945        48.300          34.500
  24840539.164                                                   130537897.144 5
                        34.700
  20822133.469                    20822142.566                   109421004.172 8
  85263222.246 8        50.400          49.100
  23668920.727                    23668928.184    23668928.414   124380832.201 6
  96920299.517 6        41.600          39.300
  22304891.281                    22304901.199                   117213157.683 7
  91334873.366 7        45.100          46.400
  20205301.531                    20205306.645    20205306.699   106179682.585 8
  82737383.238 8        52.800          51.400
  24227652.203                    24227658.137    24227658.543   127317182.526 6
  99208207.174 5        37.100          33.800
 14  1  1  0  2  0.0000000  0  9G04G02G14G32G25G29G24G12G31
  23523444.758                                    23523452.445   123616461.336 6
  96324603.32543        40.500          20.400
  24404282.008                                    24404286.883   128245166.099 7
  99931484.38343        42.600          22.200
  21391122.586                                    21391128.281   112411024.879 8
  87593090.99745        48.100          34.200
  24841675.469                                                   130543874.764 5
                        33.500
  20811750.969                    20811760.184                   109366442.519 8
  85220706.681 8        50.500          49.500
  23647222.773                    23647229.645    23647229.348   124266805.581 7
  96831447.625 6        42.600          39.000
  22321954.844                    22321964.645                   117302827.507 7
  91404745.926 7        45.400          45.600
  20210114.445                    20210120.379    20210120.316   106204975.761 8
  82757092.205 8        53.100          51.300
  24208459.102                    24208464.566    24208465.207   127216320.072 6
  99129613.057 5        37.200          33.700
 14  1  1  0  2 30.0000000  0  9G04G02G14G32G25G29G24G12G31
  23518633.516                                    23518640.207   123591176.310 6
  96304900.71643        39.800          20.400
  24389277.055                                    24389281.109   128166313.439 7
  99870040.78343        42.600          23.000
  21391127.203                                    21391133.250   112411050.079 8
  87593110.63345        48.300          34.100
  24842917.586                                                   130550400.387 5
                        33.500
  20801444.031                    20801452.836                   109312280.918 8
  85178502.849 8        50.900          49.400
  23625552.750                    23625559.621    23625559.617   124152930.515 7
  96742713.806 6        42.500          39.300
  22339071.727                    22339081.410                   117392776.663 7
  91474836.151 7        45.500          46.300
  20215013.273                    20215018.563    20215018.266   106230717.902 8
  82777151.016 8        52.700          51.300
  24189282.781                    24189289.184    24189289.824   127115550.031 6
  99051090.962 5        37.700          33.700
 14  1  1  0  3  0.0000000  0  9G04G02G14G32G25G29G24G12G31
  23513934.703                                    23513941.980   123566484.918 6
  96285660.67443        39.700          19.300
  24374315.766                                    24374320.113   128087692.092 7
  99808777.42943        42.700          22.500
  21391247.953                                    21391253.590   112411682.079 8
  87593603.09945        48.400          34.000
  24844262.016                                                   130557470.025 5
                        31.800
  20791213.164                    20791222.438                   109258516.532 8
  85136608.530 8        50.400          50.000
  23603911.430                    23603918.828    23603918.648   124039205.700 7
  96654097.084 6        42.600          39.900
  22356241.484                    22356250.172                   117482999.942 7
  91545139.969 7        44.900          46.100
  20219995.953                    20220001.887    20220001.590   106256903.794 8
  82797555.608 8        52.100          51.100
  24170124.836                    24170130.652    24170131.000   127014870.438 6
  98972639.345 5        38.200          34.500
 14  1  1  0  3 30.0000000  0  9G04G02G14G32G25G29G24G12G31
  23509349.766                                    23509357.512   123542392.216 6
  96266887.14043        39.800          20.100
  24359400.313                                    24359404.309   128009308.607 7
  99747699.43343        43.300          22.300
  21391483.914                                    21391489.902   112412924.459 8
  87594571.17245        48.200          34.100
  24845712.328                                                   130565086.848 5
                        31.900
  20781058.289                    20781067.504                   109205153.889 8
  85095027.255 8        50.400          49.700
  23582299.789                    23582307.715    23582307.359   123925637.352 7
  96565602.271 6        42.400          40.100
  22373462.148                    22373471.949                   117573499.737 7
  91615659.261 7        44.900          46.000
  20225064.117                    20225069.406    20225069.109   106283536.118 8
  82818308.069 8        52.800          50.900
  24150984.438                    24150989.434    24150989.898   126914286.418 6
  98894262.200 5        38.800          33.800
 14  1  1  0  4  0.0000000  0  9G04G02G14G32G25G29G24G12G31
  23504878.375                                    23504886.707   123518898.503 6
  96248580.36243        40.500          19.300
  24344529.984                                    24344534.508   127931164.704 7
  99686808.10644        43.200          24.800
  21391836.578                                    21391842.391   112414776.624 8
  87596014.41645        48.800          35.200
  24847265.047                                                   130573249.100 4
                        29.600
  20770980.031                    20770989.363                   109152192.563 8
  85053758.705 8        50.600          49.900
  23560719.586                    23560726.105    23560725.984   123812226.809 7
  96477230.437 6        42.500          40.000
  22390736.164                    22390745.730                   117664274.009 7
  91686392.430 7        43.600          46.000
  20230216.680                    20230222.086    20230221.848   106310612.640 8
  82839406.660 8        52.400          51.200
  24131861.867                    24131867.508    24131867.914   126813798.631 6
  98815960.042 5        38.600          34.600
 14  1  1  0  4 30.0000000  0  9G04G02G14G32G25G29G24G12G31
  23500521.781                                    23500529.762   123496004.138 6
  96230740.60443        40.300          19.600
  24329705.805                                    24329709.918   127853261.731 7
  99626104.53743        42.900          23.900
  21392305.016                                    21392310.359   112417237.404 7
  87597931.90545        47.800          34.400
  24848921.789                                                   130581955.273 5
                        30.300
  20760978.727                    20760987.004                   109099632.296 8
  85012802.657 8        51.600          50.000
  23539167.234                    23539174.926    23539175.098   123698975.454 6
  96388982.645 6        41.000          40.000
  22408061.375                    22408071.410                   117755320.038 7
  91757337.364 7        44.100          46.000
  20235453.078                    20235459.070    20235458.773   106338131.968 8
  82860850.291 8        52.000          51.400
  24112758.469                    24112763.758    24112764.105   126713407.409 6
  98737733.127 5        39.000          35.500
 14  1  1  0  5  0.0000000  0  9G04G02G14G32G25G29G24G12G31
  23496279.883                                    23496287.980   123473710.839 6
  96213369.22943        40.500          19.900
  24314927.063                                    24314931.996   127775603.319 7
  99565591.52543        43.100          23.600
  21392889.063                                    21392894.875   112420307.667 8
  87600324.30945        48.600          34.400
  24850681.242                                                   130591205.655 4
                        29.400
  20751053.375                    20751062.473                   109047474.521 8
  84972160.250 8        50.700          49.100
  23517648.141                    23517655.188    23517655.125   123585886.485 7
  96300861.393 6        42.000          39.600
  22425438.508                    22425448.484                   117846637.171 7
  91828493.543 7        43.000          46.200
  20240774.000                    20240779.875    20240779.930   106366093.320 8
  82882638.355 8        52.300          51.100
  24093673.477                    24093679.352    24093679.230   126613114.898 6
  98659583.119 5        39.200          35.200
 14  1  1  0  5 30.0000000  0  9G04G02G14G32G25G29G24G12G31
  23492151.742                                    23492159.898   123452019.676 6
  96196467.00943        40.200          19.900
  24300196.203                                    24300200.492   127698191.716 7
  99505270.83743        42.800          22.900
  21393589.391                                    21393595.027   112423987.339 8
  87603191.58145        48.100          33.900
  24852545.734                                                   130600999.283 5
                        30.700
  20741204.508                    20741213.547                   108995719.832 8
  84931831.927 8        50.800          49.600
  23496158.594                    23496166.461    23496166.281   123472962.408 6
  96212868.623 6        41.100          39.800
  22442867.422                    22442876.461                   117938223.377 7
  91899859.396 7        42.700          46.000
  20246178.688                    20246184.270    20246184.090   106394495.107 8
  82904769.620 8        52.200          51.300
  24074607.328                    24074613.027    24074613.258   126512922.618 6
  98581511.226 5        39.400          35.100
 14  1  1  0  6  0.0000000  0  9G04G02G14G32G25G29G24G12G31
  23488140.039                                    23488146.672   123430932.091 6
  96180035.13143        39.600          19.900
  24285513.078                                    24285517.602   127621029.910 6
  99445144.79543        41.800          22.500
  21394405.477                                    21394411.113   112428276.417 7
  87606533.71345        47.800          34.700
  24854512.836                                                   130611335.512 4
                        29.400
  20731432.852                    20731442.008                   108944368.918 8
  84891818.241 8        49.800          49.000
  23474701.969                    23474709.191    23474709.129   123360205.736 6
  96125006.282 6        40.400          40.300
  22460346.758                    22460356.266                   118030077.457 7
  91971433.980 7        43.300          45.700
  20251667.078                    20251672.953    20251672.832   106423336.237 8
  82927243.230 8        52.100          51.500
  24055561.180                    24055565.707    24055565.938   126412832.048 6
  98503518.592 5        39.900          35.100
 14  1  1  0  6 30.0000000  0  9G04G02G14G32G25G29G24G12G31
  23484241.891                                    23484248.289   123410448.514 6
  96164073.92443        39.500          19.000
  24270877.750                                    24270882.039   127544119.787 7
  99385214.85243        42.000          23.000
  21395337.313                                    21395343.125   112433174.420 7
  87610350.33245        47.900          34.100
  24856583.805                                                   130622213.294 5
                        30.800
  20721738.250                    20721746.762                   108893421.933 8
  84852119.302 8        50.200          49.300
  23453277.547                    23453284.184    23453284.473   123247618.132 6
  96037275.702 6        40.800          40.100
  22477876.578                    22477885.676                   118122197.510 7
  92043215.812 7        42.300          45.200
  20257238.492                    20257244.543    20257244.422   106452615.084 8
  82950057.916 8        52.400          50.700
  24036534.203                    24036538.906    24036538.727   126312844.419 6
  98425606.163 5        39.500          35.200
 14  1  1  0  7  0.0000000  0  9G04G02G14G32G25G29G24G12G31
  23480459.742                                    23480466.023   123390571.078 6
  96148585.04043        39.900          19.000
  24256291.719                                    24256294.484   127467465.058 7
  99325483.92843        42.100          23.400
  21396385.680                                    21396391.082   112438682.128 7
  87614642.05745        47.800          34.500
  24858755.398                                                   130633632.850 5
                        30.800
  20712120.539                    20712129.344                   108842880.550 8
  84812736.412 8        50.400          49.300
  23431885.617                    23431892.840    23431892.660   123135203.129 6
  95949679.606 6        41.000          39.900
  22495456.688                    22495465.844                   118214583.014 7
  92115204.497 7        43.400          45.600
  20262893.953                    20262899.477    20262899.297   106482332.068 8
  82973214.005 8        52.400          50.900
  24017527.438                    24017532.434    24017532.430   126212962.073 6
  98347775.770 5        39.600          35.000
 14  1  1  0  7 30.0000000  0  9G04G02G14G32G25G29G24G12G31
  23476792.805                                    23476799.438   123371301.182 6
  96133569.56043        40.600          21.100
  24241752.391                                    24241756.973   127391068.284 7
  99265953.99843        42.000          23.500
  21397549.563                                    21397555.551   112444799.814 7
  87619409.08145        47.400          34.100
  24861031.609                                                   130645593.788 5
                        30.700
  20702580.008                    20702588.871                   108792745.673 8
  84773670.269 8        50.300          50.000
  23410527.313                    23410534.359    23410534.473   123022963.188 6
  95862219.931 6        40.700          40.200
  22513087.055                    22513096.738                   118307233.163 7
  92187399.387 7        43.600          45.000
  20268631.852                    20268636.906    20268637.020   106512485.882 8
  82996710.489 8        52.900          50.300
  23998540.602                    23998545.773    23998546.121   126113186.842 6
  98270028.862 6        39.800          36.500
 14  1  1  0  8  0.0000000  0  9G04G02G14G32G25G29G24G12G31
  23473241.102                                    23473248.496   123352640.294 6
  96119028.58843        40.400          20.400
  24227264.133                                    24227268.773   127314932.969 7
  99206627.81243        42.500          22.900
  21398829.797                                    21398835.727   112451527.855 7
  87624651.70145        47.200          34.300
  24863411.625                                                   130658095.687 5
                        31.000
  20693117.133                    20693126.523                   108743018.413 8
  84734921.763 8        50.500          49.600
  23389202.766                    23389209.695    23389209.457   122910901.371 6
  95774899.047 6        41.100          40.500
  22530768.070                    22530777.754                   118400146.381 7
  92259799.281 7        42.600          45.100
  20274452.703                    20274458.051    20274457.871   106543075.259 8
  83020546.365 8        52.400          50.900
  23979574.719                    23979579.715    23979579.770   126013520.603 6
  98192366.870 6        39.800          36.400
 14  1  1  0  8 30.0000000  0  9G04G02G14G32G25G29G24G12G31
  23469806.438                                    23469812.953   123334587.715 6
  96104961.67643        40.900          21.100
  24212825.914                                    24212830.965   127239059.434 7
  99147505.62643        42.200          22.800
  21400226.320                                    21400232.016   112458864.288 7
  87630368.39545        47.800          33.900
  24865892.883                                                   130671136.142 5
                        33.200
  20683731.992                    20683740.680                   108693697.583 8
  84696489.951 8        49.800          49.800
  23367911.922                    23367918.676    23367918.789   122799018.348 6
  95687717.483 6        41.400          40.200
  22548498.773                    22548508.223                   118493319.573 7
  92332401.741 7        43.500          44.500
  20280356.172                    20280361.813    20280361.633   106574097.538 8
  83044719.572 8        53.000          51.200
  23960629.414                    23960635.523    23960634.934   125913963.363 6
  98114789.809 6        40.500          36.700
 14  1  1  0  9  0.0000000  0  9G04G02G14G32G25G29G24G12G31
  23466487.195                                    23466493.828   123317145.172 6
  96091370.09743        40.800          21.300
  24198438.602                                    24198443.477   127163451.421 6
  99088590.34143        40.800          22.600
  21401738.617                                    21401743.844   112466809.776 7
  87636559.67545        46.900          34.400
  24868475.992                                                   130684715.062 5
                        32.600
  20674423.984                    20674432.965                   108644784.711 8
  84658376.027 8        49.800          49.500
  23346655.406                    23346662.629    23346662.801   122687317.488 6
  95600677.868 6        41.300          39.600
  22566278.078                    22566287.527                   118586752.112 7
  92405206.293 7        42.700          45.000
  20286341.820                    20286347.344    20286347.281   106605553.068 8
  83069230.365 8        52.600          50.700
  23941705.234                    23941710.934    23941710.695   125814517.458 6
  98037299.507 6        40.700          36.300
 14  1  1  0  9 30.0000000  0  9G04G02G14G32G25G29G24G12G31
  23463284.250                                    23463291.234   123300313.761 6
  96078254.70943        40.000          22.300
  24184101.328                                    24184105.734   127088111.668 6
  99029884.06643        41.100          22.500
  21403365.891                                    21403371.176   112475364.471 7
  87643225.66845        47.800          34.000
  24871161.469                                                   130698831.934 5
                        30.700
  20665194.227                    20665202.973                   108596280.707 8
  84620580.703 8        49.800          49.600
  23325435.359                    23325442.055    23325442.051   122575801.153 6
  95513782.048 6        41.800          39.900
  22584106.344                    22584116.203                   118680442.666 7
  92478211.887 7        43.200          44.600
  20292409.695                    20292414.984    20292415.039   106637440.412 8
  83094077.648 8        52.600          50.400
  23922802.781                    23922808.246    23922808.477   125715184.304 6
  97959897.065 6        40.200          37.000
 14  1  1  0 10  0.0000000  0  9G04G02G14G32G25G29G24G12G31
  23460198.422                                    23460204.762   123284094.252 6
  96065616.14643        39.900          21.300
  24169816.313                                    24169821.246   127013042.100 6
  98971388.34744        40.900          24.400
  21405109.883                                    21405115.285   112484527.793 7
  87650365.91345        47.200          34.800
  24873951.430                                                   130713485.406 5
                        33.100
  20656042.063                    20656050.691                   108548185.603 8
  84583104.004 8        50.200          49.100
  23304249.398                    23304256.973    23304256.441   122464471.550 6
  95427031.726 6        40.500          40.900
  22601984.336                    22601993.668                   118774389.275 7
  92551417.012 7        43.000          44.900
  20298559.922                    20298564.859    20298564.738   106669757.556 8
  83119259.834 8        52.600          50.900
  23903922.813                    23903928.395    23903927.980   125615965.436 6
  97882583.674 6        40.800          37.800
 14  1  1  0 10 30.0000000  0  9G04G02G14G32G25G29G24G12G31
  23457228.344                                    23457235.152   123268488.365 6
  96053455.73043        39.800          21.700
  24155583.813                                    24155587.750   126938246.346 6
  98913105.96144        40.800          24.500
  21406969.445                                    21406975.199   112494299.960 7
  87657980.57845        47.000          34.000
  24876841.094                                                   130728675.461 5
                        33.000
  20646967.281                    20646976.730                   108500500.944 8
  84545947.134 8        49.400          49.300
  23283100.648                    23283107.227    23283107.457   122353331.866 6
  95340429.408 6        41.500          40.500
  22619910.453                    22619919.785                   118868591.596 7
  92624821.392 7        43.800          44.700
  20304790.859                    20304797.027    20304796.848   106702504.395 8
  83144776.846 8        52.300          50.400
  23885063.586                    23885069.871    23885069.516   125516863.393 6
  97805361.304 6        40.800          38.100
 14  1  1  0 11  0.0000000  0  9G04G02G14G32G25G29G24G12G31
  23454375.281                                    23454382.617   123253496.958 6
  96041774.13543        40.200          21.500
  24141402.383                                    24141407.316   126863726.723 7
  98855038.74444        42.000          24.600
  21408944.844                                    21408950.715   112504680.745 7
  87666069.49645        47.300          34.300
  24879835.000                                                   130744401.163 5
                        33.300
  20637971.906                    20637980.711                   108453227.120 8
  84509110.395 8        50.200          49.200
  23261987.414                    23261994.578    23261994.574   122242384.223 6
  95253976.731 6        41.900          40.500
  22637885.703                    22637894.332                   118963047.796 7
  92698423.602 7        43.600          44.500
  20311104.172                    20311110.047    20311109.809   106735679.710 8
  83170627.741 8        52.100          50.600
  23866227.039                    23866232.504    23866232.617   125417879.103 6
  97728230.697 6        40.700          37.700
 14  1  1  0 11 30.0000000  0  9G04G02G14G32G25G29G24G12G31
  23451639.516                                    23451646.441   123239122.131 6
  96030572.98443        39.000          21.100
  24127275.641                                    24127279.402   126789487.238 7
  98797189.83743        42.000          22.600
  21411036.313                                    21411041.891   112515671.357 7
  87674633.60445        47.600          34.500
  24882929.078                                                   130760662.942 5
                        34.500
  20629054.422                    20629063.402                   108406366.198 8
  84472595.395 8        49.900          49.000
  23240911.859                    23240918.789    23240918.609   122131632.632 6
  95167676.813 6        41.400          39.900
  22655908.031                    22655917.246                   119057757.609 7
  92772223.422 7        43.800          44.100
  20317498.617                    20317504.844    20317504.488   106769283.688 8
  83196812.655 8        52.300          49.900
  23847415.070                    23847419.773    23847420.121   125319015.866 6
  97651194.419 6        41.100          37.700
 14  1  1  0 12  0.0000000  0  9G04G02G14G32G25G29G24G12G31
  23449021.117                                    23449028.570   123225362.777 6
  96019851.43043        39.400          20.600
  24113201.086                                    24113205.023   126715528.450 6
  98739559.61943        41.400          22.900
  21413243.789                                    21413248.664   112527269.500 7
  87683671.11245        47.100          35.100
  24886125.125                                                   130777457.984 5
                        34.900
  20620215.469                    20620224.566                   108359916.741 8
  84436401.014 8        49.500          49.100
  23219874.109                    23219881.801    23219881.680   122021077.459 6
  95081529.940 6        41.600          40.500
  22673977.961                    22673987.996                   119152717.820 7
  92846218.364 7        43.300          44.000
  20323974.086                    20323980.488    20323980.367   106803312.898 8
  83223328.917 8        52.300          50.300
  23828624.336                    23828630.211    23828630.207   125220273.304 6
  97574252.178 6        41.300          38.300
 14  1  1  0 12 30.0000000  0  9G04G02G14G32G25G29G24G12G31
  23446520.578                                    23446527.738   123212219.900 6
  96009610.23543        41.100          20.600
  24099180.203                                    24099185.430   126641853.153 6
  98682150.31943        40.200          22.000
  21415566.172                                    21415572.043   112539475.144 7
  87693181.99845        47.800          34.000
  24889421.797                                                   130794785.560 5
                        35.800
  20611454.789                    20611464.063                   108313879.622 8
  84400527.936 8        50.700          49.100
  23198874.320                    23198881.191    23198881.188   121910721.470 6
  94995538.296 6        41.400          39.600
  22692095.523                    22692105.031                   119247926.546 7
  92920406.963 7        43.700          44.300
  20330530.719                    20330536.535    20330536.297   106837766.156 8
  83250175.600 8        52.200          49.800
  23809857.250                    23809862.715    23809863.004   125121653.166 6
  97497405.320 6        41.600          38.000
 14  1  1  0 13  0.0000000  0  9G04G02G14G32G25G29G24G12G31
  23444136.234                                    23444143.277   123199693.695 6
  95999849.55843        39.400          21.100
  24085215.992                                    24085219.988   126568463.353 6
  98624963.50344        40.200          24.100
  21418003.875                                    21418009.805   112552287.353 7
  87703165.52545        47.000          34.300
  24892820.945                                                   130812644.124 5
                        35.300
  20602772.492                    20602781.707                   108268254.819 8
  84364976.135 8        49.600          49.400
  23177912.000                    23177919.809    23177919.980   121800566.305 7
  94909703.124 6        42.300          40.300
  22710259.938                    22710269.914                   119343382.365 7
  92994788.088 7        43.300          43.600
  20337166.586                    20337172.227    20337172.105   106872641.728 8
  83277351.373 8        52.100          50.400
  23791113.648                    23791119.992    23791119.754   125023156.442 6
  97420654.630 6        41.300          38.500
 14  1  1  0 13 30.0000000  0  9G04G02G14G32G25G29G24G12G31
  23441870.211                                    23441878.191   123187786.102 6
  95990570.91743        40.500          21.100
  24071304.258                                    24071309.191   126495362.445 6
  98568001.80343        39.500          22.800
  21420557.211                                    21420563.141   112565706.687 8
  87713622.14245        48.200          33.700
  24896321.008                                                   130831033.573 6
                        36.000
  20594169.102                    20594178.199                   108223043.865 8
  84329746.827 8        50.300          50.200
  23156990.234                    23156996.344    23156997.102   121690615.410 7
  94824027.121 6        42.900          40.200
  22728472.109                    22728481.500                   119439084.266 7
  93069360.977 7        43.700          44.100
  20343884.078                    20343889.426    20343889.246   106907939.828 8
  83304856.383 8        52.100          51.000
  23772394.375                    23772401.129    23772400.715   124924785.833 6
  97344002.212 6        41.600          38.600
 14  1  1  0 14  0.0000000  0  9G04G02G14G32G25G29G24G12G31
  23439722.648                                    23439729.574   123176498.494 6
  95981775.39243        40.200          20.600
  24057449.906                                    24057454.547   126422554.000 6
  98511267.98943        39.400          23.400
  21423226.914                                    21423232.668   112579733.227 7
  87724551.89745        47.200          33.900
  24899921.344                                                   130849953.656 5
                        35.900
  20585644.820                    20585653.684                   108178248.048 8
  84294840.997 8        49.800          49.500
  23136106.250                    23136113.121    23136112.824   121580871.921 7
  94738512.734 6        42.700          40.500
  22746730.391                    22746739.781                   119535031.297 7
  93144124.861 7        43.100          44.400
  20350681.172                    20350686.754    20350686.516   106943659.881 8
  83332690.197 8        52.500          50.400
  23753699.891                    23753706.234    23753706.348   124826543.531 6
  97267449.767 6        40.800          38.800
 14  1  1  0 14 30.0000000  0  9G04G02G14G32G25G29G24G12G31
  23437692.813                                    23437699.445   123165831.771 6
  95973463.66143        40.500          20.100
  24043650.352                                    24043655.871   126350040.592 6
  98454764.08243        40.600          22.500
  21426011.516                                    21426017.445   112594367.045 7
  87735954.85945        47.600          34.200
  24903622.117                                                   130869403.873 5
                        35.400
  20577199.594                    20577208.867                   108133868.264 8
  84260259.349 8        50.700          49.400
  23115262.688                    23115269.734    23115269.965   121471338.737 7
  94653162.232 6        43.000          41.300
  22765034.820                    22765044.563                   119631223.037 7
  93219079.437 7        43.300          44.000
  20357558.633                    20357564.098    20357564.035   106979800.745 8
  83360851.911 8        52.300          50.300
  23735029.859                    23735035.266    23735035.789   124728431.501 6
  97190998.845 6        41.600          38.100
 14  1  1  0 15  0.0000000  0  9G04G02G14G32G25G29G24G12G31
  23435781.078                                    23435787.887   123155785.817 6
  95965635.65843        40.100          20.100
  24029908.969                                    24029912.848   126277823.442 6
  98398491.00743        40.400          23.000
  21428911.273                                    21428917.203   112609606.816 7
  87747829.98645        47.900          33.600
  24907423.531                                                   130889381.911 5
                        35.100
  20568833.508                    20568842.547                   108089903.937 8
  84226001.434 8        50.800          49.500
  23094459.672                    23094466.133    23094466.246   121362016.823 7
  94567976.347 6        42.400          41.100
  22783385.219                    22783395.020                   119727656.100 7
  93294222.052 7        43.100          44.500
  20364515.680                    20364521.203    20364521.316   107016359.477 8
  83389339.236 8        52.700          50.800
  23716384.422                    23716390.297    23716390.352   124630450.392 6
  97114649.936 6        41.100          39.200
 14  1  1  0 15 30.0000000  0  9G04G02G14G32G25G29G24G12G31
  23433988.250                                    23433994.121   123146361.804 6
  95958292.26643        40.900          21.100
  24016223.109                                    24016227.281   126205906.147 6
  98342451.59744        40.500          24.200
  21431927.195                                    21431932.598   112625452.353 7
  87760177.15345        47.800          33.700
  24911324.523                                                   130909887.330 5
                        33.700
  20560546.656                    20560555.695                   108046356.393 8
  84192068.295 8        51.000          50.200
  23073697.578                    23073702.809    23073703.156   121252909.744 7
  94482957.869 6        42.200          40.200
  22801781.711                    22801791.805                   119824330.248 7
  93369552.534 7        43.300          44.500
  20371552.680                    20371557.852    20371557.848   107053336.727 8
  83418152.683 8        52.300          50.600
  23697765.078                    23697770.777    23697770.715   124532602.486 7
  97038404.820 6        42.300          39.000
 14  1  1  0 16  0.0000000  0  9G04G02G14G32G25G29G24G12G31
  23432313.469                                    23432319.926   123137559.329 6
  95951433.20143        41.200          21.300
  24002595.305                                    24002599.477   126134290.223 6
  98286647.03443        40.200          22.900
  21435057.438                                    21435063.191   112641902.601 8
  87772995.51545        48.100          33.400
  24915327.969                                                   130930918.148 5
                        34.400
  20552339.055                    20552347.918                   108003225.038 8
  84158459.453 8        50.800          49.700
  23052975.555                    23052982.074    23052982.188   121144018.516 7
  94398107.577 6        42.200          40.200
  22820223.453                    22820233.254                   119921242.604 7
  93445068.627 7        42.700          44.600
  20378667.805                    20378673.621    20378673.441   107090729.413 8
  83447289.837 8        53.000          50.200
  23679169.930                    23679176.098    23679176.035   124434888.163 7
  96962263.797 6        42.100          38.900
 14  1  1  0 16 30.0000000  0  9G04G02G14G32G25G29G24G12G31
  23430757.227                                    23430762.688   123129380.844 6
  95945060.37443        41.100          21.100
  23989025.305                                    23989029.711   126062979.745 6
  98231080.47244        41.300          25.300
  21438302.813                                    21438308.684   112658958.566 8
  87786285.87345        48.200          33.600
  24919429.664                                                   130952475.048 5
                        34.300
  20544211.094                    20544220.133                   107960512.255 8
  84125176.769 8        51.500          49.300
  23032296.266                    23032303.078    23032303.484   121035347.284 6
  94313428.731 6        41.600          40.200
  22838711.078                    22838720.117                   120018393.723 7
  93520770.768 7        42.800          44.600
  20385862.648                    20385868.113    20385867.934   107128538.040 8
  83476751.094 8        52.800          50.300
  23660602.203                    23660607.844    23660607.664   124337311.158 6
  96886229.764 6        41.500          39.400
 14  1  1  0 17  0.0000000  0  9G04G02G14G32G25G29G24G12G31
  23429318.953                                    23429325.703   123121826.593 7
  95939173.93043        42.000          20.600
  23975512.875                                    23975517.867   125991976.765 6
  98175753.52043        41.500          23.000
  21441663.695                                    21441669.859   112676619.395 7
  87800047.55145        47.800          33.300
  24923631.469                                                   130974556.489 5
                        34.300
  20536162.930                    20536171.266                   107918218.089 8
  84092220.279 8        51.600          49.900
  23011658.000                    23011665.867    23011665.688   120926898.070 6
  94228922.869 6        41.600          40.500
  22857243.148                    22857252.480                   120115780.843 7
  93596656.807 7        42.800          44.300
  20393136.063                    20393141.293    20393141.406   107166761.119 8
  83506535.318 8        52.200          50.400
  23642059.984                    23642065.273    23642065.797   124239872.684 7
  96810303.686 6        42.100          39.200
 14  1  1  0 17 30.0000000  0  9G04G02G14G32G25G29G24G12G31
  23427999.953                                    23428007.113   123114895.918 7
  95933773.42343        42.200          20.100
  23962061.227                                    23962065.047   125921282.620 6
  98120667.23144        41.300          24.000
  21445139.453                                    21445145.090   112694883.386 8
  87814279.21945        48.100          33.500
  24927934.109                                                   130997160.157 5
                        35.500
  20528194.063                    20528202.750                   107876341.895 8
  84059589.490 8        51.600          49.700
  22991063.758                    22991071.566    22991071.504   120818672.604 6
  94144591.353 6        41.600          41.100
  22875820.516                    22875829.496                   120213402.042 6
  93672725.251 7        41.700          44.300
  20400488.227                    20400493.984    20400493.746   107205396.313 8
  83536640.660 8        52.400          50.100
  23623544.766                    23623549.938    23623549.992   124142573.203 6
  96734485.927 6        41.700          38.700
 14  1  1  0 18  0.0000000  0  9G04G02G14G32G25G29G24G12G31
  23426800.227                                    23426807.035   123108589.809 7
  95928859.56643        42.300          20.600
  23948667.109                                    23948671.926   125850900.253 6
  98065823.87843        41.600          21.500
  21448728.922                                    21448735.262   112713750.501 7
  87828980.87145        47.500          32.800
  24932333.156                                                   131020285.251 5
                        34.200
  20520304.984                    20520313.730                   107834884.655 8
  84027285.144 8        51.700          49.600
  22970512.391                    22970519.789    22970520.020   120710673.190 7
  94060435.993 6        42.000          41.100
  22894440.813                    22894449.500                   120311255.675 7
  93748974.819 7        42.100          43.900
  20407918.328                    20407923.852    20407923.789   107244442.652 8
  83567066.379 8        52.300          50.100
  23605056.398                    23605061.805    23605061.684   124045414.855 6
  96658778.138 6        41.300          39.000
 14  1  1  0 18 30.0000000  0  9G04G02G14G32G25G29G24G12G31
  23425719.609                                    23425726.066   123102909.813 6
  95924433.60643        41.800          21.500
  23935333.797                                    23935339.141   125780833.232 6
  98011226.24444        41.800          24.300
  21452434.734                                    21452440.723   112733220.654 7
  87844152.40845        47.600          33.900
  24936833.148                                                   131043931.767 5
                        34.300
  20512496.094                    20512505.074                   107793847.928 8
  83995308.473 8        51.500          50.200
  22950004.273                    22950011.496    22950011.844   120602903.445 6
  93976459.600 6        41.500          40.500
  22913105.523                    22913116.027                   120409341.742 6
  93825405.494 7        41.600          44.900
  20415426.922                    20415432.680    20415432.559   107283899.437 8
  83597811.920 8        51.800          50.800
  23586594.742                    23586599.914    23586599.910   123948400.027 6
  96583182.178 6        41.700          39.400
 14  1  1  0 19  0.0000000  0  9G04G02G14G32G25G29G24G12G31
  23424757.828                                    23424764.637   123097856.391 6
  95920495.88543        41.200          21.800
  23922060.945                                    23922065.996   125711084.172 7
  97956876.38443        42.300          23.800
  21456254.383                                    21456260.313   112753293.404 7
  87859793.49845        47.600          33.600
  24941431.430                                                   131068098.278 5
                        33.700
  20504766.977                    20504775.840                   107753232.083 8
  83963659.759 8        51.600          50.200
  22929540.578                    22929547.684    22929547.973   120495365.432 6
  93892663.780 6        41.600          40.700
  22931814.938                    22931824.328                   120507658.336 6
  93902015.800 7        41.700          44.900
  20423012.992                    20423019.043    20423018.863   107323766.069 8
  83628876.827 8        51.900          50.200
  23568161.750                    23568166.746    23568166.449   123851530.699 6
  96507699.583 6        41.000          39.200
 14  1  1  0 19 30.0000000  0  9G04G02G14G32G25G29G24G12G31
  23423914.711                                    23423921.520   123093427.992 6
  95917045.17043        40.800          20.600
  23908848.969                                    23908853.609   125641653.445 6
  97902774.55244        41.400          24.400
  21460188.469                                    21460194.105   112773966.331 7
  87875902.27045        47.200          33.300
  24946129.242                                                   131092781.764 5
                        32.000
  20497117.781                    20497127.113                   107713035.815 8
  83932337.998 8        51.300          49.900
  22909120.813                    22909128.328    22909128.559   120388059.888 6
  93809049.100 6        41.100          41.100
  22950567.430                    22950576.938                   120606202.209 6
  93978803.217 7        41.700          44.300
  20430677.125                    20430682.707    20430682.469   107364038.928 8
  83660258.271 8        52.100          49.800
  23549755.234                    23549760.289    23549760.227   123754806.479 6
  96432330.063 6        40.800          38.600
 14  1  1  0 20  0.0000000  0  9G04G02G14G32G25G29G24G12G31
  23423191.883                                    23423199.160   123089627.811 6
  95914083.98243        40.200          20.900
  23895698.906                                    23895702.551   125572546.274 7
  97848924.84544        42.800          25.300
  21464236.797                                    21464243.020   112795241.588 7
  87892480.38845        47.300          33.100
  24950925.234                                                   131117983.596 5
                        33.000
  20489549.508                    20489558.137                   107673262.309 8
  83901345.664 8        51.400          50.200
  22888745.828                    22888753.695    22888753.633   120280992.221 6
  93725619.771 6        41.700          41.100
  22969362.734                    22969372.652                   120704973.974 6
  94055768.209 7        41.300          44.300
  20438418.227                    20438423.926    20438423.746   107404719.898 8
  83691957.727 8        51.600          50.200
  23531377.078                    23531382.250    23531382.539   123658231.923 6
  96357077.173 6        40.800          39.000
 14  1  1  0 20 30.0000000  0  9G04G02G14G32G25G29G24G12G31
  23422587.773                                    23422594.816   123086453.708 6
  95911610.66643        40.200          20.400
  23882608.852                                    23882613.375   125503762.309 7
  97795326.97744        42.200          24.100
  21468399.008                                    21468405.172   112817115.779 7
  87909525.19745        46.000          33.500
  24955817.328                                                   131143700.190 5
                        30.500
  20482061.109                    20482070.031                   107633909.407 8
  83870681.068 8        50.200          49.900
  22868417.078                    22868425.180    22868424.941   120174161.747 6
  93642375.271 6        41.300          41.000
  22988201.523                    22988210.563                   120803970.358 6
  94132908.231 7        41.100          44.300
  20446236.305                    20446242.238    20446242.410   107445804.491 8
  83723971.695 8        51.700          50.300
  23513028.164                    23513033.746    23513033.391   123561806.046 6
  96281940.138 6        41.400          39.000
 14  1  1  0 21  0.0000000  0  9G04G02G14G32G25G29G24G12G31
  23422102.945                                    23422110.633   123083908.406 6
  95909627.30843        39.600          20.900
  23869582.398                                    23869587.039   125435306.793 7
  97741985.05444        42.500          26.200
  21472676.086                                    21472681.957   112839590.437 7
  87927037.91345        47.000          33.200
  24960810.781                                                   131169932.578 5
                        32.000
  20474652.516                    20474661.613                   107594980.111 8
  83840346.560 8        51.400          50.200
  22848134.164                    22848141.563    22848141.676   120067573.692 7
  93559319.675 6        42.600          40.900
  23007082.852                    23007092.242                   120903191.509 6
  94210223.415 7        41.100          44.200
  20454131.180                    20454136.938    20454136.816   107487294.250 8
  83756301.372 8        51.400          50.400
  23494708.234                    23494713.582    23494713.402   123465532.841 6
  96206922.061 6        41.900          38.900
 14  1  1  0 21 30.0000000  0  9G04G02G14G32G25G29G24G12G31
  23421737.789                                    23421745.184   123081991.069 6
  95908133.26943        39.800          21.300
  23856618.945                                    23856623.117   125367180.721 7
  97688899.84844        42.600          24.600
  21477066.563                                    21477072.551   112862663.656 7
  87945017.03245        46.600          33.500
  24965899.758                                                   131196678.054 5
                        33.200
  20467325.102                    20467334.141                   107556473.549 8
  83810341.459 8        50.300          50.400
  22827898.008                    22827904.293    22827904.465   119961228.745 7
  93476453.517 6        42.500          40.700
  23026005.813                    23026015.086                   121002635.098 6
  94287711.910 7        41.300          44.100
  20462103.367                    20462109.301    20462109.063   107529186.216 8
  83788944.466 8        51.200          50.000
  23476417.430                    23476422.426    23476422.422   123369412.817 6
  96132023.344 6        41.800          39.700
 14  1  1  0 22  0.0000000  0  9G04G02G14G32G25G29G24G12G31
  23421493.617                                    23421500.250   123080702.558 6
  95907129.24443        40.800          20.900
  23843718.320                                    23843722.316   125299386.805 7
  97636073.47044        42.800          26.800
  21481571.102                                    21481576.914   112886335.107 7
  87963462.30645        46.600          33.600
  24971087.414                                                   131223936.052 5
                        33.800
  20460078.031                    20460087.070                   107518390.669 8
  83780666.491 8        50.800          50.500
  22807707.914                    22807714.492    22807714.547   119855130.072 7
  93393779.259 6        42.600          40.500
  23044971.656                    23044981.340                   121102299.650 6
  94365372.571 7        39.900          44.200
  20470151.836                    20470157.594    20470157.414   107571480.212 8
  83821900.823 8        51.400          50.200
  23458155.930                    23458160.340    23458160.688   123273448.458 6
  96057245.927 6        41.300          39.700
 14  1  1  0 22 30.0000000  0  9G04G02G14G32G25G29G24G12G31
  23421367.195                                    23421374.941   123080041.872 6
  95906614.41743        41.300          21.300
  23830881.313                                    23830884.781   125231926.454 7
  97583506.99744        42.400          25.400
  21486188.813                                    21486195.152   112910602.480 7
  87982371.94345        46.600          33.000
  24976370.273                                                   131251703.774 5
                        34.300
  20452911.680                    20452920.895                   107480730.523 8
  83751320.932 8        50.500          49.700
  22787565.406                    22787572.570    22787572.508   119749278.494 7
  93311297.544 6        43.000          40.300
  23063978.922                    23063988.488                   121202182.227 6
  94443203.122 7        40.000          43.500
  20478275.758                    20478281.340    20478281.395   107614173.234 8
  83855168.113 8        51.400          50.300
  23439923.992                    23439928.520    23439928.574   123177639.576 6
  95982589.663 6        41.400          39.400
 14  1  1  0 23  0.0000000  0  9G04G02G14G32G25G29G24G12G31
  23421360.844                                    23421368.238   123080011.084 6
  95906590.44843        40.600          21.700
  23818107.633                                    23818111.277   125164804.149 7
  97531203.95644        43.000          26.000
  21490920.945                                    21490926.758   112935467.525 7
  88001747.28345        46.300          33.700
  24981752.211                                                   131279981.847 5
                        33.300
  20445825.891                    20445835.164                   107443495.768 8
  83722306.842 8        50.300          50.300
  22767470.469                    22767476.988    22767477.102   119643678.762 7
  93229012.071 6        43.700          41.700
  23083026.656                    23083036.691                   121302283.460 6
  94521204.031 7        41.400          43.800
  20486476.055                    20486481.871    20486481.809   107657266.001 8
  83888746.888 8        52.000          50.200
  23421722.336                    23421727.684    23421727.387   123081990.540 6
  95908057.956 6        40.900          39.900
 14  1  1  0 23 30.0000000  0  9G04G02G14G32G25G29G24G12G31
  23421475.797                                    23421483.133   123080610.054 6
  95907057.17243        41.400          21.100
  23805398.359                                    23805403.410   125098021.725 7
  97479165.72744        42.900          24.800
  21495765.563                                    21495772.430   112960928.549 7
  88021587.03145        46.300          33.200
  24987231.125                                                   131308768.380 5
                        35.600
  20438821.781                    20438830.820                   107406686.052 8
  83693623.953 8        50.700          50.100
  22747423.727                    22747430.949    22747430.477   119538332.532 7
  93146924.127 6        42.900          40.800
  23102117.023                    23102126.707                   121402601.313 6
  94599373.758 7        40.900          43.800
  20494752.328                    20494758.320    20494758.199   107700756.633 8
  83922635.695 8        52.500          50.400
  23403551.516                    23403557.273    23403557.152   122986502.162 6
  95833651.431 6        41.600          40.200
 14  1  1  0 24  0.0000000  0  9G04G02G14G32G25G29G24G12G31
  23421710.305                                    23421716.586   123081839.123 6
  95908014.89543        41.000          21.300
  23792755.891                                    23792760.063   125031581.966 7
  97427394.50144        42.400          25.300
  21500724.383                                    21500730.371   112986984.953 7
  88041890.71345        46.100          33.000
  24992803.898                                                   131338062.311 5
                        34.100
  20431897.602                    20431907.051                   107370302.314 8
  83665272.985 8        51.000          50.100
  22727424.492                    22727432.242    22727432.004   119433242.413 7
  93065035.759 6        42.800          41.300
  23121248.898                    23121257.820                   121503134.594 6
  94677711.344 7        40.800          43.900
  20503103.516                    20503109.508    20503109.270   107744643.458 8
  83956833.217 8        52.000          50.500
  23385411.711                    23385417.645    23385417.348   122891176.820 6
  95759371.941 6        41.700          39.900
 14  1  1  0 24 30.0000000  0  9G04G02G14G32G25G29G24G12G31
  23422063.461                                    23422070.387   123083697.210 6
  95909462.76343        41.300          22.000
  23780178.563                                    23780182.207   124965485.204 7
  97375890.55944        43.100          26.300
  21505795.273                                    21505801.027   113013634.442 7
  88062656.54045        46.800          32.300
  24998475.156                                                   131367860.686 5
                        34.300
  20425055.016                    20425064.055                   107334343.380 8
  83637253.042 8        51.200          50.100
  22707475.930                    22707483.094    22707483.383   119328409.112 7
  92983347.502 6        43.700          41.700
  23140418.281                    23140428.727                   121603879.732 6
  94756214.033 7        40.900          44.000
  20511529.930                    20511535.277    20511535.332   107788924.297 8
  83991337.770 8        52.700          50.000
  23367303.359                    23367308.238    23367308.117   122796014.611 7
  95685219.584 6        42.400          40.700
 14  1  1  0 25  0.0000000  0  9G04G02G14G32G25G29G24G12G31
  23422537.109                                    23422543.801   123086187.874 6
  95911403.55343        41.900          20.900
  23767666.305                                    23767670.887   124899737.766 6
  97324658.83144        41.800          26.000
  21510980.195                                    21510985.773   113040879.164 7
  88083886.18345        46.400          33.000
  25004241.461                                                   131398165.391 5
                        34.300
  20418294.039                    20418303.137                   107298812.978 8
  83609567.014 8        51.300          50.400
  22687576.859                    22687583.438    22687583.668   119223838.390 7
  92901863.853 6        43.500          40.600
  23159631.438                    23159641.180                   121704839.180 6
  94834883.720 7        41.600          43.700
  20520031.930                    20520037.512    20520037.391   107833601.781 8
  84026151.391 8        52.000          49.800
  23349226.695                    23349231.633    23349231.746   122701020.475 7
  95611198.186 6        42.000          40.200
 14  1  1  0 25 30.0000000  0  9G04G02G14G32G25G29G24G12G31
  23423130.820                                    23423137.277   123089307.829 7
  95913834.71043        42.600          21.700
  23755221.336                                    23755226.387   124834338.899 7
  97273698.71044        42.500          26.000
  21516277.242                                    21516282.879   113068715.150 7
  88105576.55345        46.800          33.200
  25010104.195                                                   131428971.931 5
                        32.300
  20411613.992                    20411622.680                   107263708.456 8
  83582212.844 8        51.400          50.000
  22667727.844                    22667734.539    22667734.242   119119529.807 7
  92820584.468 6        44.100          40.900
  23178882.945                    23178892.805                   121806007.817 6
  94913716.402 7        40.500          43.900
  20528608.047                    20528614.039    20528613.684   107878670.751 8
  84061270.061 8        52.300          49.800
  23331181.297                    23331186.059    23331186.055   122606192.673 7
  95537306.400 6        42.500          40.600
 14  1  1  0 26  0.0000000  0  9G04G02G14G32G25G29G24G12G31
  23423844.945                                    23423850.816   123093057.944 7
  95916756.88443        42.000          20.900
  23742843.383                                    23742847.789   124769291.251 7
  97223012.26744        42.400          24.300
  21521687.195                                    21521692.656   113097142.273 7
  88127727.54545        46.000          33.100
  25016061.461                                                   131460279.484 5
                        31.200
  20405014.898                    20405023.938                   107229030.775 8
  83555191.276 8        51.500          49.700
  22647928.773                    22647935.352    22647935.289   119015486.110 7
  92739511.490 6        45.000          41.600
  23198174.164                    23198183.848                   121907384.243 6
  94992710.980 7        41.600          43.900
  20537258.883                    20537264.289    20537264.285   107924130.523 8
  84096693.260 8        51.900          49.900
  23313167.867                    23313173.156    23313173.152   122511534.263 7
  95463546.606 6        43.100          40.900
 14  1  1  0 26 30.0000000  0  9G04G02G14G32G25G29G24G12G31
  23424678.203                                    23424684.484   123097439.624 6
  95920171.18843        41.400          21.100
  23730532.906                                    23730537.430   124704598.753 7
  97172602.54344        43.400          25.600
  21527208.773                                    21527214.586   113126160.871 7
  88150339.43945        46.500          33.200
  25022114.570                                                   131492087.732 5
                        31.000
  20398497.328                    20398506.250                   107194781.680 8
  83528503.678 8        52.000          50.000
  22628181.242                    22628188.172    22628187.934   118911711.069 7
  92658647.851 6        45.000          41.600
  23217504.930                    23217514.027                   122008968.570 7
  95071867.570 7        42.400          43.800
  20545983.883                    20545989.465    20545989.461   107969981.300 8
  84132421.140 8        51.800          50.000
  23295187.539                    23295193.238    23295193.176   122417048.057 7
  95389920.989 6        43.500          40.500
 14  1  1  0 27  0.0000000  0  9G04G02G14G32G25G29G24G12G31
  23425632.203                                    23425638.543   123102450.963 6
  95924076.13843        41.800          21.100
  23718289.539                                    23718294.297   124640261.591 7
  97122469.72744        42.800          24.700
  21532843.086                                    21532848.430   113155767.885 7
  88173409.82245        46.400          32.400
  25028262.211                                                   131524393.396 4
                        28.900
  20392061.547                    20392069.883                   107160959.607 8
  83502148.818 8        51.700          49.900
  22608483.938                    22608491.395    22608491.508   118808205.028 7
  92577993.838 6        45.200          40.800
  23236875.180                    23236884.805                   122110757.806 7
  95151183.827 7        42.100          44.100
  20554782.523                    20554787.871    20554787.809   108016219.455 8
  84168450.868 8        51.800          49.600
  23277241.086                    23277246.258    23277246.313   122322734.121 7
  95316429.621 6        42.800          41.000
 14  1  1  0 27 30.0000000  0  9G04G02G14G32G25G29G24G12G31
  23426705.992                                    23426712.156   123108094.604 7
  95928473.78543        42.000          21.300
  23706115.688                                    23706120.094   124576285.396 7
  97072618.19744        42.600          26.200
  21538589.328                                    21538595.141   113185964.999 7
  88196940.02945        46.900          33.300
  25034503.813                                                   131557198.18314
                        28.000
  20385706.953                    20385715.992                   107127567.649 8
  83476129.104 8        51.000          50.000
  22588840.055                    22588847.160    22588846.922   118704972.814 7
  92497553.188 6        45.100          41.600
  23256283.805                    23256293.371                   122212752.549 6
  95230660.208 7        41.300          44.100
  20563655.516                    20563661.215    20563661.152   108062846.693 8
  84204783.777 8        51.500          49.500
  23259327.227                    23259332.633    23259332.805   122228596.718 7
  95243075.804 6        43.300          41.200
 14  1  1  0 28  0.0000000  0  9G04G02G14G32G25G29G24G12G31
  23427899.531                                    23427906.281   123114368.533 6
  95933362.56243        41.800          20.900
  23694010.023                                    23694014.547   124512669.537 7
  97023047.44544        42.800          27.200
  21544447.383                                    21544452.785   113216748.934 7
  88220927.49945        46.900          32.800
  25040840.141                                                   131590496.591 5
                        30.100
  20379434.422                    20379443.402                   107094603.928 8
  83450443.087 8        51.900          50.100
  22569247.336                    22569254.734    22569254.965   118602014.805 7
  92417326.204 7        45.200          42.500
  23275731.852                    23275740.949                   122314948.913 7
  95310293.723 7        42.200          44.100
  20572601.523                    20572607.691    20572607.629   108109859.080 8
  84241416.804 8        52.500          49.900
  23241446.414                    23241452.172    23241452.227   122134634.992 7
  95169858.883 6        42.900          41.500
 14  1  1  0 28 30.0000000  0  9G04G02G14G32G25G29G24G12G31
  23429212.531                                    23429220.453   123121272.910 6
  95938742.60343        41.600          20.900
  23681973.125                                    23681977.883   124449416.822 7
  96973759.64043        42.600          23.600
  21550416.414                                    21550422.285   113248118.820 7
  88245371.55345        47.000          32.600
  25047270.781                                                   131624289.071 4
                        26.400
  20373243.023                    20373252.121                   107062069.172 8
  83425091.331 8        51.400          50.200
  22549708.234                    22549714.813    22549714.984   118499333.963 7
  92337315.192 6        45.300          41.600
  23295216.594                    23295226.805                   122417345.368 6
  95390083.150 7        41.800          43.700
  20581620.828                    20581626.469    20581626.465   108157255.729 8
  84278349.260 8        51.500          49.500
  23223600.109                    23223605.340    23223605.746   122040851.544 7
  95096780.880 6        42.600          41.300
 14  1  1  0 29  0.0000000  0  9G04G02G14G32G25G29G24G12G31
  23430647.250                                    23430654.117   123128809.158 6
  95944614.99043        41.800          21.700
  23670006.906                                    23670010.668   124386531.313 7
  96924757.99644        42.600          26.100
  21556497.320                                    21556503.719   113280075.072 7
  88270272.50945        46.700          33.000
  25053795.750                                                   131658574.899 4
                        27.300
  20367133.719                    20367142.758                   107029965.002 8
  83400075.094 8        51.600          50.400
  22530221.617                    22530229.191    22530229.480   118396933.429 7
  92257522.606 7        45.100          42.300
  23314740.188                    23314749.520                   122519942.075 7
  95470028.625 7        43.200          43.900
  20590713.344                    20590718.633    20590718.629   108205036.486 8
  84315581.016 8        51.400          49.300
  23205788.133                    23205793.598    23205793.535   121947249.463 7
  95023844.203 7        42.300          42.000
 14  1  1  0 29 30.0000000  0  9G04G02G14G32G25G29G24G12G31
  23432201.805                                    23432208.379   123136975.551 6
  95950978.42643        41.700          21.300
  23658109.680                                    23658113.969   124324013.626 7
  96876042.98144        42.300          26.300
  21562689.578                                    21562695.801   113312615.105 7
  88295628.37145        47.600          32.400
  25060412.852                                                   131693350.971 5
                        30.100
  20361106.352                    20361115.332                   106998290.460 8
  83375393.626 8        51.500          50.600
  22510789.281                    22510796.211    22510795.680   118294814.143 7
  92177949.178 7        45.000          42.300
  23334300.922                    23334310.547                   122622735.976 7
  95550127.734 7        42.100          43.600
  20599878.688                    20599884.094    20599884.031   108253199.305 8
  84353110.490 8        51.700          49.800
  23188011.016                    23188016.656    23188016.594   121853828.903 7
  94951048.955 7        42.400          42.100
 14  1  1  0 30  0.0000000  0  9G04G02G14G32G25G29G24G12G31
  23433875.906                                    23433882.539   123145773.298 6
  95957833.80943        41.800          22.300
  23646283.547                                    23646287.953   124261866.733 7
  96827616.86544        42.100          26.900
  21568993.102                                    21568999.148   113345738.933 7
  88321439.13445        47.300          32.100
  25067124.555                                                   131728616.901 5
                        30.300
  20355160.648                    20355170.391                   106967046.982 8
  83351048.055 8        51.100          50.800
  22491410.891                    22491417.469    22491417.406   118192979.705 7
  92098597.710 6        45.100          41.800
  23353899.688                    23353909.137                   122725726.300 7
  95630379.912 7        42.500          43.200
  20609116.117                    20609121.699    20609121.461   108301743.248 8
  84390936.931 8        51.800          49.600
  23170268.945                    23170274.820    23170274.406   121760593.050 7
  94878397.647 7        42.100          42.100
 14  1  1  0 30 30.0000000  0  9G04G02G14G32G25G29G24G12G31
  23435669.484                                    23435676.996   123155201.352 7
  95965180.32643        42.900          22.800
  23634527.969                                    23634532.902   124200092.802 7
  96779481.35044        42.500          26.400
  21575406.820                                    21575413.219   113379444.461 7
  88347703.17845        47.500          32.400
  25073926.820                                                   131764370.238 4
                        29.100
  20349297.523                    20349306.328                   106936234.037 8
  83327037.965 8        51.800          50.300
  22472086.883                    22472093.461    22472093.750   118091431.615 7
  92019469.359 6        45.000          41.800
  23373534.578                    23373544.438                   122828911.119 6
  95710783.646 7        41.600          43.700
  20618426.031                    20618431.555    20618431.434   108350666.372 8
  84429058.849 8        51.600          49.700
  23152561.336                    23152567.973    23152567.852   121667542.606 7
  94805890.813 7        43.300          42.200
 14  1  1  0 31  0.0000000  0  9G04G02G14G32G25G29G24G12G31
  23437584.313                                    23437591.238   123165259.551 7
  95973017.90043        42.600          23.200
  23622844.961                                    23622848.781   124138694.091 6
  96731638.22944        41.400          26.400
  21581931.766                                    21581937.285   113413730.539 8
  88374419.59045        48.000          32.800
  25080823.781                                                   131800609.231 5
                        30.500
  20343515.898                    20343524.879                   106905851.953 8
  83303363.612 8        51.100          50.400
  22452818.133                    22452824.652    22452824.531   117990172.064 7
  91940565.848 7        45.100          42.700
  23393207.047                    23393216.906                   122932288.461 7
  95791337.384 7        42.300          43.800
  20627807.617                    20627813.082    20627812.961   108399967.525 8
  84467475.326 8        52.200          49.300
  23134890.500                    23134896.082    23134896.195   121574679.536 7
  94733529.984 7        42.800          42.600
 14  1  1  0 31 30.0000000  0  9G04G02G14G32G25G29G24G12G31
  23439618.242                                    23439624.816   123175948.690 7
  95981347.11243        43.000          22.300
  23611232.656                                    23611237.238   124077673.900 7
  96684090.06944        42.900          26.000
  21588566.203                                    21588572.309   113448597.111 7
  88401588.33945        47.400          32.400
  25087811.266                                                   131837333.308 4
                        29.100
  20337816.813                    20337825.266                   106875902.214 8
  83280026.156 8        50.900          50.600
  22433603.922                    22433610.852    22433610.672   117889204.630 7
  91861889.959 7        45.000          42.400
  23412915.609                    23412925.234                   123035857.993 7
  95872040.870 7        42.200          43.700
  20637261.156                    20637266.621    20637266.441   108449646.388 8
  84506186.118 8        52.600          49.500
  23117255.484                    23117261.594    23117261.414   121482006.776 7
  94661317.452 7        42.400          42.100
 14  1  1  0 32  0.0000000  0  9G04G02G14G32G25G29G24G12G31
  23441772.250                                    23441779.117   123187268.008 7
  95990167.36843        43.200          22.300
  23599693.234                                    23599697.406   124017033.571 6
  96636837.93344        41.000          26.900
  21595311.148                                    21595316.844   113484042.019 7
  88429207.73345        47.500          33.000
  25094891.750                                                   131874540.244 5
                        30.700
  20332199.688                    20332208.434                   106846384.387 8
  83257025.256 8        51.300          50.700
  22414446.594                    22414453.113    22414453.344   117788531.066 7
  91783443.063 7        45.000          42.000
  23432660.008                    23432670.160                   123139617.180 6
  95952892.144 7        41.700          44.400
  20646786.375                    20646791.547    20646791.484   108499700.307 8
  84545189.166 8        52.200          50.000
  23099657.289                    23099662.695    23099662.926   121389525.520 7
  94589254.137 7        43.600          42.400
 14  1  1  0 32 30.0000000  0  9G04G02G14G32G25G29G24G12G31
  23444046.289                                    23444053.215   123199218.678 7
  95999479.59043        42.900          22.200
  23588227.531                                    23588231.117   123956776.796 7
  96589884.64444        42.000          26.200
  21602166.063                                    21602172.051   113520065.677 7
  88457278.11145        47.300          32.200
  25102064.852                                                   131912229.416 5
                        30.300
  20326665.555                    20326674.184                   106817300.059 8
  83234362.150 8        52.000          51.000
  22395345.727                    22395352.480    22395352.242   117688154.785 7
  91705227.812 7        45.200          42.600
  23452441.445                    23452451.070                   123243565.826 7
  96033891.054 7        42.500          43.600
  20656382.438                    20656388.137    20656388.074   108550129.587 8
  84584484.707 8        51.900          50.000
  23082095.398                    23082100.863    23082100.859   121297238.714 7
  94517342.341 7        42.900          42.400
 14  1  1  0 33  0.0000000  0  9G04G02G14G32G25G29G24G12G31
  23446440.703                                    23446447.043   123211798.906 7
  96009282.36443        43.300          22.000
  23576833.047                                    23576837.980   123896904.502 6
  96543230.95844        41.700          25.200
  21609131.195                                    21609136.539   113556665.278 7
  88485797.27345        47.300          32.300
  25109327.688                                                   131950398.008 5
                        30.500
  20321212.656                    20321221.520                   106788648.227 8
  83212036.051 8        52.000          51.200
  22376301.289                    22376308.336    22376308.098   117588076.468 7
  91627244.740 7        45.800          42.000
  23472257.367                    23472267.461                   123347700.823 6
  96115035.167 7        41.600          43.200
  20666049.836                    20666055.418    20666055.473   108600931.675 8
  84624070.746 8        51.700          49.200
  23064571.125                    23064576.355    23064576.176   121205146.961 7
  94445582.539 7        43.800          42.000
 14  1  1  0 33 30.0000000  0  9G04G02G14G32G25G29G24G12G31
  23448953.859                                    23448960.375   123225007.061 7
  96019574.43643        42.600          22.500
  23565513.359                                    23565517.473   123837417.375 7
  96496877.40444        42.200          27.800
  21616204.906                                    21616210.543   113593838.128 7
  88514763.11345        47.500          32.600
  25116680.125                                                   131989042.820 5
                        31.200
  20315842.500                    20315851.246                   106760427.829 8
  83190046.140 8        52.400          51.000
  22357313.695                    22357320.098    22357320.270   117488297.383 7
  91549494.838 7        45.100          42.000
  23492108.953                    23492118.168                   123452019.634 7
  96196322.513 7        42.600          43.400
  20675787.383                    20675793.141    20675793.078   108652103.412 8
  84663944.816 8        51.900          49.500
  23047083.578                    23047089.219    23047088.980   121113250.779 7
  94373975.128 7        43.400          42.500
 14  1  1  0 34  0.0000000  0  9G04G02G14G32G25G29G24G12G31
  23451586.656                                    23451593.992   123238844.908 7
  96030357.18443        42.100          22.600
  23554267.570                                    23554271.977   123778319.754 6
  96450827.32644        40.600          25.100
  21623387.625                                    21623393.672   113631585.122 8
  88544176.34545        48.000          31.800
  25124127.375                                                   132028164.275 5
                        30.100
  20310554.805                    20310563.961                   106732641.235 8
  83168394.250 8        51.600          50.700
  22338384.359                    22338390.352    22338390.641   117388821.918 7
  91471981.515 6        45.100          41.600
  23511994.875                    23512004.441                   123556522.064 7
  96277752.938 7        42.100          42.900
  20685595.430                    20685600.953    20685600.773   108703646.178 8
  84704108.007 8        51.500          48.900
  23029634.117                    23029640.168    23029639.988   121021554.056 7
  94302523.138 7        43.700          42.100
 14  1  1  0 34 30.0000000  0  9G04G02G14G32G25G29G24G12G31
  23454338.961                                    23454346.473   123253311.641 7
  96041629.95743        42.300          20.100
  23543096.039                                    23543100.035   123719613.645 7
  96405082.35944        42.000          25.700
  21630679.914                                    21630685.258   113669904.218 7
  88574035.36845        47.800          32.900
  25131661.945                                                   132067759.921 4
                        29.600
  20305350.102                    20305358.789                   106705288.192 8
  83147080.193 8        52.700          49.900
  22319513.000                    22319519.695    22319519.457   117289651.623 7
  91394705.996 6        45.100          41.600
  23531915.484                    23531925.285                   123661206.368 7
  96359325.090 7        42.800          43.200
  20695474.078                    20695480.070    20695479.773   108755557.698 8
  84744558.537 8        51.500          48.800
  23012223.438                    23012228.316    23012228.488   120930057.810 7
  94231227.367 7        44.200          42.500
 14  1  1  0 35  0.0000000  0  9G04G02G14G32G25G29G24G12G31
  23457211.875                                    23457219.270   123268407.664 6
  96053393.09043        41.900          19.600
  23531999.438                                    23532003.961   123661301.909 7
  96359644.67744        42.300          25.100
  21638080.336                                    21638086.090   113708795.045 7
  88604339.90345        47.900          31.900
  25139286.453                                                   132107829.104 4
                        29.400
  20300227.453                    20300236.375                   106678369.911 8
  83126104.906 8        52.100          50.400
  22300700.367                    22300706.945    22300706.883   117190789.668 7
  91317670.733 7        45.900          42.800
  23551870.445                    23551880.656                   123766071.736 7
  96441038.331 7        42.100          43.000
  20705422.727                    20705428.777    20705428.539   108807837.810 8
  84785296.286 8        51.400          49.000
  22994850.563                    22994856.262    22994856.199   120838765.106 7
  94160090.196 7        44.700          42.300
 14  1  1  0 35 30.0000000  0  9G04G02G14G32G25G29G24G12G31
  23460203.828                                    23460210.988   123284130.789 6
  96065644.89043        41.100          19.900
  23520978.516                                    23520981.984   123603384.900 6
  96314514.57244        41.500          26.500
  21645589.273                                    21645595.555   113748254.586 8
  88635087.59045        48.200          32.500
  25146998.914                                                   132148368.083 4
                        29.600
  20295187.664                    20295196.469                   106651884.788 8
  83105467.144 8        52.500          51.000
  22281946.430                    22281952.539    22281952.477   117092236.818 7
  91240876.325 7        45.600          42.300
  23571860.648                    23571870.156                   123871114.958 7
  96522890.158 7        42.600          42.900
  20715440.578                    20715445.633    20715445.805   108860482.707 8
  84826318.289 8        52.000          49.000
  22977516.992                    22977522.750    22977522.922   120747675.880 7
  94089111.583 7        44.000          43.000
 14  1  1  0 36  0.0000000  0  9G04G02G14G32G25G29G24G12G31
  23463316.195                                    23463322.887   123300484.276 6
  96078387.87043        41.100          19.900
  23510032.734                                    23510037.258   123545868.472 6
  96269696.58644        41.400          26.200
  21653206.359                                    21653212.641   113788285.039 7
  88666280.13445        47.800          32.200
  25154805.227                                                   132189378.646 4
                        29.400
  20290230.922                    20290239.727                   106625836.735 8
  83085169.960 8        52.700          50.300
  22263252.297                    22263258.816    22263258.754   116993998.985 7
  91164327.384 7        45.200          42.600
  23591882.711                    23591892.863                   123976337.571 7
  96604881.767 7        42.400          43.100
  20725528.844                    20725534.660    20725534.598   108913495.388 8
  84867626.873 8        51.600          49.000
  22960222.836                    22960228.828    22960228.590   120656795.637 7
  94018295.807 7        44.300          42.700
 14  1  1  0 36 30.0000000  0  9G04G02G14G32G25G29G24G12G31
  23466546.492                                    23466553.535   123317463.965 6
  96091618.80143        40.600          20.400
  23499164.656                                    23499168.535   123488751.145 6
  96225189.61044        41.100          26.100
  21660932.000                                    21660937.813   113828880.889 8
  88697913.23945        48.200          32.400
  25162696.703                                                   132230855.280 5
                        30.300
  20285356.469                    20285365.391                   106600222.208 8
  83065210.581 8        51.800          50.500
  22244617.633                    22244624.211    22244623.914   116896074.480 7
  91088022.600 7        45.900          42.600
  23611939.867                    23611949.551                   124081734.278 6
  96687009.037 7        41.400          43.100
  20735685.242                    20735691.820    20735691.523   108966870.271 8
  84909217.689 8        51.400          49.600
  22942968.578                    22942974.160    22942973.980   120566122.773 7
  93947641.635 7        44.300          42.800
 14  1  1  0 37  0.0000000  0  9G04G02G14G32G25G29G24G12G31
  23469897.289                                    23469904.332   123335070.550 6
  96105338.23543        41.400          20.600
  23488371.984                                    23488375.395   123432036.122 6
  96180996.13244        41.600          25.800
  21668764.633                                    21668770.973   113870041.840 7
  88729986.69345        47.500          32.600
  25170677.578                                                   132272797.225 5
                        31.300
  20280564.891                    20280574.047                   106575042.595 8
  83045590.096 8        52.100          50.000
  22226043.313                    22226050.594    22226050.238   116798466.800 7
  91011964.677 7        45.700          42.400
  23632029.445                    23632038.426                   124187304.843 6
  96769271.781 7        41.800          42.800
  20745911.516                    20745917.215    20745917.211   109020607.239 8
  84951090.640 8        51.600          49.000
  22925755.133                    22925759.895    22925759.598   120475659.916 7
  93877151.101 7        45.100          42.600
 14  1  1  0 37 30.0000000  0  9G04G02G14G32G25G29G24G12G31
  23473367.180                                    23473373.637   123353303.125 6
  96119545.43343        41.600          20.600
  23477655.797                                    23477659.793   123375725.344 7
  96137117.62244        42.000          25.900
  21676705.227                                    21676710.453   113911766.614 7
  88762499.49145        47.500          32.400
  25178748.938                                                   132315202.542 5
                        32.900
  20275856.000                    20275865.156                   106550298.119 8
  83026308.682 8        51.900          50.800
  22207529.953                    22207537.117    22207536.938   116701177.915 7
  90936155.167 7        46.000          42.800
  23652151.547                    23652161.172                   124293047.273 6
  96851668.434 7        41.600          43.100
  20756205.656                    20756211.414    20756211.234   109074704.480 8
  84993244.327 8        51.400          48.500
  22908579.875                    22908585.691    22908585.395   120385409.177 7
  93806825.851 7        45.200          42.500
 14  1  1  0 38  0.0000000  0  9G04G02G14G32G25G29G24G12G31
  23476955.820                                    23476962.512   123372162.147 6
  96134240.79543        41.700          21.500
  23467017.664                                    23467021.719   123319821.409 6
  96093556.15144        41.600          26.500
  21684751.375                                    21684757.363   113954054.367 7
  88795450.97445        47.400          32.400
  25186905.703                                                   132358070.132 5
                        32.000
  20271230.703                    20271239.391                   106525989.645 8
  83007367.012 8        51.600          50.200
  22189077.664                    22189084.477    22189084.297   116604211.150 7
  90860596.684 7        45.900          42.900
  23672305.867                    23672315.785                   124398960.816 6
  96934198.434 7        41.000          42.300
  20766568.688                    20766574.328    20766574.266   109129161.966 8
  85035678.738 8        51.000          48.400
  22891446.641                    22891451.754    22891451.926   120295372.673 7
  93736667.542 7        45.000          42.600
 14  1  1  0 38 30.0000000  0  9G04G02G14G32G25G29G24G12G31
  23480663.977                                    23480670.492   123391646.679 7
  96149423.57043        42.800          22.200
  23456457.891                                    23456461.652   123264326.780 7
  96050313.61444        42.800          26.900
  21692905.477                                    21692911.699   113996903.412 7
  88828839.82145        47.500          31.900
  25195151.211                                                   132401397.782 5
                        32.800
  20266687.719                    20266696.582                   106502117.186 8
  82988765.095 8        52.100          50.400
  22170686.984                    22170693.914    22170694.027   116507568.119 7
  90785290.463 7        45.700          43.200
  23692492.320                    23692502.414                   124505043.631 6
  97016860.334 7        41.600          42.700
  20776999.461                    20777005.395    20777005.273   109183977.458 8
  85078392.106 8        51.500          49.100
  22874354.313                    22874359.836    22874359.656   120205552.302 7
  93666677.639 7        45.200          42.600
 14  1  1  0 39  0.0000000  0  9G04G02G14G32G25G29G24G12G31
  23484490.844                                    23484497.242   123411756.253 7
  96165093.38343        42.100          22.800
  23445975.594                                    23445979.473   123209243.407 6
  96007391.54444        40.000          25.800
  21701166.023                                    21701172.480   114040312.156 7
  88862664.79545        47.200          32.400
  25203483.758                                                   132445183.742 5
                        32.600
  20262227.836                    20262236.816                   106478680.979 8
  82970503.107 8        51.300          50.300
  22152358.109                    22152364.863    22152364.859   116411250.957 7
  90710238.157 7        45.800          42.800
  23712711.563                    23712721.246                   124611293.761 6
  97099652.603 7        41.600          42.300
  20787498.516                    20787504.391    20787504.270   109239149.813 8
  85121383.545 8        51.300          48.500
  22857303.047                    22857308.922    22857308.977   120115950.010 7
  93596857.683 7        45.500          43.200
 14  1  1  0 39 30.0000000  0  9G04G02G14G32G25G29G24G12G31
  23488435.844                                    23488442.652   123432489.570 7
  96181249.21343        42.800          22.500
  23435572.211                                    23435575.855   123154572.552 7
  95964790.87444        42.300          26.000
  21709532.406                                    21709538.102   114084278.158 7
  88896924.00645        47.200          31.700
  25211901.625                                                   132489425.213 5
                        32.200
  20257851.289                    20257860.387                   106455680.540 8
  82952580.686 8        51.600          50.300
  22134092.180                    22134099.109    22134098.930   116315261.455 7
  90635441.169 7        45.900          42.800
  23732961.313                    23732971.992                   124717709.045 6
  97182573.576 7        41.100          42.700
  20798065.039                    20798070.621    20798070.500   109294676.862 8
  85164651.371 8        51.600          48.600
  22840294.516                    22840300.566    22840300.211   120026566.819 7
  93527208.444 7        46.100          42.200
 14  1  1  0 40  0.0000000  0  9G04G02G14G32G25G29G24G12G31
  23492501.016                                    23492507.531   123453847.983 7
  96197892.15443        42.400          22.800
  23425247.398                                    23425251.980   123100318.395 6
  95922514.93444        41.800          27.500
  21718005.016                                    21718011.590   114128801.924 7
  88931617.84345        47.200          31.600
  25220406.617                                                   132534122.476 5
                        31.000
  20253557.805                    20253566.844                   106433118.126 8
  82934999.579 8        52.100          50.200
  22115889.594                    22115896.289    22115896.109   116219603.955 7
  90560902.898 7        46.000          43.600
  23753243.492                    23753253.293                   124824290.189 6
  97265623.780 7        41.100          42.900
  20808699.445                    20808704.910    20808704.789   109350559.805 8
  85208196.519 8        51.100          49.000
  22823327.898                    22823332.953    22823332.891   119937406.762 7
  93457733.076 7        45.600          43.200
 14  1  1  0 40 30.0000000  0  9G04G02G14G32G25G29G24G12G31
  23496683.523                                    23496690.273   123475830.040 7
  96215021.05143        42.500          22.300
  23415004.227                                    23415006.992   123046482.615 7
  95880565.01344        42.000          27.400
  21726583.500                                    21726589.840   114173881.175 7
  88966744.50245        47.500          31.500
  25228999.461                                                   132579272.682 5
                        30.100
  20249347.492                    20249356.121                   106410993.123 8
  82917759.312 8        51.600          50.900
  22097749.555                    22097756.191    22097756.363   116124279.524 7
  90486624.151 7        45.900          43.000
  23773557.656                    23773566.168                   124931034.588 6
  97348801.197 7        40.900          43.100
  20819401.055                    20819406.402    20819406.457   109406796.147 8
  85252017.045 8        51.300          48.400
  22806403.430                    22806409.246    22806409.418   119848470.957 7
  93388432.450 7        45.200          43.200
 14  1  1  0 41  0.0000000  0  9G04G02G14G32G25G29G24G12G31
  23500984.984                                    23500991.969   123498434.533 7
  96232634.91043        42.300          22.000
  23404838.320                                    23404841.848   122993066.455 7
  95838942.06344        43.100          27.100
  21735266.945                                    21735273.109   114219514.175 7
  89002302.66745        47.600          32.200
  25237676.445                                                   132624873.392 5
                        30.300
  20245220.211                    20245229.543                   106389305.203 8
  82900859.634 8        52.100          50.800
  22079673.953                    22079680.824    22079680.762   116029290.093 7
  90412606.442 7        46.100          43.700
  23793899.539                    23793909.105                   125037939.815 6
  97432103.943 7        41.900          42.700
  20830168.891                    20830174.766    20830174.762   109463383.509 8
  85296111.097 7        50.800          47.900
  22789522.789                    22789528.488    22789528.777   119759760.774 7
  93319307.634 7        45.900          44.400
 14  1  1  0 41 30.0000000  0  9G04G02G14G32G25G29G24G12G31
  23505404.570                                    23505412.492   123521659.911 6
  96250732.64843        41.800          22.200
  23394754.523                                    23394757.465   122940070.856 7
  95797646.81344        42.300          27.000
  21744055.742                                    21744061.730   114265697.512 7
  89038289.67245        47.400          31.500
  25246439.391                                                   132670921.851 4
                        29.900
  20241176.586                    20241185.566                   106368053.686 8
  82884300.016 8        52.000          50.700
  22061661.844                    22061668.305    22061668.301   115934637.118 7
  90338850.913 7        45.400          43.000
  23814273.930                    23814282.969                   125145003.579 6
  97515530.219 7        41.400          42.000
  20841003.625                    20841009.500    20841009.203   109520320.267 8
  85340477.402 8        50.500          48.700
  22772685.102                    22772690.332    22772690.621   119671277.190 7
  93250359.392 7        46.500          43.600
 14  1  1  0 42  0.0000000  0  9G04G02G14G32G25G29G24G12G31
  23509942.766                                    23509949.574   123545507.159 6
  96269314.91943        40.400          22.500
  23384749.570                                    23384753.566   122887499.572 7
  95756682.19744        43.000          27.500
  21752948.672                                    21752955.070   114312432.043 7
  89074706.17145        47.000          31.400
  25255285.727                                                   132717417.616 4
                        29.100
  20237215.641                    20237224.621                   106347240.428 8
  82868081.894 8        51.900          51.200
  22043714.805                    22043721.324    22043721.086   115840324.464 7
  90265360.552 7        45.700          43.400
  23834677.227                    23834686.910                   125252225.437 6
  97599079.684 7        41.600          42.800
  20851904.695                    20851910.336    20851910.273   109577606.368 8
  85385115.919 8        50.900          48.100
  22755891.055                    22755896.168    22755896.281   119583024.077 7
  93181590.740 7        46.300          44.500
 14  1  1  0 42 30.0000000  0  9G04G02G14G32G25G29G24G12G31
  23514598.211                                    23514605.547   123569974.953 6
  96288380.73943        40.300          22.000
  23374826.602                                    23374830.188   122835354.294 7
  95716049.54244        43.600          27.700
  21761946.836                                    21761952.531   114359715.235 7
  89111550.19745        46.700          32.300
  25264218.961                                                   132764358.603 4
                        29.100
  20233338.367                    20233347.465                   106326864.957 8
  82852204.899 8        52.300          51.300
  22025832.617                    22025839.605    22025839.719   115746353.666 7
  90192136.575 7        45.900          43.700
  23855110.289                    23855120.324                   125359603.924 6
  97682751.202 7        41.700          43.000
  20862871.891                    20862877.355    20862877.469   109635240.036 8
  85430025.266 8        50.600          49.400
  22739141.180                    22739146.410    22739146.465   119495002.236 7
  93113002.296 7        45.800          43.700
 14  1  1  0 43  0.0000000  0  9G04G02G14G32G25G29G24G12G31
  23519372.352                                    23519379.336   123595062.242 6
  96307929.28443        38.700          22.200
  23364984.977                                    23364988.680   122783637.059 7
  95675750.40444        42.800          27.000
  21771048.742                                    21771054.438   114407545.480 7
  89148820.49045        47.200          32.100
  25273237.125                                                   132811741.542 4
                        29.100
  20229544.141                    20229553.941                   106306927.614 8
  82836669.309 8        52.000          51.300
  22008016.430                    22008023.008    22008022.945   115652726.932 7
  90119180.704 7        46.500          43.600
  23875573.391                    23875583.250                   125467137.223 6
  97766543.353 7        40.800          42.300
  20873905.070                    20873910.770    20873910.414   109693219.807 8
  85475204.312 8        50.400          48.900
  22722435.516                    22722440.980    22722440.859   119407214.077 7
  93044595.939 7        46.000          44.100
 14  1  1  0 43 30.0000000  0  9G04G02G14G32G25G29G24G12G31
  23524264.406                                    23524271.332   123620769.776 6
  96327961.12843        40.300          21.800
  23355226.000                                    23355229.762   122732351.096 6
  95635787.35744        41.300          27.400
  21780253.875                                    21780260.332   114455922.125 7
  89186516.55645        47.200          31.400
  25282336.695                                                   132859566.941 4
                        28.000
  20225834.156                    20225843.078                   106287429.741 8
  82821476.163 8        51.600          51.000
  21990265.648                    21990272.520    21990272.516   115559447.534 7
  90046495.473 7        46.300          43.400
  23896066.063                    23896075.922                   125574824.510 6
  97850455.490 7        41.100          42.100
  20885004.242                    20885010.117    20885010.172   109751545.696 8
  85520653.056 8        51.600          48.000
  22705774.734                    22705780.492    22705780.547   119319662.707 7
  92976374.100 7        45.500          43.700
 14  1  1  0 44  0.0000000  0  9G04G02G14G32G25G29G24G12G31
  23529273.273                                    23529280.668   123647093.527 6
  96348473.13143        39.600          21.500
  23345548.492                                    23345552.195   122681495.200 7
  95596159.39044        43.700          27.600
  21789562.992                                    21789568.863   114504840.248 7
  89224634.54745        46.700          31.600
  25291520.813                                                   132907829.655 4
                        28.300
  20222206.773                    20222215.988                   106268368.280 8
  82806623.072 8        51.800          51.200
  21972581.336                    21972588.207    21972588.027   115466514.587 7
  89974080.224 7        46.800          43.900
  23916587.102                    23916596.961                   125682661.305 7
  97934484.133 7        42.000          42.400
  20896168.391                    20896173.973    20896173.793   109810213.215 8
  85566368.004 8        50.800          49.000
  22689159.469                    22689165.051    22689164.988   119232346.560 7
  92908335.552 7        45.400          43.900
 14  1  1  0 44 30.0000000  0  8G04G02G14G25G29G24G12G31
  23534400.617                                    23534407.543   123674035.766 6
  96369467.08943        41.300          21.300
  23335953.414                                    23335957.000   122631074.580 7
  95556870.63244        44.300          26.900
  21798975.313                                    21798981.125   114554301.930 7
  89263176.09245        46.300          31.000
  20218663.273                    20218672.488                   106249746.666 8
  82792112.722 8        52.000          51.200
  21954963.625                    21954970.086    21954970.141   115373933.848 7
  89901939.403 7        46.000          43.800
  23937135.813                    23937146.141                   125790648.878 6
  98018630.254 7        40.500          42.200
  20907397.680                    20907403.320    20907403.199   109869224.299 8
  85612350.651 8        50.600          48.500
  22672589.820                    22672594.641    22672594.988   119145271.460 7
  92840484.829 7        45.100          44.200
 14  1  1  0 45  0.0000000  0  8G04G02G14G25G29G24G12G31
  23539644.742                                    23539651.668   123701592.972 6
  96390940.24343        40.900          22.300
  23326441.078                                    23326445.016   122581088.555 7
  95517920.50144        42.600          26.900
  21808489.711                                    21808496.109   114604302.287 7
  89302137.37945        46.700          31.500
  20215202.992                    20215211.621                   106231562.445 8
  82777943.203 8        52.100          51.100
  21937412.695                    21937419.625    21937419.797   115281704.833 7
  89830072.670 7        46.400          43.200
  23957713.344                    23957723.086                   125898783.115 6
  98102890.659 7        40.600          42.200
  20918691.805                    20918697.270    20918697.148   109928574.225 8
  85658597.335 8        51.100          48.600
  22656065.938                    22656071.344    22656071.398   119058436.344 7
  92772821.104 7        45.700          44.500
 14  1  1  0 45 30.0000000  0  8G04G02G14G25G29G24G12G31
  23545006.375                                    23545012.715   123729765.315 7
  96412892.72843        42.000          21.700
  23317012.984                                    23317016.043   122531540.087 7
  95479311.34044        43.600          27.000
  21818106.820                                    21818113.043   114654840.623 7
  89341517.88245        46.700          30.900
  20211826.320                    20211835.242                   106213816.570 8
  82764115.248 8        52.400          50.600
  21919929.547                    21919936.242    21919936.121   115189830.200 7
  89758482.082 7        45.800          44.300
  23978317.695                    23978327.965                   126007063.558 6
  98187265.004 6        40.800          41.600
  20930050.055                    20930055.813    20930055.926   109988263.358 8
  85705108.349 8        50.500          48.300
  22639587.219                    22639592.918    22639592.973   118971844.132 7
  92705346.654 7        45.800          44.300
 14  1  1  0 46  0.0000000  0  8G04G02G14G25G29G24G12G31
  23550484.680                                    23550490.434   123758553.373 6
  96435325.00743        41.900          22.300
  23307668.109                                    23307671.520   122482432.637 7
  95441045.81844        43.900          27.600
  21827825.883                                    21827832.457   114705916.525 7
  89381317.26445        46.200          30.300
  20208532.734                    20208541.891                   106196510.964 8
  82750630.356 8        52.100          51.100
  21902514.250                    21902521.297    21902521.117   115098313.766 7
  89687170.597 7        46.000          44.100
  23998951.383                    23998961.301                   126115489.980 6
  98271753.076 6        41.300          41.500
  20941473.391                    20941479.207    20941479.086   110048291.867 8
  85751883.803 8        50.400          48.700
  22623156.070                    22623162.063    22623162.000   118885498.408 7
  92638064.283 7        45.900          43.900
 14  1  1  0 46 30.0000000  0  8G04G02G14G25G29G24G12G31
  23556079.094                                    23556085.434   123787954.071 6
  96458234.65743        41.400          22.500
  23298407.320                                    23298410.965   122433766.227 7
  95403123.97444        43.400          28.500
  21837647.492                                    21837653.363   114757526.117 7
  89421532.48945        46.300          30.600
  20205323.375                    20205331.828                   106179643.488 8
  82737486.875 8        51.700          51.400
  21885167.445                    21885174.375    21885174.020   115007155.634 7
  89616138.314 7        46.400          44.600
  24019611.031                    24019621.242                   126224058.669 6
  98356352.014 6        40.200          41.900
  20952960.375                    20952965.898    20952965.777   110108655.626 8
  85798920.487 8        51.300          48.400
  22606772.219                    22606777.391    22606777.621   118799398.515 7
  92570973.458 7        45.100          43.800
 14  1  1  0 47  0.0000000  0  8G04G02G14G25G29G24G12G31
  23561790.430                                    23561797.297   123817968.250 7
  96481622.32643        42.100          22.300
  23289231.078                                    23289234.137   122385544.412 7
  95365548.54444        43.500          28.100
  21847570.078                                    21847576.418   114809669.448 7
  89462163.62545        46.200          31.600
  20202197.102                    20202205.379                   106163216.029 8
  82724686.265 8        51.900          51.300
  21867889.531                    21867895.758    21867895.988   114916359.672 7
  89545388.229 7        46.400          44.200
  24040298.164                    24040308.316                   126332769.063 6
  98441061.379 6        40.800          41.300
  20964511.016                    20964516.656    20964516.594   110169355.533 8
  85846219.110 8        51.100          48.300
  22590435.406                    22590440.988    22590441.043   118713548.837 7
  92504077.610 7        45.300          44.100
 14  1  1  0 47 30.0000000  0  8G04G02G14G25G29G24G12G31
  23567618.016                                    23567624.473   123848593.120 6
  96505485.88143        41.300          21.500
  23280139.586                                    23280142.996   122337767.620 7
  95328319.87944        43.500          29.200
  21857593.820                                    21857599.750   114862343.341 7
  89503208.19945        46.300          30.700
  20199154.492                    20199162.887                   106147227.038 8
  82712227.319 8        51.600          50.800
  21850681.133                    21850687.711    21850687.824   114825927.005 7
  89474921.250 7        46.900          44.600
  24061011.211                    24061021.539                   126441618.925 6
  98525879.426 6        40.800          41.100
  20976125.211                    20976131.496    20976131.199   110230388.551 8
  85893777.298 8        50.800          48.600
  22574146.445                    22574152.613    22574152.434   118627949.514 7
  92437376.844 7        45.100          44.100
 14  1  1  0 48  0.0000000  0  8G04G02G14G25G29G24G12G31
  23573562.430                                    23573568.828   123879828.787 6
  96529825.36243        40.400          20.900
  23271132.992                                    23271136.168   122290438.504 7
  95291440.06744        43.900          28.200
  21867717.789                                    21867723.543   114915546.616 7
  89544665.27645        46.400          30.900
  20196195.711                    20196204.516                   106131677.678 8
  82700110.948 8        51.100          50.800
  21833541.883                    21833549.047    21833548.574   114735860.019 7
  89404739.207 7        47.000          44.300
  24081751.961                    24081761.352                   126550607.005 6
  98610805.166 6        40.200          41.000
  20987802.781                    20987807.953    20987807.891   110291753.992 8
  85941594.523 8        50.900          48.100
  22557905.719                    22557911.359    22557911.473   118542603.388 7
  92370873.380 7        45.600          44.700
 14  1  1  0 48 30.0000000  0  8G04G02G14G25G29G24G12G31
  23579621.313                                    23579628.531   123911674.822 6
  96554640.46343        39.800          20.400
  23262212.047                                    23262215.281   122243559.251 7
  95254910.81444        44.300          28.800
  21877942.336                                    21877948.500   114969277.712 7
  89586533.64145        47.000          31.700
  20193320.172                    20193329.504                   106116568.568 8
  82688337.630 8        51.900          51.200
  21816472.688                    21816479.617    21816479.145   114646161.305 7
  89334844.130 7        47.600          44.200
  24102517.195                    24102527.113                   126659732.643 6
  98695838.100 6        40.200          41.300
  20999543.406                    20999549.105    20999548.926   110353451.360 8
  85989670.389 8        51.400          48.400
  22541713.289                    22541718.813    22541718.750   118457513.202 7
  92304569.344 7        45.400          44.300
 14  1  1  0 49  0.0000000  0  8G04G02G14G25G29G24G12G31
  23585796.781                                    23585805.172   123944130.715 6
  96579930.75743        39.200          20.400
  23253377.422                                    23253381.066   122197133.263 7
  95218734.73944        43.800          28.900
  21888267.523                                    21888273.863   115023535.773 7
  89628812.61645        46.200          31.300
  20190529.008                    20190538.047                   106101900.704 8
  82676908.136 8        51.600          50.700
  21799474.141                    21799481.129    21799481.184   114556834.191 7
  89265238.616 7        47.500          44.300
  24123308.633                    24123319.020                   126768994.333 6
  98780977.055 6        40.200          41.400
  21011346.961                    21011352.953    21011352.656   110415480.208 8
  86038004.551 7        50.200          47.600
  22525570.461                    22525576.160    22525576.039   118372681.675 7
  92238466.855 7        45.200          44.700
 14  1  1  0 49 30.0000000  0  8G04G02G14G25G29G24G12G31
  23592099.250                                    23592107.289   123977249.369 6
  96605737.51343        37.400          19.600
  23244639.266                                    23244643.379   122151215.609 7
  95182954.78344        43.100          28.600
  21898703.102                                    21898709.441   115078372.480 7
  89671542.49345        47.300          30.900
  20187832.156                    20187841.020                   106087727.811 8
  82665864.336 8        51.300          51.000
  21782557.281                    21782564.035    21782563.973   114467934.285 7
  89195965.975 7        47.800          44.200
  24144136.375                    24144146.527                   126878444.658 6
  98866263.002 6        39.400          41.000
  21023223.547                    21023229.129    21023228.891   110477892.838 8
  86086637.765 8        50.500          48.000
  22509487.516                    22509492.922    22509493.211   118288164.257 7
  92172609.135 7        45.600          44.500
 14  1  1  0 50  0.0000000  0  8G04G02G14G25G29G24G12G31
  23598517.117                                    23598525.859   124010975.814 6
  96632017.85243        38.300          20.600
  23235988.438                                    23235992.023   122105754.502 7
  95147530.55544        44.400          29.100
  21909237.445                                    21909243.609   115133732.221 7
  89714679.92845        46.100          30.000
  20185218.734                    20185227.656                   106073996.095 8
  82655164.306 8        52.100          51.100
  21765711.359                    21765718.230    21765718.168   114379410.258 7
  89126986.231 7        47.900          43.900
  24164989.648                    24164999.684                   126988027.736 6
  98951652.392 6        40.100          40.900
  21035162.523                    21035168.516    21035168.512   110540633.543 8
  86135526.624 8        50.200          48.100
  22493454.398                    22493459.688    22493459.742   118203909.201 7
  92106955.846 7        45.700          44.300
 14  1  1  0 50 30.0000000  0  8G04G02G14G25G29G24G12G31
  23605034.711                                    23605042.633   124045221.951 6
  96658703.13343        37.700          20.100
  23227407.844                                    23227411.840   122060664.960 7
  95112395.86544        42.100          28.900
  21919854.734                                    21919860.898   115189526.057 7
  89758155.61745        46.500          30.300
  20182673.430                    20182682.059                   106060618.957 8
  82644740.567 8        50.800          51.800
  21748921.508                    21748928.379    21748928.258   114291177.191 7
  89058233.210 7        47.600          44.500
  24185851.930                    24185861.496                   127097655.544 6
  99037076.637 6        38.900          40.700
  21047147.539                    21047153.063    21047153.000   110603614.517 8
  86184602.705 7        49.600          47.900
  22477454.664                    22477460.832    22477460.594   118119831.746 7
  92041440.943 7        44.900          44.400
 14  1  1  0 51  0.0000000  0  8G04G02G14G25G29G24G12G31
  23611682.188                                    23611689.230   124080153.092 6
  96685922.22443        39.600          19.900
  23218930.625                                    23218934.445   122016115.114 7
  95077681.72845        43.300          30.500
  21930585.500                                    21930591.723   115245918.511 7
  89802097.78245        46.800          30.700
  20180226.914                    20180235.133                   106047762.832 8
  82634722.818 8        51.600          51.200
  21732218.742                    21732224.441    21732224.379   114203403.139 7
  88989837.865 7        47.600          44.600
  24206752.313                    24206762.934                   127207492.842 6
  99122664.127 6        39.300          41.000
  21059209.891                    21059215.180    21059215.117   110667001.075 8
  86233994.836 7        50.000          47.700
  22461521.109                    22461526.867    22461526.805   118036100.600 7
  91976195.898 7        44.500          44.600
 14  1  1  0 51 30.0000000  0  8G04G02G14G25G29G24G12G31
  23618429.500                                    23618435.957   124115608.124 6
  96713549.52343        38.400          20.400
  23210525.156                                    23210529.445   121971946.672 7
  95043264.77644        43.600          28.600
  21941400.117                                    21941406.516   115302747.850 7
  89846380.38445        46.100          30.600
  20177849.063                    20177857.516                   106035267.846 8
  82624986.460 8        51.100          50.900
  21715573.203                    21715579.547    21715579.426   114115930.717 7
  88921677.552 7        47.900          44.500
  24227663.125                    24227672.926                   127317377.560 6
  99208288.564 6        38.700          41.000
  21071317.828                    21071323.938    21071323.934   110730631.573 8
  86283577.043 7        50.400          47.600
  22445623.883                    22445628.820    22445628.816   117952557.519 7
  91911097.399 7        45.700          44.500
 14  1  1  0 52  0.0000000  0  8G04G02G14G25G29G24G12G31
  23625290.453                                    23625297.438   124151663.458 6
  96741644.59543        39.900          20.900
  23202207.953                                    23202211.949   121928239.141 7
  95009207.01144        43.900          29.500
  21952311.422                                    21952317.996   115360089.428 7
  89891062.12244        46.100          29.800
  20175554.727                    20175564.000                   106023211.492 8
  82615591.893 8        51.500          51.200
  21699000.320                    21699006.605    21699006.602   114028839.334 8
  88853814.155 7        48.400          44.900
  24248597.359                    24248606.809                   127427385.732 6
  99294009.197 6        39.000          40.100
  21083487.805                    21083493.738    21083493.441   110794582.409 8
  86333408.862 7        50.200          47.500
  22429777.133                    22429782.422    22429782.594   117869281.933 7
  91846207.329 7        44.600          44.700
 14  1  1  0 52 30.0000000  0  8G04G02G14G25G29G24G12G31
  23632280.648                                    23632287.398   124188399.868 6
  96770270.36943        39.200          22.200
  23193994.883                                    23193998.996   121885076.657 7
  94975573.92445        43.600          30.000
  21963336.156                                    21963342.555   115418023.537 7
  89936205.56644        46.400          29.800
  20173360.102                    20173369.199                   106011676.210 8
  82606603.360 8        51.400          51.000
  21682515.750                    21682522.738    21682522.676   113942213.493 7
  88786313.521 7        47.900          44.500
  24269569.859                    24269580.363                   127537598.178 6
  99379888.999 6        37.400          39.900
  21095733.516                    21095738.688    21095738.566   110858933.885 8
  86383552.868 8        49.600          48.300
  22413997.086                    22414002.492    22414002.313   117786358.303 7
  91781591.529 7        46.200          43.700
 14  1  1  0 53  0.0000000  0  8G04G02G14G25G29G24G12G31
  23639370.875                                    23639376.746   124225655.874 6
  96799301.03343        41.200          20.900
  23185854.820                                    23185858.230   121842300.508 7
  94942241.89045        43.700          30.200
  21974442.680                                    21974448.902   115476387.478 7
  89981683.94245        46.100          30.400
  20171233.266                    20171242.656                   106000501.559 8
  82597895.838 8        52.100          51.000
  21666089.914                    21666097.195    21666096.957   113855894.739 8
  88719052.169 7        48.200          44.700
  24290550.289                    24290560.090                   127647852.590 6
  99465801.513 6        38.400          39.700
  21108024.852                    21108030.961    21108030.898   110923524.995 8
  86433883.597 8        50.200          48.200
  22398253.914                    22398259.203    22398259.316   117703628.134 7
  91717126.461 7        45.000          44.200
 14  1  1  0 53 30.0000000  0  8G04G02G14G25G29G24G12G31
  23646573.961                                    23646580.945   124263508.581 6
  96828796.65043        41.400          20.400
  23177803.469                                    23177807.289   121799990.761 7
  94909273.28645        43.400          30.500
  21985645.891                                    21985651.703   115535257.800 7
  90027556.88945        46.000          30.000
  20169190.836                    20169199.699                   105989765.969 8
  82589530.435 8        51.900          51.500
  21649737.883                    21649744.871    21649744.574   113769963.334 8
  88652092.657 7        49.200          45.000
  24311553.422                    24311564.102                   127758225.884 6
  99551806.659 6        37.700          39.600
  21120376.164                    21120382.332    21120382.152   110988432.382 8
  86484460.772 7        50.000          47.500
  22382563.133                    22382568.129    22382568.418   117621171.830 7
  91652874.801 7        46.000          43.500
 14  1  1  0 54  0.0000000  0  8G04G02G14G25G29G24G12G31
  23653905.711                                    23653911.934   124302037.130 6
  96858818.91943        41.700          20.600
  23169856.297                                    23169860.117   121758229.661 7
  94876732.19645        42.700          31.000
  21996959.477                                    21996965.172   115594712.870 7
  90073885.51644        46.300          28.800
  20167246.523                    20167255.621                   105979549.865 8
  82581569.835 8        51.200          51.200
  21633474.898                    21633480.891    21633481.121   113684501.924 8
  88585499.363 7        48.500          45.100
  24332594.484                    24332604.695                   127868796.614 6
  99637965.642 6        37.800          40.100
  21132802.609                    21132808.777    21132808.832   111053734.665 8
  86535345.662 7        50.800          47.900
  22366939.492                    22366945.074    22366945.012   117539071.750 7
  91588900.722 7        45.600          44.700
 14  1  1  0 54 30.0000000  0  8G04G02G14G25G29G24G12G31
  23661336.539                                    23661341.941   124341083.449 6
  96889244.62343        41.300          20.100
  23161984.914                                    23161988.090   121716861.958 7
  94844497.64745        44.200          30.900
  22008354.422                                    22008360.293   115654593.768 7
  90120545.94044        46.500          29.600
  20165371.461                    20165380.383                   105969696.582 8
  82573891.956 8        52.100          51.300
  21617272.180                    21617279.168    21617278.988   113599355.654 8
  88519151.641 7        48.900          44.900
  24353642.758                    24353653.027                   127979406.400 6
  99724155.061 6        38.200          39.000
  21145274.758                    21145280.516    21145280.395   111119274.972 8
  86586416.027 8        50.800          48.200
  22351355.305                    22351360.828    22351360.941   117457173.424 7
  91525083.853 7        45.100          44.500
 14  1  1  0 55  0.0000000  0  8G04G02G14G25G29G24G12G31
  23668878.359                                    23668885.168   124380721.704 6
  96920131.59643        40.900          20.100
  23154202.109                                    23154205.813   121675965.123 7
  94812629.98745        43.200          30.200
  22019844.258                                    22019850.129   115714974.107 7
  90167595.54144        46.300          29.800
  20163579.813                    20163588.969                   105960281.771 8
  82566555.744 8        52.100          51.200
  21601144.016                    21601150.887    21601150.824   113514602.495 8
  88453110.252 7        48.700          45.500
  24374712.164                    24374723.078                   128090129.637 6
  99810432.870 6        37.900          39.200
  21157805.813                    21157811.746    21157811.625   111185127.042 8
  86637729.328 7        51.000          47.800
  22335823.945                    22335828.707    22335828.586   117375554.231 7
  91461484.485 7        45.300          43.900
 14  1  1  0 55 30.0000000  0  8G04G02G14G25G29G24G12G31
  23676549.242                                    23676555.465   124421030.898 6
  96951541.34843        39.600          19.600
  23146524.648                                    23146528.703   121635621.027 7
  94781193.04344        44.500          29.900
  22031444.117                                    22031449.871   115775932.206 7
  90215095.34544        46.300          29.800
  20161886.727                    20161895.941                   105951385.655 8
  82559623.714 8        52.000          51.700
  21585106.383                    21585112.609    21585112.664   113430324.332 8
  88387438.979 7        48.700          45.100
  24395819.359                    24395829.629                   128201044.383 6
  99896859.930 6        37.300          38.900
  21170411.148                    21170416.555    21170416.609   111251368.844 8
  86689346.323 8        50.500          48.100
  22320361.016                    22320366.539    22320366.301   117294296.466 7
  91398166.749 7        45.500          43.800
 14  1  1  0 56  0.0000000  0  8G04G02G14G25G29G24G12G31
  23684317.609                                    23684324.184   124461853.712 6
  96983351.34143        39.600          18.600
  23138923.531                                    23138927.352   121595675.631 7
  94750066.78545        43.600          30.000
  22043123.852                                    22043129.957   115837309.932 7
  90262922.13444        46.500          29.400
  20160263.172                    20160272.445                   105942852.451 8
  82552974.464 8        51.600          51.200
  21569129.758                    21569136.688    21569136.684   113346367.321 8
  88322017.939 7        48.600          45.300
  24416931.023                    24416942.230                   128311993.621 6
  99983313.854 6        36.200          38.900
  21183061.133                    21183066.598    21183066.594   111317844.323 8
  86741145.394 8        50.500          48.000
  22304937.906                    22304942.785    22304942.898   117213246.298 7
  91335010.777 7        44.900          44.500
 14  1  1  0 56 30.0000000  0  8G04G02G14G25G29G24G12G31
  23692197.453                                    23692204.145   124503265.213 6
  97015620.02643        38.900          19.600
  23131412.602                                    23131416.305   121556206.800 7
  94719311.85245        43.300          31.000
  22054898.086                                    22054903.898   115899181.239 7
  90311133.51744        46.500          29.900
  20158722.906                    20158731.887                   105934758.432 8
  82546667.433 8        51.900          50.600
  21553229.156                    21553236.145    21553236.141   113262810.167 8
  88256908.498 7        49.500          45.100
  24438066.352                    24438076.035                   128423051.674 6
 100069852.566 6        36.500          38.100
  21195769.969                    21195775.434    21195775.488   111384628.318 8
  86793184.870 7        50.700          47.300
  22289567.750                    22289573.801    22289574.031   117132482.139 7
  91272077.667 7        44.900          43.800
 14  1  1  0 57  0.0000000  0  8G04G02G14G25G29G24G12G31
  23700205.289                                    23700212.625   124545346.203 6
  97048410.40443        39.200          18.600
  23124008.117                                    23124012.758   121517298.419 7
  94688993.65644        43.600          28.800
  22066781.180                                    22066786.582   115961626.241 7
  90359791.95244        45.500          29.200
  20157282.047                    20157290.617                   105927185.832 8
  82540766.716 8        51.400          50.500
  21537421.156                    21537428.320    21537428.082   113179736.951 8
  88192176.143 7        49.100          45.000
  24459236.336                    24459245.551                   128534298.959 6
 100156538.726 6        36.800          38.100
  21208552.344                    21208558.043    21208557.922   111451801.434 8
  86845527.559 7        50.700          47.200
  22274269.969                    22274275.434    22274275.488   117052088.522 7
  91209433.294 7        45.500          43.900
 14  1  1  0 57 30.0000000  0  8G04G02G14G25G29G24G12G31
  23708309.375                                    23708316.184   124587935.079 6
  97081596.54443        39.700          19.900
  23116681.766                                    23116685.293   121478792.247 7
  94658988.85845        44.100          30.300
  22078742.156                                    22078748.262   116024483.327 7
  90408771.47644        46.700          29.600
  20155909.594                    20155918.926                   105919974.712 8
  82535147.668 8        51.600          50.900
  21521674.695                    21521682.445    21521682.324   113096989.569 8
  88127697.686 7        49.600          45.400
  24480410.320                    24480419.711                   128645574.047 6
 100243246.567 6        36.500          37.600
  21221377.719                    21221384.180    21221383.824   111519202.232 8
  86898047.653 7        50.600          47.300
  22259012.688                    22259017.391    22259017.270   116971907.268 7
  91146954.396 7        45.900          44.200
 14  1  1  0 58  0.0000000  0  8G04G02G14G25G29G24G12G31
  23716524.742                                    23716532.898   124631107.848 6
  97115237.68443        39.900          18.600
  23109445.031                                    23109449.320   121440767.072 7
  94629358.87244        43.200          29.900
  22090795.891                                    22090801.879   116087826.753 7
  90458129.96744        45.900          29.800
  20154620.711                    20154630.453                   105913202.249 8
  82529870.423 8        51.100          50.500
  21506005.156                    21506012.027    21506012.082   113014646.909 8
  88063534.595 7        49.300          46.000
  24501604.133                    24501614.871                   128756952.603 5
 100330035.020 6        35.400          37.500
  21234262.125                    21234267.531    21234267.469   111586906.481 8
  86950804.215 7        51.200          47.300
  22243809.523                    22243815.164    22243814.984   116892017.413 7
  91084702.567 7        46.300          44.900
 14  1  1  0 58 30.0000000  0  8G04G02G14G25G29G24G12G31
  23724866.742                                    23724874.371   124674943.739 6
  97149395.49243        40.800          19.600
  23102316.555                                    23102320.785   121403305.554 7
  94600168.09644        43.200          29.400
  22102957.508                                    22102963.086   116151735.712 7
  90507929.13044        44.300          29.700
  20153430.984                    20153439.906                   105906949.560 8
  82524998.215 8        51.700          50.900
  21490429.313                    21490436.184    21490436.473   112932792.410 8
  87999751.886 7        49.100          45.800
  24522833.703                    24522844.617                   128868514.364 6
 100416966.223 6        36.500          37.700
  21247218.758                    21247224.633    21247224.512   111654994.231 8
  87003859.605 7        49.500          47.700
  22228678.500                    22228683.906    22228683.844   116812502.219 7
  91022742.679 7        46.400          43.800
 14  1  1  0 59  0.0000000  0  8G04G02G14G25G29G24G12G31
  23733305.641                                    23733312.156   124719282.875 6
  97183945.47943        41.300          19.600
  23095264.867                                    23095269.508   121366250.481 7
  94571294.01944        44.500          29.800
  22115196.063                                    22115201.699   116216049.346 7
  90558043.63944        46.300          29.600
  20152309.461                    20152318.676                   105901057.879 8
  82520407.291 8        51.600          51.400
  21474915.922                    21474922.383    21474922.320   112851269.587 8
  87936227.625 7        48.400          46.000
  24544068.602                    24544077.992                   128980098.349 5
 100503914.767 6        34.300          37.600
  21260217.781                    21260224.477    21260224.180   111723305.281 8
  87057088.983 7        50.000          47.000
  22213588.359                    22213594.059    22213593.996   116733204.927 7
  90960952.585 7        45.900          44.000
 14  1  1  0 59 30.0000000  0  8G04G02G14G25G29G24G12G31
  23741852.289                                    23741859.215   124764202.321 6
  97218947.65843        41.100          21.100
  23088306.734                                    23088310.555   121329682.622 7
  94542799.61445        44.100          30.400
  22127526.000                                    22127532.047   116280844.272 7
  90608533.17244        45.900          28.400
  20151272.445                    20151281.074                   105895606.078 8
  82516159.140 8        51.500          51.200
  21459481.094                    21459487.730    21459487.609   112770158.838 8
  87873024.464 7        49.300          45.700
  24565321.180                    24565331.098                   129091782.060 5
 100590941.004 6        34.500          37.600
  21273274.234                    21273279.875    21273279.871   111791917.548 8
  87110553.080 7        49.900          46.900
  22198555.367                    22198561.125    22198561.004   116654206.824 7
  90899395.625 7        45.800          43.900
 14  1  1  1  0  0.0000000  4  5
MORP (COGO code)                                            COMMENT
   0.033      (antenna height)                              COMMENT
 +55.21279000 (latitude)                                    COMMENT
  -1.68549700 (longitude)                                   COMMENT
0144.425      (elevation)                                   COMMENT
 14  1  1  1  0  0.0000000  0  8G04G02G14G25G29G24G12G31
  23750525.445                                    23750532.723   124809781.469 6
  97254463.85643        41.400          19.600
  23081456.133                                    23081459.895   121293683.709 7
  94514748.54545        44.500          31.100
  22139962.836                                    22139968.648   116346198.994 7
  90659458.90544        45.900          28.900
  20150334.086                    20150343.242                   105890674.655 8
  82512316.476 8        52.200          51.100
  21444139.750                    21444146.973    21444146.969   112689542.746 8
  87810206.751 7        49.200          45.700
  24586607.047                    24586618.020                   129203644.142 5
 100678106.225 6        35.600          36.700
  21286402.984                    21286409.211    21286408.973   111860910.247 8
  87164313.620 7        49.900          47.200
  22183595.477                    22183600.883    22183600.820   116575590.554 7
  90838136.194 7        46.200          43.800
 14  1  1  1  0 30.0000000  0  8G04G02G14G25G29G24G12G31
  23759294.688                                    23759300.734   124855859.308 6
  97290368.69943        41.700          19.300
  23074683.914                                    23074687.617   121258096.335 7
  94487018.14545        44.800          31.400
  22152475.406                                    22152480.516   116411952.146 7
  90710695.10744        46.000          27.700
  20149464.336                    20149473.199                   105886104.353 8
  82508755.197 8        52.100          50.900
  21428863.539                    21428870.293    21428869.996   112609264.028 8
  87747651.922 7        49.000          46.000
  24607897.516                    24607907.902                   129315524.049 5
 100765285.337 6        35.300          36.700
  21299573.648                    21299579.465    21299579.578   111930122.517 8
  87218245.252 7        50.500          46.700
  22168677.852                    22168683.434    22168683.371   116497198.535 7
  90777051.508 7        46.000          43.800
 14  1  1  1  1  0.0000000  0  8G04G02G14G25G29G24G12G31
  23768171.461                                    23768178.680   124902510.606 6
  97326720.36143        41.100          20.400
  23068005.273                                    23068009.094   121222998.192 7
  94459668.96745        44.400          31.200
  22165077.211                                    22165083.141   116478177.435 7
  90762299.21444        45.800          28.700
  20148677.844                    20148686.707                   105881971.465 8
  82505534.761 8        52.100          51.500
  21413666.164                    21413672.566    21413672.797   112529400.855 8
  87685420.888 7        49.100          46.200
  24629205.000                    24629215.035                   129427496.388 6
 100852536.480 6        36.200          36.800
  21312800.586                    21312806.402    21312806.340   111999629.415 8
  87272406.463 7        50.200          47.300
  22153817.914                    22153823.379    22153823.316   116419109.319 7
  90716202.772 7        46.800          43.500
 14  1  1  1  1 30.0000000  0  8G04G02G14G25G29G24G12G31
  23777173.430                                    23777180.063   124949816.082 6
  97363581.77043        41.700          20.100
  23061435.516                                    23061438.984   121188472.974 7
  94432766.20745        44.500          30.800
  22177784.492                                    22177790.656   116544954.640 7
  90814333.38444        45.900          28.800
  20147990.266                    20147999.070                   105878358.264 8
  82502719.277 8        52.700          51.400
  21398563.852                    21398570.547    21398570.309   112450037.615 8
  87623579.419 7        48.600          46.300
  24650546.477                    24650556.277                   129539641.842 5
 100939922.506 6        35.500          36.600
  21326098.695                    21326104.570    21326104.332   112069511.473 8
  87326860.011 7        49.300          47.400
  22139032.008                    22139037.355    22139037.234   116341407.339 7
  90655655.773 7        46.200          44.200
 14  1  1  1  2  0.0000000  0  8G04G02G14G25G29G24G12G31
  23786269.273                                    23786276.551   124997616.281 6
  97400828.70943        40.900          18.600
  23054944.500                                    23054948.145   121154364.723 7
  94406188.36945        45.200          30.500
  22190566.641                                    22190572.922   116612124.115 7
  90866673.22244        45.500          27.700
  20147371.945                    20147380.867                   105875106.996 8
  82500185.818 8        52.300          51.300
  21383526.891                    21383533.352    21383533.465   112371018.446 8
  87562006.061 7        48.300          46.300
  24671889.570                    24671899.430                   129651801.247 5
 101027319.409 6        35.500          36.000
  21339438.383                    21339443.906    21339443.844   112139610.947 8
  87381482.963 7        49.300          47.600
  22124290.164                    22124295.043    22124294.863   116263937.030 7
  90595289.299 7        44.500          43.900
 14  1  1  1  2 30.0000000  0  8G04G02G14G25G29G24G12G31
  23795473.984                                    23795481.262   125045986.497 6
  97438519.78742        40.600          17.400
  23048548.328                                    23048551.738   121120751.584 7
  94379996.31845        45.000          30.500
  22203437.305                                    22203443.234   116679760.423 7
  90919376.80544        45.100          28.100
  20146836.242                    20146845.340                   105872294.350 8
  82497994.132 8        51.900          51.000
  21368571.063                    21368577.406    21368577.461   112292422.048 8
  87500762.127 7        48.100          45.500
  24693248.242                    24693259.449                   129764049.161 5
 101114785.293 6        35.200          36.800
  21352833.563                    21352838.969    21352838.789   112210002.457 8
  87436333.483 7        49.100          47.300
  22109607.008                    22109612.004    22109611.883   116186777.160 7
  90535164.733 7        46.000          43.500
 14  1  1  1  3  0.0000000  0  8G04G02G14G25G29G24G12G31
  23804801.641                                    23804809.094   125095007.219 6
  97476717.75642        39.500          17.800
  23042261.852                                    23042265.730   121087717.410 7
  94354255.41545        44.200          30.500
  22216411.672                                    22216418.129   116747943.138 7
  90972506.16544        45.200          28.000
  20146400.305                    20146409.051                   105870002.467 8
  82496208.255 8        51.900          51.300
  21353710.656                    21353717.059    21353716.879   112214332.375 8
  87439913.047 7        48.800          45.800
  24714641.867                    24714651.727                   129876466.477 5
 101202383.169 5        35.500          35.500
  21366299.078                    21366305.246    21366305.125   112280766.480 8
  87491474.263 7        49.100          47.300
  22094999.094                    22095004.734    22095004.555   116110011.716 7
  90475347.505 7        47.500          44.200
 14  1  1  1  3 30.0000000  0  8G04G02G14G25G29G24G12G31
  23814223.281                                    23814229.914   125144516.246 6
  97515296.21942        40.200          17.800
  23036055.414                                    23036058.883   121055103.141 7
  94328841.71745        45.100          30.000
  22229458.648                                    22229465.750   116816509.894 7
  91025934.79044        44.800          27.100
  20146032.781                    20146041.586                   105868070.859 8
  82494703.100 8        52.100          51.300
  21338916.977                    21338923.496    21338923.434   112136590.824 8
  87379335.217 7        49.000          46.200
  24736036.008                    24736045.105                   129988891.351 6
 101289986.934 5        36.400          35.800
  21379805.586                    21379810.875    21379810.930   112351742.172 8
  87546779.991 7        49.800          47.500
  22080436.117                    22080441.758    22080441.578   116033482.684 7
  90415714.500 7        47.100          44.000
 14  1  1  1  4  0.0000000  0  8G04G02G14G25G29G24G12G31
  23823751.180                                    23823758.984   125194587.099 6
  97554312.44442        39.600          17.800
  23029943.930                                    23029947.574   121022985.092 7
  94303814.67944        45.100          29.700
  22242594.195                                    22242600.594   116885533.126 7
  91079719.10744        44.600          26.900
  20145748.086                    20145757.008                   105866574.613 8
  82493537.204 8        52.300          51.100
  21324204.289                    21324211.160    21324211.156   112059274.807 8
  87319088.990 7        48.400          46.000
  24757445.242                    24757454.457                   130101397.095 5
 101377653.726 5        35.100          35.300
  21393365.984                    21393371.684    21393371.680   112423002.868 8
  87602307.807 7        49.600          47.200
  22065932.328                    22065938.262    22065938.258   115957267.075 7
  90356325.713 7        47.200          43.900
 14  1  1  1  4 30.0000000  0  8G04G02G14G25G29G24G12G31
  23833403.031                                    23833410.367   125245305.307 6
  97593833.11542        39.100          17.400
  23023943.016                                    23023946.543   120991451.957 7
  94279243.41945        44.700          30.700
  22255832.445                                    22255837.789   116955097.872 7
  91133925.39244        44.900          26.800
  20145562.797                    20145571.602                   105865600.857 8
  82492778.434 8        52.000          51.300
  21309588.719                    21309596.176    21309596.113   111982473.145 8
  87259243.546 7        49.000          45.800
  24778885.688                    24778895.195                   130214069.238 5
 101465450.183 5        35.500          35.400
  21406997.031                    21407003.141    21407003.020   112494634.282 8
  87658124.480 7        49.300          46.600
  22051505.531                    22051511.289    22051510.758   115881454.040 7
  90297250.619 7        47.600          44.500
 14  1  1  1  5  0.0000000  0  8G04G02G14G25G29G24G12G31
  23843145.617                                    23843152.953   125296505.312 6
  97633729.25942        39.200          17.400
  23018022.938                                    23018026.406   120960341.435 7
  94255001.48344        45.600          29.900
  22269141.633                                    22269147.563   117025038.124 7
  91188424.26344        44.100          27.000
  20145445.469                    20145455.035                   105864985.692 8
  82492299.089 8        51.900          51.500
  21295041.422                    21295048.469    21295048.230   111906023.695 8
  87199672.559 7        48.800          46.000
  24800326.641                    24800336.617                   130326742.586 5
 101553247.577 5        35.200          35.700
  21420667.242                    21420672.883    21420672.527   112566471.443 8
  87714101.473 7        48.800          47.400
  22037124.734                    22037130.258    22037130.254   115805882.421 7
  90238363.642 7        47.400          44.100
 14  1  1  1  5 30.0000000  0  8G04G02G14G25G29G24G12G31
  23852995.766                                    23853002.281   125348264.503 6
  97674061.05642        39.900          16.300
  23012198.797                                    23012202.148   120929734.013 7
  94231151.56644        45.300          29.700
  22282536.945                                    22282542.230   117095430.155 7
  91243275.17244        44.700          27.300
  20145411.797                    20145420.895                   105864808.053 8
  82492160.675 8        51.700          51.300
  21280576.102                    21280582.563    21280582.383   111830007.513 8
  87140439.167 7        48.500          46.200
  24821781.555                    24821792.176                   130439494.189 5
 101641105.965 5        34.800          35.500
  21434391.242                    21434396.941    21434396.762   112638592.248 8
  87770299.497 7        49.100          46.400
  22022805.430                    22022811.070    22022810.891   115730632.978 7
  90179727.708 7        47.200          44.500
 14  1  1  1  6  0.0000000  0  8G04G02G14G25G29G24G12G31
  23862967.133                                    23862973.941   125400663.657 6
  97714891.55942        40.500          17.800
  23006485.477                                    23006489.355   120899713.471 7
  94207758.95145        45.100          30.300
  22296032.539                                    22296038.996   117166354.428 7
  91298540.82244        44.100          26.200
  20145476.961                    20145485.941                   105865150.453 8
  82492427.481 8        51.700          51.400
  21266209.141                    21266216.539    21266216.477   111754509.132 8
  87081609.279 7        48.100          46.500
  24843268.648                    24843278.215                   130552405.263 5
 101729088.604 5        34.900          35.900
  21448185.250                    21448190.773    21448190.594   112711078.652 8
  87826782.403 7        48.000          46.800
  22008563.164                    22008568.395    22008568.684   115655790.326 7
  90121408.759 7        46.700          44.000
 14  1  1  1  6 30.0000000  0  8G04G02G14G25G29G24G12G31
  23873029.516                                    23873035.855   125453541.045 6
  97756094.68142        41.200          17.800
  23000854.531                                    23000858.645   120870121.319 7
  94184700.15245        45.700          30.200
  22309599.430                                    22309605.242   117237648.439 7
  91354094.56644        44.700          27.200
  20145610.742                    20145619.840                   105865852.906 8
  82492974.844 8        52.300          51.100
  21251910.648                    21251917.051    21251916.988   111679370.534 8
  87023059.736 7        48.800          46.300
  24864754.836                    24864764.813                   130665314.272 5
 101817069.648 5        35.500          35.400
  21462017.289                    21462022.930    21462022.750   112783768.773 8
  87883424.052 7        48.700          46.800
  21994368.883                    21994374.113    21994373.992   115581196.688 7
  90063283.846 7        47.500          44.300
 14  1  1  1  7  0.0000000  0  8G04G02G14G25G29G24G12G31
  23883197.102                                    23883203.734   125506970.083 6
  97797727.64743        41.100          18.300
  22995319.281                                    22995323.277   120841034.573 7
  94162035.17745        44.700          30.000
  22323251.359                                    22323256.996   117309385.440 7
  91409993.50344        43.400          25.600
  20145827.008                    20145835.871                   105866990.813 8
  82493861.522 8        52.200          51.800
  21237695.016                    21237701.945    21237702.059   111604668.550 8
  86964850.414 7        48.100          46.600
  24886252.656                    24886263.688                   130778294.963 5
 101905106.549 5        35.200          35.000
  21475902.695                    21475908.688    21475908.684   112856736.489 8
  87940282.013 7        48.300          46.000
  21980236.352                    21980241.289    21980241.402   115506929.675 7
  90005413.450 7        47.100          44.300
 14  1  1  1  7 30.0000000  0  8G04G02G14G25G29G24G12G31
  23893484.297                                    23893491.574   125561034.111 6
  97839855.45043        40.900          19.000
  22989896.688                                    22989900.977   120812539.072 7
  94139830.90445        45.300          30.200
  22337002.023                                    22337008.246   117381647.813 6
  91466301.81344        41.500          26.800
  20146142.523                    20146151.621                   105868648.801 8
  82495153.458 8        52.800          51.200
  21223579.781                    21223586.184    21223586.238   111530489.947 8
  86907048.916 7        48.800          46.100
  24907784.188                    24907793.461                   130891430.444 5
 101993264.063 5        35.400          35.000
  21489856.492                    21489863.188    21489863.066   112930065.595 8
  87997421.567 7        48.000          46.300
  21966182.031                    21966187.848    21966187.844   115433075.957 7
  89947865.104 7        47.100          44.300
 14  1  1  1  8  0.0000000  0  8G04G02G14G25G29G24G12G31
  23903862.281                                    23903869.910   125615569.987 6
  97882350.90043        40.800          18.600
  22984556.578                                    22984560.340   120784475.103 7
  94117962.89145        45.400          30.500
  22350821.484                                    22350828.059   117454271.939 6
  91522892.01444        41.700          26.400
  20146526.555                    20146535.418                   105870665.719 8
  82496725.092 8        52.800          51.600
  21209533.070                    21209539.531    21209539.410   111456675.417 8
  86849531.116 7        48.700          46.200
  24929311.367                    24929320.406                   131004558.093 5
 102081415.470 5        35.400          35.100
  21503848.508                    21503854.207    21503854.262   113003594.130 7
  88054716.520 7        47.800          46.500
  21952176.875                    21952182.281    21952182.160   115359476.662 7
  89890514.995 7        47.300          44.100
 14  1  1  1  8 30.0000000  0  8G04G02G14G25G29G24G12G31
  23914344.258                                    23914351.359   125670652.989 6
  97925272.74643        40.400          19.000
  22979312.133                                    22979316.598   120756920.988 7
  94096492.16145        45.600          30.500
  22364724.734                                    22364730.488   117527332.475 7
  91579822.27244        43.100          24.700
  20146993.203                    20147002.008                   105873118.427 8
  82498636.293 8        52.500          51.300
  21195570.875                    21195578.098    21195578.035   111383304.261 8
  86792358.808 7        49.300          46.400
  24950851.188                    24950860.578                   131117753.248 5
 102169619.470 5        35.300          35.100
  21517892.906                    21517898.371    21517898.484   113077397.401 8
  88112225.559 7        49.000          46.400
  21938234.805                    21938240.504    21938240.266   115286211.132 7
  89833424.981 7        47.600          45.400
 14  1  1  1  9  0.0000000  0  8G04G02G14G25G29G24G12G31
  23924946.219                                    23924953.613   125726366.193 6
  97968685.61143        39.900          18.600
  22974183.039                                    22974187.152   120729962.776 7
  94075485.77944        45.000          29.900
  22378726.859                                    22378733.141   117600911.784 7
  91637156.75944        43.900          26.500
  20147558.883                    20147567.570                   105876091.589 8
  82500953.043 8        52.500          51.700
  21181709.844                    21181716.715    21181716.652   111310462.702 8
  86735599.175 7        49.200          46.800
  24972419.422                    24972429.574                   131231099.191 5
 102257940.962 5        34.800          35.400
  21532005.719                    21532011.125    21532011.121   113151558.816 8
  88170013.670 7        49.100          46.100
  21924372.711                    21924377.883    21924378.055   115213365.952 7
  89776662.501 7        47.200          44.800
 14  1  1  1  9 30.0000000  0  8G04G02G14G25G29G24G12G31
  23935636.234                                    23935644.098   125782544.585 6
  98012460.96642        40.200          17.400
  22969136.367                                    22969139.543   120703438.964 7
  94054817.87945        45.800          30.900
  22392794.867                                    22392801.852   117674844.296 7
  91694766.48544        43.700          25.300
  20148192.930                    20148202.027                   105879422.399 8
  82503548.466 8        51.800          51.500
  21167918.367                    21167925.355    21167925.117   111237989.549 8
  86679126.602 7        48.500          46.100
  24993986.992                    24993995.621                   131344431.424 5
 102346251.796 5        35.000          34.700
  21546155.211                    21546161.027    21546161.082   113225914.993 8
  88227953.535 7        49.000          46.400
  21910560.359                    21910565.590    21910565.645   115140780.627 7
  89720102.510 7        47.600          45.300
 14  1  1  1 10  0.0000000  0  8G04G02G14G25G29G24G12G31
  23946429.961                                    23946437.531   125839263.726 6
  98056657.65042        39.900          17.400
  22964186.070                                    22964189.949   120677428.144 7
  94034549.71445        45.200          30.400
  22406945.820                                    22406951.984   117749205.346 7
  91752710.12244        42.900          24.500
  20148909.477                    20148918.281                   105883187.984 8
  82506482.685 8        52.100          51.300
  21154212.477                    21154218.820    21154218.992   111165963.938 8
  86623002.771 7        49.100          46.600
  25015564.109                    25015573.734                   131457825.512 5
 102434610.814 5        35.200          34.400
  21560355.977                    21560361.676    21560362.023   113300541.651 8
  88286104.169 7        48.400          46.300
  21896812.195                    21896818.070    21896817.715   115068534.581 7
  89663806.895 7        47.100          44.900
 14  1  1  1 10 30.0000000  0  8G04G02G14G25G29G24G12G31
  23957341.938                                    23957349.273   125896606.891 6
  98101340.60242        39.200          16.300
  22959350.523                                    22959354.109   120652016.284 7
  94014748.26944        45.300          29.700
  22421193.398                                    22421199.914   117824077.082 7
  91811051.71144        43.100          26.800
  20149724.594                    20149733.047                   105887473.127 8
  82509821.750 8        52.100          51.500
  21140607.922                    21140615.438    21140615.258   111094472.560 8
  86567295.214 7        48.800          46.600
  25037170.539                    25037180.867                   131571364.934 5
 102523083.084 5        34.900          34.600
  21574624.523                    21574630.809    21574630.570   113375522.327 8
  88344530.658 7        48.800          46.600
  21883145.547                    21883151.129    21883151.066   114996714.727 7
  89607843.377 7        47.300          45.100
 14  1  1  1 11  0.0000000  0  8G04G02G14G25G29G24G12G31
  23968341.016                                    23968348.879   125954409.409 6
  98146381.52342        38.800          15.600
  22954597.961                                    22954601.488   120627042.578 7
  93995288.26145        45.300          30.900
  22435507.289                                    22435513.746   117899294.555 7
  91869662.70844        43.400          26.300
  20150608.313                    20150617.000                   105892115.377 8
  82513439.087 8        52.500          51.500
  21127074.781                    21127081.711    21127081.766   111023355.079 8
  86511879.009 7        49.400          46.800
  25058771.844                    25058782.875                   131684885.553 5
 102611540.688 5        34.100          35.300
  21588928.867                    21588934.625    21588934.270   113450693.407 8
  88403105.516 7        49.500          46.300
  21869529.359                    21869534.941    21869534.938   114925160.897 7
  89552087.147 7        47.900          45.300
 14  1  1  1 11 30.0000000  0  8G04G02G14G25G29G24G12G31
  23979442.430                                    23979450.703   126012749.841 6
  98191841.57942        38.900          17.400
  22949944.445                                    22949948.500   120602588.555 7
  93976233.18545        45.200          30.200
  22449901.516                                    22449907.563   117974935.743 7
  91928603.85544        42.900          25.300
  20151574.852                    20151583.715                   105897194.903 8
  82517397.159 8        51.800          51.500
  21113628.734                    21113635.313    21113635.133   110952693.348 8
  86456817.939 7        49.800          46.500
  25080386.727                    25080396.703                   131798466.115 5
 102700045.026 5        33.700          35.300
  21603284.875                    21603290.340    21603290.336   113526133.924 8
  88461890.321 7        48.800          46.000
  21855978.883                    21855984.523    21855984.637   114853955.176 8
  89496602.165 7        48.400          45.300
 14  1  1  1 12  0.0000000  0  8G04G02G14G25G29G24G12G31
  23990662.391                                    23990669.082   126071706.290 6
  98237781.64542        37.600          17.800
  22945405.297                                    22945409.293   120578735.092 7
  93957646.06944        44.900          29.700
  22464391.023                                    22464397.188   118051078.432 7
  91987935.75544        42.700          25.900
  20152639.703                    20152648.391                   105902791.632 8
  82521758.253 8        52.100          51.900
  21100284.281                    21100291.152    21100291.031   110882568.964 8
  86402175.569 7        50.200          46.600
  25102026.391                    25102037.012                   131912185.553 5
 102788657.552 5        34.300          34.800
  21617707.023                    21617712.488    21617712.367   113601922.871 8
  88520946.631 7        48.200          45.500
  21842510.945                    21842516.293    21842516.289   114783180.237 8
  89441452.865 7        48.500          45.500
 14  1  1  1 12 30.0000000  0  8G04G02G14G25G29G24G12G31
  24001967.766                                    24001974.281   126131114.818 6
  98284073.98842        38.700          16.900
  22940950.344                                    22940954.105   120555321.411 7
  93939401.65945        45.000          30.400
  22478943.875                                    22478950.215   118127557.855 7
  92047530.08044        42.000          24.000
  20153772.281                    20153781.027                   105908743.388 8
  82526395.989 8        52.500          51.800
  21087012.055                    21087018.633    21087018.570   110812821.777 8
  86347827.123 7        50.000          46.600
  25123663.203                    25123672.066                   132025880.104 5
 102877250.713 5        33.500          35.300
  21632164.242                    21632169.180    21632169.117   113677896.691 8
  88580147.003 7        48.800          47.000
  21829094.711                    21829099.824    21829099.938   114712675.988 8
  89386514.494 7        48.200          45.100
 14  1  1  1 13  0.0000000  0  8G04G02G14G25G29G24G12G31
  24013387.711                                    24013395.047   126191131.258 6
  98330840.03042        38.700          15.600
  22936608.680                                    22936612.559   120532506.718 7
  93921624.00445        44.900          30.000
  22493591.648                                    22493597.520   118204529.340 6
  92107507.80744        41.800          25.400
  20155002.656                    20155011.520                   105915207.941 8
  82531433.294 8        52.000          51.100
  21073841.594                    21073848.406    21073848.344   110743610.980 8
  86293896.655 7        50.700          46.000
  25145322.039                    25145332.543                   132139705.807 5
 102965946.026 5        31.600          35.800
  21646687.047                    21646692.570    21646692.391   113754212.546 8
  88639613.896 7        48.900          46.000
  21815759.906                    21815765.430    21815765.660   114642602.383 8
  89331911.682 7        48.500          45.100
 14  1  1  1 13 30.0000000  0  8G04G02G14G25G29G24G12G31
  24024894.844                                    24024902.648   126251603.385 6
  98377961.14842        38.900          15.600
  22932352.516                                    22932356.219   120510141.711 7
  93904196.74045        45.100          30.600
  22508302.383                                    22508309.426   118281839.989 6
  92167749.83743        39.900          23.400
  20156301.516                    20156310.672                   105922034.748 8
  82536752.880 8        52.100          51.100
  21060745.125                    21060751.820    21060751.641   110674788.682 8
  86240268.902 7        50.500          46.700
  25166979.031                    25166988.715                   132253510.558 5
 103054625.055 5        31.800          34.700
  21661245.273                    21661251.207    21661251.145   113830718.423 8
  88699228.858 7        48.200          46.600
  21802478.914                    21802484.965    21802484.785   114572811.001 8
  89277528.785 7        48.500          45.400
 14  1  1  1 14  0.0000000  0  8G04G02G14G25G29G24G12G31
  24036503.422                                    24036509.234   126312598.405 6
  98425489.71742        39.400          16.300
  22928195.945                                    22928199.063   120488296.931 7
  93887174.85145        45.700          30.400
  22523092.258                                    22523098.949   118359557.238 6
  92228308.70944        40.100          24.700
  20157682.969                    20157691.715                   105929293.170 8
  82542408.781 8        51.800          51.500
  21047736.008                    21047742.586    21047742.582   110606425.627 8
  86186998.996 7        51.100          47.100
  25188642.445                    25188654.121                   132367362.712 5
 103143341.009 5        30.300          34.400
  21675853.219                    21675858.859    21675858.738   113907482.778 8
  88759045.230 7        48.800          46.300
  21789265.500                    21789271.492    21789271.488   114503373.553 8
  89223421.689 7        49.000          45.600
 14  1  1  1 14 30.0000000  0  8G04G02G14G25G29G24G12G31
  24048224.578                                    24048231.211   126374198.047 6
  98473489.44042        39.200          15.600
  22924154.063                                    22924157.707   120467057.057 7
  93870624.31045        45.100          30.200
  22537974.109                                    22537980.566   118437761.504 6
  92289247.05743        41.500          23.300
  20159161.945                    20159171.219                   105937066.571 8
  82548465.973 8        51.600          51.500
  21034830.188                    21034837.176    21034837.289   110538607.065 8
  86134153.384 7        50.600          47.000
  25210333.352                    25210343.504                   132481343.777 5
 103232157.384 5        31.000          34.300
  21690525.734                    21690531.609    21690531.605   113984587.995 8
  88819127.205 7        49.100          46.100
  21776135.664                    21776141.598    21776141.477   114434375.752 8
  89169657.166 7        48.600          46.200
 14  1  1  1 15  0.0000000  0  8G04G02G14G25G29G24G12G31
  24060032.508                                    24060038.906   126436244.681 6
  98521837.46142        39.500          17.400
  22920198.086                                    22920201.672   120446267.532 7
  93854424.67545        44.800          31.300
  22552918.617                                    22552924.840   118516294.637 6
  92350441.65744        41.500          26.300
  20160709.805                    20160718.316                   105945199.227 8
  82554803.113 8        52.500          51.200
  21021999.711                    21022005.762    21022005.758   110471179.019 8
  86081612.061 7        51.300          46.900
  25232017.617                    25232028.648                   132595297.18915
 103320952.25115        30.500          34.900
  21705233.547                    21705239.246    21705239.125   114061877.288 8
  88879352.623 7        49.400          45.700
  21763060.461                    21763066.043    21763066.039   114365664.200 8
  89116115.701 7        48.400          45.700
 14  1  1  1 15 30.0000000  0  8G04G02G14G25G29G24G12G31
  24071937.648                                    24071945.219   126498810.619 6
  98570590.14742        39.100          15.600
  22916341.625                                    22916345.504   120426003.981 7
  93838634.90045        44.900          30.800
  22567939.180                                    22567945.695   118595228.699 7
  92411948.69744        42.100          25.100
  20162339.656                    20162348.988                   105953765.446 8
  82561478.101 8        51.700          51.200
  21009257.211                    21009263.730    21009263.551   110404217.052 8
  86029433.925 7        48.400          47.000
  25253711.422                    25253721.047                   132709295.420 5
 103409782.032 5        30.500          33.800
  21719990.094                    21719995.910    21719995.789   114139424.048 8
  88939778.657 7        49.200          46.300
  21750053.977                    21750059.969    21750059.965   114297315.491 7
  89062856.959 7        45.200          45.900
 14  1  1  1 16  0.0000000  0  8G04G02G14G25G29G24G12G31
  24083956.508                                    24083963.668   126561970.783 6
  98619805.85942        38.700          17.400
  22912601.461                                    22912604.461   120406344.632 7
  93823315.94045        46.100          31.200
  22583050.906                                    22583057.070   118674638.095 6
  92473826.09944        41.800          24.000
  20164066.992                    20164075.797                   105962841.946 8
  82568550.695 8        52.500          51.400
  20996618.445                    20996624.906    20996624.785   110337800.543 8
  85977680.813 7        50.900          47.200
  25275426.211                    25275438.004                   132823413.526 5
 103498705.228 5        30.500          34.000
  21734809.961                    21734816.012    21734815.773   114217303.737 8
  89000464.120 7        49.700          45.700
  21737131.633                    21737136.863    21737137.035   114229408.602 8
  89009942.501 7        48.600          45.500
 14  1  1  1 16 30.0000000  0  8G04G02G14G25G29G24G12G31
  24096059.586                                    24096067.039   126625571.979 6
  98669365.20642        38.800          16.900
  22908946.289                                    22908949.582   120387138.937 7
  93808350.48045        45.100          31.700
  22598221.922                                    22598228.906   118754369.401 7
  92535954.35043        42.400          23.200
  20165862.234                    20165871.391                   105972277.497 8
  82575903.067 8        52.200          50.900
  20984055.180                    20984061.875    20984061.637   110271780.000 8
  85926236.254 7        51.500          46.900
  25297137.109                    25297147.320                   132937499.318 5
 103587603.250 5        31.000          34.000
  21749664.609                    21749669.781    21749670.070   114295363.890 8
  89061290.201 7        49.300          46.300
  21724265.352                    21724271.227    21724271.281   114161794.573 8
  88957256.252 7        49.500          45.900
 14  1  1  1 17  0.0000000  0  8G04G02G14G25G29G24G12G31
  24108260.180                                    24108267.574   126689685.215 6
  98719323.52242        37.700          14.800
  22905391.891                                    22905395.887   120368461.100 7
  93793796.32445        45.600          32.300
  22613469.672                                    22613476.070   118834492.738 7
  92598388.10244        42.000          25.100
  20167740.141                    20167748.770                   105982144.935 8
  82583591.978 8        52.700          51.700
  20971581.219                    20971587.680    20971587.500   110206229.846 8
  85875158.232 7        51.500          47.300
  25318853.047                    25318864.195                   133051623.92215
 103676531.49015        30.100          33.900
  21764566.844                    21764572.367    21764572.305   114373676.569 8
  89122313.061 7        49.600          45.400
  21711468.742                    21711474.266    21711474.262   114094548.240 8
  88904856.510 7        49.200          46.400
 14  1  1  1 17 30.0000000  0  8G04G02G14G25G29G24G12G31
  24120572.023                                    24120580.063   126754388.396 5
  98769741.57942        35.800          15.600
  22901952.688                                    22901956.918   120350392.120 7
  93779716.61545        45.300          31.100
  22628806.766                                    22628812.871   118915085.635 6
  92661187.69144        41.700          24.600
  20169715.617                    20169724.305                   105992524.191 8
  82591679.699 8        52.800          51.500
  20959212.508                    20959218.617    20959218.789   110141231.748 8
  85824510.370 7        50.700          47.000
  25340592.523                    25340604.844                   133165866.669 5
 103765551.804 5        30.800          34.600
  21779532.438                    21779537.961    21779537.957   114452321.156 8
  89183594.547 7        49.100          45.900
  21698757.805                    21698763.914    21698763.793   114027752.203 8
  88852807.651 7        49.200          45.800
 14  1  1  1 18  0.0000000  0  8G04G02G14G25G29G24G12G31
  24132966.852                                    24132975.887   126819524.952 5
  98820497.33642        35.400          15.600
  22898601.266                                    22898605.555   120332778.546 7
  93765991.77445        44.600          31.200
  22644201.977                                    22644208.727   118995991.040 6
  92724230.82643        41.200          22.900
  20171758.484                    20171766.996                   106003260.641 8
  82600045.771 8        52.500          51.600
  20946919.758                    20946926.629    20946926.566   110076632.880 8
  85774173.613 7        50.700          47.600
  25362327.875                    25362337.559                   133280070.710 5
 103854541.962 5        30.500          33.700
  21794531.711                    21794537.059    21794536.938   114531141.506 8
  89245012.978 7        49.500          45.800
  21686103.945                    21686109.059    21686109.230   113961254.007 8
  88800990.874 7        49.200          45.800
 14  1  1  1 18 30.0000000  0  8G04G02G14G25G29G24G12G31
  24145457.938                                                   126885165.772 5
                        35.100
  22895350.883                                    22895354.410   120315694.413 7
  93752679.46545        42.300          31.200
  22659670.555                                    22659677.539   119077279.634 6
  92787572.53743        41.600          23.300
  20173883.563                    20173892.367                   106014427.012 8
  82608746.853 8        51.600          51.300
  20934716.930                    20934723.801    20934723.855   110012507.798 8
  85724206.029 7        48.400          47.500
  25384063.664                    25384076.219                   133394307.97514
 103943558.00115        29.100          31.900
  21809577.742                    21809583.559    21809583.438   114610209.079 8
  89306624.065 7        49.700          46.100
  21673520.242                    21673526.059    21673526.172   113895128.634 7
  88749464.603 7        45.800          45.800
 14  1  1  1 19  0.0000000  0  7G04G02G14G25G29G12G31
  24158060.664                                                   126951394.188 5
                        35.500
  22892217.141                                    22892220.609   120299226.314 7
  93739847.19545        44.600          30.700
  22675228.398                                    22675234.270   119159033.979 6
  92851277.18943        41.000          22.800
  20176106.320                    20176115.008                   106026108.641 8
  82617849.429 8        51.700          51.300
  20922620.906                    20922627.602    20922627.598   109948943.355 8
  85674675.314 7        48.500          47.000
  21824686.719                    21824692.301    21824692.180   114689608.574 8
  89368493.789 7        49.100          45.300
  21661025.148                    21661030.730    21661030.492   113829463.923 7
  88698297.296 7        46.000          45.600
 14  1  1  1 19 30.0000000  0  7G04G02G14G25G29G12G31
  24170744.516                                                   127018046.134 6
                        36.500
  22889169.836                                    22889173.832   120283213.251 7
  93727369.48745        42.600          30.700
  22690842.961                                    22690848.891   119241089.575 6
  92915216.59144        41.500          25.100
  20178396.273                    20178405.078                   106038143.547 8
  82627227.280 8        51.400          50.500
  20910601.297                    20910608.109    20910607.988   109885779.559 8
  85625456.793 7        48.800          47.100
  21839828.117                    21839834.344    21839833.871   114769177.386 8
  89430495.443 7        49.600          45.000
  21648586.500                    21648591.965    21648591.668   113764100.034 7
  88647364.398 7        47.500          45.700
 14  1  1  1 20  0.0000000  0  7G04G02G14G25G29G12G31
  24183522.500                                                   127085197.070 6
                        36.200
  22886224.250                                    22886228.305   120267733.309 7
  93715307.21245        44.600          30.800
  22706528.656                                    22706535.465   119323521.382 6
  92979449.11643        41.100          22.600
  20180768.281                    20180777.320                   106050608.927 8
  82636940.562 8        51.500          51.300
  20898672.867                    20898679.504    20898679.559   109823095.108 7
  85576611.791 7        46.900          47.400
  21855016.633                    21855022.039    21855022.211   114848991.554 8
  89492688.281 7        49.000          44.700
  21636221.063                    21636225.648    21636225.820   113699116.466 7
  88596727.848 7        45.100          46.300
 14  1  1  1 20 30.0000000  0  7G04G02G14G25G29G12G31
  24196412.570                                                   127152929.170 6
                        37.100
  22883395.281                                    22883399.277   120252871.879 7
  93703726.88445        43.800          30.200
  22722302.211                                    22722308.668   119406411.159 6
  93044038.52943        40.900          23.300
  20183238.516                    20183247.320                   106063588.943 8
  82647054.859 8        51.500          51.300
  20886852.094                    20886858.496    20886858.551   109760976.404 8
  85528207.627 7        49.100          46.600
  21870266.875                    21870273.395    21870273.332   114929134.193 8
  89555137.077 7        49.600          45.400
  21623943.266                    21623948.906    21623949.020   113634599.745 7
  88546455.081 7        46.900          46.300
 14  1  1  1 21  0.0000000  0  7G04G02G14G25G29G12G31
  24209380.172                                                   127221074.654 6
                        37.200
  22880654.086                                    22880657.555   120238464.365 7
  93692500.24245        43.600          30.200
  22738129.828                                    22738137.047   119489590.907 6
  93108853.84843        41.100          22.600
  20185774.781                    20185783.938                   106076918.061 8
  82657441.193 8        51.900          51.100
  20875107.313                    20875114.477    20875114.355   109699259.047 8
  85480116.204 7        50.500          47.000
  21885548.539                    21885554.121    21885554.000   115009438.385 8
  89617711.754 7        49.100          45.500
  21611724.148                    21611729.555    21611729.668   113570386.551 8
  88496418.820 7        49.100          46.000
 14  1  1  1 21 30.0000000  0  7G04G02G14G25G29G12G31
  24222441.594                                                   127289713.965 6
                        37.700
  22878015.070                                    22878018.773   120224594.424 7
  93681692.49945        44.200          30.800
  22754029.563                                    22754036.488   119573140.420 6
  93173957.32943        40.400          22.800
  20188393.641                    20188402.504                   106090678.501 8
  82668163.613 8        51.800          51.200
  20863455.492                    20863461.719    20863461.949   109638027.251 8
  85432403.139 7        50.800          47.200
  21900875.750                    21900882.152    21900882.090   115089985.825 8
  89680475.981 7        48.900          45.300
  21599578.430                    21599583.660    21599583.832   113506561.464 8
  88446684.980 7        49.600          46.500
 14  1  1  1 22  0.0000000  0  7G04G02G14G25G29G12G31
  24235612.922                                                   127358924.901 6
                        38.100
  22875493.164                                    22875496.926   120211342.548 7
  93671366.37244        43.800          29.900
  22770014.273                                    22770020.438   119657137.046 6
  93239409.19943        40.400          22.600
  20191109.258                    20191117.887                   106104950.096 8
  82679284.342 8        52.000          51.600
  20851911.039                    20851917.852    20851917.730   109577362.671 8
  85385132.054 7        48.000          47.200
  21916264.914                    21916271.375    21916270.961   115170855.449 8
  89743491.254 7        49.100          45.300
  21587522.672                    21587528.254    21587528.250   113443206.760 7
  88397317.678 7        46.300          46.700
 14  1  1  1 22 30.0000000  0  7G04G02G14G25G29G12G31
  24248860.711                                                   127428546.430 6
                        37.300
  22873058.727                                    22873062.078   120198551.067 7
  93661398.99445        43.400          30.400
  22786052.383                                    22786059.133   119741419.470 6
  93305083.77043        41.200          23.400
  20193891.766                    20193900.688                   106119573.807 8
  82690679.433 8        52.200          51.000
  20840445.250                    20840452.063    20840451.824   109517108.000 8
  85338180.385 7        51.200          47.400
  21931685.156                    21931690.738    21931690.969   115251887.209 8
  89806632.876 7        49.100          45.400
  21575526.391                    21575532.266    21575532.027   113380165.837 8
  88348194.881 7        49.300          47.000
 14  1  1  1 23  0.0000000  0  7G04G02G14G25G29G12G31
  24262202.242                                                   127498652.520 6
                        37.200
  22870726.656                                    22870730.418   120186296.921 7
  93651850.31244        45.000          29.300
  22802158.828                                    22802165.344   119826061.238 6
  93371038.36143        40.000          22.800
  20196756.266                    20196765.012                   106134625.714 8
  82702408.197 8        52.800          51.200
  20829071.945                    20829078.582    20829078.695   109457340.701 8
  85291608.488 7        50.900          47.100
  21947149.898                    21947155.949    21947155.535   115333156.530 8
  89869959.599 7        49.300          45.500
  21563604.680                    21563610.145    21563610.316   113317516.710 8
  88299377.382 7        49.200          46.300
 14  1  1  1 23 30.0000000  0  7G04G02G14G25G29G12G31
  24275650.109                                                   127569321.384 5
                        35.900
  22868512.500                                    22868516.672   120174661.141 7
  93642783.47944        43.000          29.600
  22818349.227                                    22818355.391   119911139.719 6
  93437333.23443        39.500          22.500
  20199717.641                    20199726.855                   106150185.740 8
  82714532.883 8        51.900          51.400
  20817807.086                    20817813.781    20817813.602   109398142.598 8
  85245480.097 7        50.200          47.500
  21962675.047                    21962681.449    21962681.504   115414741.877 7
  89933532.578 7        47.800          45.800
  21551772.922                    21551778.855    21551778.969   113255341.937 8
  88250929.512 7        49.300          46.300
 14  1  1  1 24  0.0000000  0  7G04G02G14G25G29G12G31
  24289175.055                                                   127640393.875 6
                        36.700
  22866386.086                                    22866389.730   120163487.896 7
  93634077.05744        42.000          29.600
  22834591.125                                    22834598.168   119996495.961 6
  93503844.55743        40.500          22.800
  20202745.133                    20202753.820                   106166097.202 8
  82726931.430 8        52.700          51.300
  20806620.492                    20806627.012    20806627.125   109339358.623 8
  85199674.424 7        50.900          47.600
  21978230.414                    21978236.641    21978236.520   115496486.345 8
  89997229.551 7        48.500          45.300
  21540002.414                    21540008.348    21540008.051   113193486.957 8
  88202730.828 7        49.700          46.400
 14  1  1  1 24 30.0000000  0  7G04G02G14G25G29G12G31
  24302790.125                                                   127711943.938 5
                        35.800
  22864362.305                                    22864366.477   120152853.978 6
  93625790.88944        41.700          29.900
  22850901.648                                    22850908.398   120082203.174 6
  93570629.36443        40.100          22.600
  20205854.164                    20205863.145                   106182435.816 8
  82739662.818 8        51.500          51.300
  20795528.195                    20795534.715    20795534.535   109281066.001 8
  85154251.620 7        50.900          47.400
  21993830.664                    21993836.656    21993836.242   115578463.904 8
  90061108.150 7        48.800          45.200
  21528307.344                    21528313.160    21528313.215   113132029.918 8
  88154842.227 7        50.000          46.600
 14  1  1  1 25  0.0000000  0  7G04G02G14G25G29G12G31
  24316512.531                                                   127784054.417 5
                        34.800
  22862458.055                                    22862461.934   120142845.242 7
  93617991.88644        42.700          29.700
  22867294.461                                    22867300.391   120168343.898 6
  93637751.97443        40.300          22.300
  20209060.867                    20209069.906                   106199286.536 8
  82752793.238 8        52.100          51.600
  20784545.406                    20784551.926    20784551.863   109223351.483 8
  85109279.296 7        50.900          47.900
  22009491.336                    22009497.211    22009497.090   115660759.750 8
  90125234.769 7        48.200          45.600
  21516705.305                    21516711.414    21516711.059   113071058.181 8
  88107331.788 7        49.600          46.300
 14  1  1  1 25 30.0000000  0  7G04G02G14G25G29G12G31
  24330307.055                                                   127856556.183 5
                        33.700
  22860640.773                                    22860644.652   120133295.507 7
  93610550.53945        43.700          30.200
  22883736.008                                    22883742.230   120254748.675 6
  93705080.33643        40.200          23.300
  20212333.195                    20212341.707                   106216482.113 8
  82766192.378 8        51.900          51.100
  20773641.000                    20773647.227    20773647.223   109166049.385 8
  85064628.332 7        50.900          47.700
  22025179.727                    22025185.426    22025185.246   115743204.972 8
  90189477.786 7        48.400          45.300
  21505163.234                    21505169.109    21505169.105   113010406.842 8
  88060071.000 7        49.500          46.500
 14  1  1  1 26  0.0000000  0  7G04G02G14G25G29G12G31
  24344194.234                                                   127929529.414 5
                        33.700
  22858926.641                                    22858930.813   120124287.995 7
  93603531.70644        43.900          29.300
  22900243.539                                    22900250.113   120341497.172 6
  93772676.52943        40.700          22.800
  20215686.859                    20215696.191                   106234104.987 8
  82779924.477 8        52.300          51.300
  20762831.086                    20762838.309    20762838.246   109109244.136 8
  85020364.522 7        48.600          47.900
  22040912.523                    22040917.988    22040917.633   115825881.260 8
  90253900.842 7        48.500          45.500
  21493699.094                    21493704.266    21493704.145   112950160.554 7
  88013125.839 7        45.600          46.600
 14  1  1  1 26 30.0000000  0  7G04G02G14G25G29G12G31
  24358186.008                                                   128003054.060 5
                        33.300
  22857332.258                                    22857335.023   120115905.378 7
  93596999.80744        45.000          29.300
  22916831.773                                    22916837.762   120428668.692 6
  93840602.34743        40.600          22.200
  20219136.742                    20219145.781                   106252237.048 8
  82794053.351 8        52.100          51.000
  20752132.289                    20752138.926    20752138.805   109053019.078 8
  84976552.800 7        51.500          47.800
  22056704.977                    22056711.379    22056711.258   115908869.708 8
  90318567.150 7        48.500          45.300
  21482327.563                    21482333.320    21482333.141   112890403.594 8
  87966561.977 7        49.600          46.700
 14  1  1  1 27  0.0000000  0  7G04G02G14G25G29G12G31
  24372250.555                                                   128076966.487 5
                        33.100
  22855824.945                                    22855828.414   120107987.678 7
  93590830.17244        44.900          29.900
  22933469.031                                    22933476.133   120516099.806 6
  93908730.46143        40.800          22.200
  20222653.609                    20222662.590                   106270717.095 8
  82808453.379 8        51.700          51.100
  20741513.008                    20741519.352    20741519.406   108997214.726 8
  84933068.911 8        48.800          48.200
  22072525.344                    22072531.043    22072530.980   115992008.372 8
  90383350.515 7        48.800          45.400
  21471018.914                    21471024.965    21471024.844   112830977.362 7
  87920255.825 7        46.000          46.700
 14  1  1  1 27 30.0000000  0  7G04G02G14G25G29G12G31
  24386402.953                                                   128151339.861 5
                        33.300
  22854421.055                                    22854424.289   120100610.318 7
  93585081.58045        45.400          30.200
  22950170.305                                    22950176.703   120603862.911 6
  93977117.24743        41.100          22.500
  20226250.547                    20226259.586                   106289619.706 8
  82823182.695 8        52.400          51.300
  20730987.938                    20730994.457    20730994.453   108941906.915 8
  84889971.939 8        49.200          48.000
  22088388.805                    22088394.504    22088394.617   116075370.666 8
  90448308.126 7        48.000          44.900
  21459788.563                    21459794.145    21459793.965   112771958.313 7
  87874266.955 7        47.200          47.100
 14  1  1  1 28  0.0000000  0  7G04G02G14G25G29G12G31
  24400659.914                                                   128226257.638 5
                        34.400
  22853137.078                                    22853140.195   120093860.162 7
  93579821.73045        45.100          30.800
  22966949.992                                    22966956.391   120692041.212 6
  94045827.58943        41.300          22.200
  20229944.328                    20229953.660                   106309030.875 8
  82838308.280 8        52.200          51.100
  20720574.773                    20720581.234    20720581.113   108887183.569 8
  84847330.389 8        49.600          48.100
  22104311.094                    22104316.852    22104316.848   116159042.514 8
  90513506.956 7        48.000          45.000
  21448651.258                    21448657.309    21448657.188   112713435.070 8
  87828664.420 7        48.400          47.000
 14  1  1  1 28 30.0000000  0  7G04G02G14G25G29G12G31
  24414988.219                                                   128301555.595 5
                        34.800
  22851940.477                                    22851944.121   120087575.861 7
  93574924.87345        45.300          30.400
  22983777.008                                    22983783.992   120780470.112 6
  94114733.20243        41.800          22.800
  20233703.930                    20233713.203                   106328788.403 8
  82853703.753 8        51.500          51.100
  20710241.359                    20710247.645    20710247.641   108832883.568 8
  84805018.717 8        51.200          48.100
  22120261.234                    22120267.051    22120267.047   116242860.204 7
  90578819.432 7        47.800          44.300
  21437578.773                    21437585.117    21437584.762   112655247.707 8
  87783323.617 7        50.200          46.600
 14  1  1  1 29  0.0000000  0  7G04G02G14G25G29G12G31
  24429418.836                                                   128377386.040 5
                        35.100
  22850863.359                                    22850866.652   120081912.393 7
  93570511.79045        45.700          30.500
  23000681.969                                    23000688.074   120869301.468 6
  94183952.38143        41.100          23.600
  20237559.219                    20237567.613                   106349046.426 8
  82869489.214 8        51.700          51.600
  20700018.984                    20700025.445    20700025.383   108779163.091 8
  84763158.619 8        51.400          48.200
  22136267.750                    22136273.684    22136273.621   116326977.137 7
  90644365.075 7        47.400          44.200
  21426600.195                    21426605.777    21426605.480   112597552.699 8
  87738366.472 7        50.200          47.000
 14  1  1  1 29 30.0000000  0  7G04G02G14G25G29G12G31
  24443922.148                                                   128453596.191 5
                        35.000
  22849875.023                                    22849878.434   120076719.799 7
  93566465.62045        45.300          30.200
  23017632.477                                    23017640.047   120958382.018 6
  94253365.75943        40.800          22.800
  20241480.883                    20241489.160                   106369654.480 8
  82885547.434 8        52.500          51.500
  20689877.945                    20689884.465    20689884.461   108725873.031 8
  84721633.914 8        51.100          48.000
  22152302.969                    22152308.609    22152308.664   116411241.799 7
  90710025.838 7        47.900          44.500
  21415686.445                    21415692.262    21415692.199   112540201.680 8
  87693677.364 7        50.400          46.400
 14  1  1  1 30  0.0000000  0  7G04G02G14G25G29G12G31
  24458510.180                                                   128530256.865 6
                        36.700
  22848990.977                                    22848994.211   120072072.135 7
  93562844.07545        45.500          31.100
  23034645.633                                    23034652.324   121047782.613 6
  94323028.53243        41.000          22.600
  20245483.102                    20245491.848                   106390685.446 8
  82901935.190 8        51.500          50.900
  20679833.320                    20679840.016    20679839.895   108673087.914 8
  84680502.670 8        51.300          48.100
  22168380.172                    22168385.754    22168385.516   116495726.709 7
  90775858.225 7        47.000          44.400
  21404852.375                    21404858.133    21404858.129   112483270.093 8
  87649315.086 7        50.200          46.800
 14  1  1  1 30 30.0000000  0  7G04G02G14G25G29G12G31
  24473198.367                                                   128607443.044 6
                        36.600
  22848225.266                                    22848228.676   120068047.415 7
  93559707.93345        46.000          31.400
  23051733.453                                    23051739.676   121137578.068 6
  94392998.98943        41.500          22.300
  20249580.125                    20249589.281                   106412216.619 8
  82918712.713 8        52.400          51.800
  20669900.242                    20669906.820    20669906.816   108620886.988 8
  84639826.645 8        51.400          48.500
  22184513.805                    22184518.801    22184518.797   116580508.667 7
  90841922.075 7        47.500          43.700
  21394113.766                    21394119.758    21394119.637   112426837.650 8
  87605341.756 7        50.000          46.800
 14  1  1  1 31  0.0000000  0  7G04G02G14G25G29G12G31
  24487957.578                                                   128685001.187 5
                        35.300
  22847548.867                                    22847552.102   120064494.870 7
  93556939.72245        45.400          30.800
  23068866.469                                    23068873.043   121227614.158 6
  94463156.93643        41.000          23.000
  20253743.734                    20253752.656                   106434096.351 8
  82935761.823 8        52.300          50.900
  20660049.000                    20660055.520    20660055.223   108569119.924 8
  84599488.691 8        51.600          48.500
  22200674.445                    22200680.379    22200680.199   116665434.854 7
  90908098.305 7        46.200          43.700
  21383442.000                    21383447.348    21383447.285   112370755.360 8
  87561641.266 7        50.300          47.100
 14  1  1  1 31 30.0000000  0  7G04G02G14G25G29G12G31
  24502800.805                                                   128763001.875 5
                        35.400
  22846976.781                                    22846980.133   120061487.537 7
  93554596.36145        45.500          31.400
  23086059.094                                    23086065.492   121317960.815 6
  94533556.87543        41.100          22.600
  20257987.758                    20257996.563                   106456397.230 8
  82953139.125 8        51.700          51.700
  20650294.680                    20650301.668    20650301.840   108517860.777 8
  84559546.513 8        50.900          48.300
  22216876.547                    22216882.129    22216881.891   116750577.040 7
  90974442.851 7        45.600          44.600
  21372850.805                    21372856.504    21372856.500   112315097.801 8
  87518271.739 7        50.400          46.800
 14  1  1  1 32  0.0000000  0  7G04G02G14G25G29G12G31
  24517741.914                                                   128841522.523 5
                        33.600
  22846523.250                                    22846526.836   120059105.902 7
  93552740.53545        44.800          31.400
  23103324.961                                    23103332.180   121408695.023 6
  94604258.81743        41.500          22.200
  20262326.594                    20262336.219                   106479198.851 8
  82970906.624 8        51.400          51.000
  20640652.641                    20640658.750    20640658.629   108467190.529 8
  84520063.235 7        51.600          47.600
  22233134.430                    22233140.305    22233140.066   116836014.036 7
  91041017.126 7        45.800          43.800
  21362355.797                    21362361.262    21362361.141   112259946.755 8
  87475296.904 7        50.700          47.100
 14  1  1  1 32 30.0000000  0  7G04G02G14G25G29G12G31
  24532752.914                                                   128920405.923 5
                        33.700
  22846159.609                                    22846163.898   120057196.104 7
  93551252.39645        45.100          30.900
  23120635.164                                    23120641.504   121499660.096 6
  94675140.65743        41.000          22.800
  20266731.250                    20266740.992                   106502346.225 8
  82988943.519 8        52.200          51.300
  20631092.930                    20631099.449    20631099.621   108416955.862 8
  84480919.350 8        50.500          48.800
  22249419.086                    22249424.375    22249424.488   116921590.243 7
  91107699.868 7        45.500          43.800
  21351928.242                    21351934.293    21351934.113   112205149.634 8
  87432597.845 7        50.200          47.000
 14  1  1  1 33  0.0000000  0  7G04G02G14G25G29G12G31
  24547845.547                                                   128999722.286 5
                        32.300
  22845900.242                                    22845903.828   120055830.991 7
  93550188.67945        45.300          31.500
  23138002.609                                    23138009.125   121590925.422 6
  94746256.44743        40.900          23.000
  20271215.781                    20271224.703                   106525911.691 8
  83007306.213 8        51.500          51.200
  20621630.453                    20621637.383    20621637.203   108367230.554 8
  84442172.375 8        51.200          48.400
  22265743.414                    22265749.348    22265749.168   117007376.804 7
  91174546.510 7        46.500          44.100
  21341582.078                    21341587.602    21341587.539   112150781.238 8
  87390232.862 7        50.200          47.000
 14  1  1  1 33 30.0000000  0  7G04G02G14G25G29G12G31
  24563038.227                                                   129079549.564 5
                        32.500
  22845759.438                                    22845762.730   120055090.878 7
  93549611.98345        45.000          30.200
  23155441.563                                    23155448.605   121682568.675 6
  94817666.75343        40.900          22.200
  20275794.578                    20275804.379                   106549975.052 8
  83026056.902 8        51.300          50.900
  20612280.703                    20612287.398    20612287.453   108318095.826 8
  84403885.598 8        50.400          48.900
  22282123.250                    22282129.008    22282129.180   117093453.070 7
  91241618.905 7        45.400          43.800
  21331333.422                    21331338.887    21331338.941   112096923.791 8
  87348266.021 7        49.200          47.200
 14  1  1  1 34  0.0000000  0  7G04G02G14G25G29G12G31
  24578295.266                                                   129159733.270 5
                        32.000
  22845709.000                                    22845712.527   120054824.277 7
  93549404.24445        45.400          31.600
  23172923.398                                    23172929.973   121774435.001 6
  94889250.84643        41.100          22.900
  20280439.516                    20280448.730                   106574384.123 8
  83045076.986 8        52.200          51.000
  20603014.000                    20603021.047    20603020.984   108269400.997 8
  84365941.591 8        50.600          48.300
  22298529.922                    22298535.855    22298535.559   117179666.427 7
  91308798.116 7        46.300          44.300
  21321153.102                    21321158.918    21321158.797   112043427.124 8
  87306580.302 7        49.600          47.200
 14  1  1  1 34 30.0000000  0  7G04G02G14G25G29G12G31
  24593637.125                                                   129240344.884 5
                        31.200
  22845761.820                                    22845765.758   120055105.809 7
  93549623.62945        45.200          31.000
  23190460.961                                    23190467.594   121866595.797 6
  94961064.41443        41.100          22.300
  20285164.484                    20285172.996                   106599212.713 8
  83064423.949 8        50.800          51.300
  20593845.711                    20593851.703    20593851.816   108221221.168 8
  84328398.878 8        51.200          49.000
  22314975.227                    22314980.809    22314980.629   117266089.733 7
  91376140.917 7        46.000          43.700
  21311056.133                    21311062.008    21311061.945   111990367.673 8
  87265235.276 7        50.800          47.000
 14  1  1  1 35  0.0000000  0  7G04G02G14G25G29G12G31
  24609072.469                                                   129321459.232 4
                        29.900
  22845934.680                                    22845938.852   120056013.116 7
  93550330.62045        44.900          31.100
  23208069.492                                    23208075.773   121959125.669 6
  95033165.57443        41.800          23.200
  20289983.125                    20289992.105                   106624537.621 8
  83084157.629 8        51.900          50.900
  20584790.742                    20584797.086    20584797.141   108173635.008 8
  84291318.761 8        51.100          49.100
  22331475.633                    22331481.449    22331481.328   117352799.127 7
  91443706.643 7        46.200          44.100
  21301057.898                    21301063.480    21301063.359   111937824.642 8
  87224292.651 7        50.700          47.300
 14  1  1  1 35 30.0000000  0  7G04G02G14G25G29G12G31
  24624572.797                                                   129402921.306 5
                        30.500
  22846197.391                                    22846201.387   120057393.671 7
  93551406.37645        45.600          30.900
  23225717.109                                    23225723.859   122051868.657 6
  95105432.82643        41.000          21.700
  20294867.945                    20294876.984                   106650205.808 8
  83104158.824 8        51.800          50.900
  20575819.430                    20575825.832    20575825.652   108126490.981 8
  84254583.166 8        51.000          48.800
  22348001.047                    22348006.980    22348006.859   117439640.567 7
  91511375.276 7        46.500          44.600
  21291129.102                    21291135.094    21291135.031   111885647.237 8
  87183634.937 7        51.000          47.300
 14  1  1  1 36  0.0000000  0  7G04G02G14G25G29G12G31
  24640153.188                                                   129484803.257 4
                        29.900
  22846564.156                                    22846568.328   120059322.601 7
  93552909.45045        44.700          30.200
  23243420.078                                    23243426.770   122144897.381 6
  95177922.69143        41.300          21.800
  20299831.852                    20299840.715                   106676291.929 8
  83124485.683 8        52.000          51.100
  20566946.742                    20566953.262    20566953.258   108079864.592 8
  84218250.917 8        51.700          48.300
  22364565.922                    22364571.855    22364571.910   117526688.119 7
  91579204.513 7        46.000          43.900
  21281284.203                    21281289.727    21281289.605   111833912.157 8
  87143321.888 7        50.300          47.200
 14  1  1  1 36 30.0000000  0  7G04G02G14G25G29G12G31
  24655816.266                                                   129567103.318 5
                        30.100
  22847036.055                                    22847039.758   120061800.692 7
  93554840.42845        45.900          30.100
  23261176.703                                    23261183.160   122238209.179 6
  95250633.16843        41.200          21.700
  20304875.555                    20304885.004                   106702795.881 8
  83145138.107 8        52.200          51.000
  20558172.758                    20558178.867    20558178.746   108033757.771 8
  84182323.538 8        51.700          48.800
  22381169.352                    22381175.344    22381175.516   117613941.216 7
  91647193.915 7        46.000          44.500
  21271523.969                    21271529.258    21271529.078   111782622.176 8
  87103355.667 7        50.300          47.500
 14  1  1  1 37  0.0000000  0  7G04G02G14G25G29G12G31
  24671572.406                                                   129649897.272 5
                        30.500
  22847626.563                                    22847630.676   120064906.863 7
  93557260.82644        46.000          29.700
  23279001.313                                    23279008.590   122331879.942 6
  95323623.35843        40.800          22.000
  20310013.570                    20310022.199                   106729795.933 8
  83166177.108 8        52.400          51.100
  20549513.148                    20549519.492    20549519.430   107988249.649 8
  84146862.667 8        51.800          48.800
  22397827.242                    22397833.527    22397833.465   117701477.621 7
  91715404.071 7        46.600          44.200
  21261863.406                    21261869.164    21261869.043   111731857.374 8
  87063798.684 7        50.800          46.900
 14  1  1  1 37 30.0000000  0  7G04G02G14G25G29G12G31
  24687390.016                                                   129733023.786 4
                        28.900
  22848307.680                                    22848311.207   120068482.260 7
  93560046.85445        45.200          30.900
  23296864.516                                    23296871.090   122425747.947 6
  95396767.21043        41.100          22.500
  20315215.523                    20315224.094                   106757132.886 8
  83187478.620 8        52.100          50.800
  20540936.703                    20540943.281    20540943.336   107943183.121 8
  84111745.904 8        51.400          48.900
  22414508.000                    22414513.641    22414513.578   117789137.177 7
  91783710.208 7        46.800          44.300
  21252273.523                    21252278.988    21252279.277   111681461.095 8
  87024528.855 7        49.900          47.200
 14  1  1  1 38  0.0000000  0  7G04G02G14G25G29G12G31
  24703286.047                                                   129816557.539 4
                        28.000
  22849091.820                                    22849095.172   120072604.178 7
  93563258.74545        45.800          31.200
  23314777.883                                    23314784.750   122519887.797 6
  95470122.93143        41.000          21.500
  20320496.320                    20320504.773                   106784883.683 8
  83209102.611 8        52.900          50.800
  20532460.117                    20532466.109    20532466.047   107898636.170 8
  84077034.002 8        51.600          48.600
  22431227.492                    22431232.898    22431232.484   117876996.088 7
  91852171.675 7        46.200          44.300
  21242769.125                    21242774.297    21242774.410   111631512.661 8
  86985608.000 7        50.700          47.600
 14  1  1  1 38 30.0000000  0  7G04G02G14G25G29G12G31
  24719274.422                                                   129900582.750 4
                        26.800
  22849997.023                                    22850000.141   120077359.676 7
  93566964.33344        45.400          29.800
  23332760.367                                    23332767.527   122614382.967 6
  95543755.49943        40.900          21.300
  20325872.594                    20325881.223                   106813134.377 8
  83231116.149 8        52.300          51.100
  20524098.289                    20524104.633    20524104.805   107854696.218 8
  84042795.086 8        51.800          48.800
  22448000.563                    22448006.730    22448006.785   117965139.798 7
  91920855.061 7        46.500          44.400
  21233365.883                    21233371.758    21233371.754   111582100.312 8
  86947104.873 7        50.200          47.800
 14  1  1  1 39  0.0000000  0  6G02G14G25G29G12G31
  22850990.711                                    22850994.180   120082583.681 7
  93571035.00045        45.900          30.000
  23350777.844                                    23350783.773   122709065.565 6
  95617534.09143        41.000          21.500
  20331311.867                    20331320.555                   106841719.441 8
  83253390.226 8        52.500          50.700
  20515821.680                    20515828.023    20515827.902   107811198.991 8
  84008901.149 8        51.700          48.300
  22464795.555                    22464801.605    22464801.719   118053402.098 7
  91989630.860 7        46.400          43.900
  21224033.969                    21224039.668    21224039.605   111533061.069 8
  86908892.475 7        50.700          47.300
 14  1  1  1 39 30.0000000  0  6G02G14G25G29G12G31
  22852088.578                                    22852092.281   120088353.882 7
  93575531.26145        45.900          30.200
  23368845.219                                    23368851.852   122804010.609 6
  95691517.17543        41.600          21.500
  20336829.719                    20336838.289                   106870716.301 8
  83275985.181 8        52.700          51.200
  20507643.414                    20507649.641    20507649.695   107768223.495 8
  83975413.765 8        52.300          49.100
  22481628.656                    22481634.766    22481634.703   118141859.839 7
  92058558.946 7        46.500          43.700
  21214788.359                    21214793.707    21214793.762   111484474.316 8
  86871032.672 7        50.700          47.000
 14  1  1  1 40  0.0000000  0  6G02G14G25G29G12G31
  22853307.000                                    22853310.645   120094755.778 7
  93580519.75944        45.800          29.200
  23386977.680                                    23386985.133   122899300.497 6
  95765768.99143        40.700          20.400
  20342442.391                    20342451.137                   106900209.693 8
  83298967.039 8        52.900          50.700
  20499580.930                    20499587.332    20499587.563   107725855.663 8
  83942399.887 8        51.800          49.400
  22498515.070                    22498521.238    22498521.176   118230597.337 7
  92127705.031 7        45.900          43.900
  21205645.188                    21205650.887    21205650.824   111436427.445 8
  86833593.553 7        50.200          47.500
 14  1  1  1 40 30.0000000  0  6G02G14G25G29G12G31
  22854614.867                                    22854617.574   120101625.682 7
  93585872.94345        45.800          30.200
  23405145.008                                    23405151.816   122994768.537 6
  95840159.63743        40.900          20.600
  20348117.875                    20348127.148                   106930035.378 8
  83322207.831 8        52.500          51.000
  20491603.086                    20491610.016    20491609.895   107683932.687 8
  83909732.639 8        51.400          49.600
  22515422.961                    22515428.719    22515428.832   118319449.388 7
  92196940.374 7        45.700          43.700
  21196573.984                    21196579.742    21196579.738   111388758.395 8
  86796448.840 8        50.300          48.000
 14  1  1  1 41  0.0000000  0  6G02G14G25G29G12G31
  22856025.961                                    22856028.902   120109042.779 7
  93591652.50245        45.500          30.600
  23423360.656                                    23423366.996   123090491.209 6
  95914748.68543        40.700          21.700
  20353871.813                    20353880.617                   106960272.266 8
  83345769.046 8        51.700          51.500
  20483725.859                    20483731.969    20483731.848   107642534.760 8
  83877474.527 8        52.100          49.000
  22532367.758                    22532374.395    22532374.332   118408494.380 7
  92266326.059 7        45.000          43.600
  21187590.297                    21187595.352    21187595.523   111341548.339 8
  86759661.782 7        50.100          47.800
 14  1  1  1 41 30.0000000  0  6G02G14G25G29G12G31
  22857557.703                                    22857560.586   120117090.649 7
  93597923.57545        45.900          30.600
  23441638.852                                    23441646.480   123186548.978 6
  95989598.83143        40.200          20.100
  20359719.633                    20359728.438                   106991003.263 8
  83369715.281 8        52.100          51.300
  20475963.695                    20475970.508    20475970.328   107601745.855 8
  83845690.992 8        51.700          49.600
  22549365.039                    22549371.148    22549370.969   118497814.377 7
  92335926.036 7        45.800          43.700
  21178710.086                    21178715.609    21178715.898   111294882.274 8
  86723298.621 7        50.700          47.800
 14  1  1  1 42  0.0000000  0  6G02G14G25G29G12G31
  22859177.961                                    22859181.664   120125606.792 7
  93604559.54444        45.000          29.100
  23459951.422                                    23459958.172   123282776.851 6
  96064581.54443        40.500          21.100
  20365630.391                    20365639.664                   107022065.514 8
  83393919.625 8        51.600          50.400
  20468287.031                    20468293.551    20468293.430   107561405.013 8
  83814256.584 8        51.800          48.700
  22566383.211                    22566389.730    22566389.609   118587246.504 7
  92405613.377 7        45.000          43.300
  21169902.766                    21169908.465    21169908.402   111248600.230 8
  86687234.690 7        50.500          47.400
 14  1  1  1 42 30.0000000  0  6G02G14G25G29G12G31
  22860902.805                                    22860905.922   120134670.997 7
  93611622.56745        45.600          30.200
  23478310.125                                    23478316.758   123379251.125 6
  96139756.27143        40.500          20.100
  20371619.586                    20371628.625                   107053538.178 8
  83418443.771 8        51.800          50.600
  20460711.234                    20460717.637    20460717.691   107521592.378 8
  83783233.776 8        51.800          48.900
  22583437.883                    22583444.051    22583443.871   118676868.977 7
  92475449.052 7        46.000          43.400
  21161184.305                    21161189.770    21161189.766   111202783.387 8
  86651533.251 7        50.600          47.500
 14  1  1  1 43  0.0000000  0  6G02G14G25G29G12G31
  22862747.203                                    22862750.789   120144364.174 7
  93619175.70144        45.700          29.500
  23496730.117                                    23496736.750   123476050.343 6
  96215184.19143        40.100          19.300
  20377702.094                    20377711.016                   107085502.050 8
  83443350.688 8        51.200          50.900
  20453251.063                    20453257.348    20453257.344   107482390.146 8
  83752686.634 8        51.600          49.100
  22600543.648                    22600549.699    22600549.637   118766761.945 7
  92545495.498 7        44.300          42.900
  21152569.758                    21152575.574    21152575.512   111157514.791 8
  86616259.022 7        50.900          47.200
 14  1  1  1 43 30.0000000  0  6G02G14G25G29G12G31
  22864680.820                                    22864683.820   120154526.379 7
  93627094.30445        45.800          30.500
  23515180.875                                    23515188.152   123573011.636 6
  96290738.41343        40.100          20.100
  20383847.398                    20383856.965                   107117796.599 8
  83468515.277 8        51.800          50.200
  20445877.078                    20445882.719    20445882.832   107443639.092 8
  83722491.071 8        51.400          49.100
  22617670.992                    22617676.926    22617676.863   118856764.265 7
  92615627.154 7        46.300          43.300
  21144029.734                    21144035.258    21144035.254   111112636.157 8
  86581288.659 7        50.700          47.900
 14  1  1  1 44  0.0000000  0  6G02G14G25G29G12G31
  22866718.273                                    22866722.504   120165234.467 7
  93635438.27645        45.500          30.900
  23533677.391                                    23533684.375   123670209.132 6
  96366476.67143        40.000          19.600
  20390070.359                    20390079.633                   107150498.174 8
  83493997.024 8        50.900          50.500
  20438603.547                    20438610.125    20438610.004   107405416.685 8
  83692707.409 8        52.000          49.200
  22634832.516                    22634838.449    22634838.445   118946951.356 7
  92685902.781 7        44.900          43.700
  21135578.906                    21135584.254    21135584.191   111068226.170 8
  86546683.471 7        50.500          47.500
 14  1  1  1 44 30.0000000  0  6G02G14G25G29G12G31
  22868875.750                                    22868879.395   120176570.773 7
  93644271.76544        44.600          29.900
  23552233.281                                    23552240.617   123767722.580 6
  96442461.16243        39.800          19.000
  20396386.594                    20396395.691                   107183689.003 8
  83519860.006 8        52.100          51.100
  20431445.859                    20431452.555    20431452.434   107367806.170 8
  83663400.549 8        51.200          49.800
  22652045.570                    22652051.738    22652051.793   119037405.744 7
  92756386.692 7        45.900          44.100
  21127232.930                    21127238.160    21127238.391   111024369.282 8
  86512509.274 7        51.000          47.600
 14  1  1  1 45  0.0000000  0  6G02G14G25G29G12G31
  22871121.805                                    22871125.566   120188374.953 7
  93653469.83645        45.200          30.600
  23570818.680                                    23570825.664   123865388.855 6
  96518564.72643        39.900          19.900
  20402765.031                    20402773.836                   107217208.380 8
  83545978.993 8        51.700          50.100
  20424375.711                    20424381.234    20424381.172   107330648.048 8
  83634446.158 8        51.800          49.300
  22669278.992                    22669284.809    22669284.570   119127965.781 7
  92826952.921 7        43.800          43.800
  21118962.367                    21118968.359    21118968.355   110980907.062 8
  86478642.609 7        51.200          47.300
 14  1  1  1 45 30.0000000  0  6G02G14G25G29G12G31
  22873472.172                                    22873475.934   120200724.631 7
  93663092.96845        45.200          30.100
  23589448.375                                    23589454.539   123963282.727 6
  96594845.63643        39.100          19.000
  20409220.836                    20409229.289                   107251133.570 8
  83572414.198 8        52.000          50.600
  20417405.531                    20417411.875    20417411.930   107294020.991 8
  83605905.596 8        52.000          49.800
  22686547.023                    22686552.723    22686552.484   119218708.164 7
  92897661.240 7        46.000          43.400
  21110782.305                    21110787.711    21110787.824   110937919.184 8
  86445145.563 7        50.100          47.000
 14  1  1  1 46  0.0000000  0  6G02G14G25G29G12G31
  22875941.547                                    22875945.484   120213701.485 7
  93673204.81245        45.200          30.100
  23608134.813                                    23608141.211   124061483.082 6
  96671365.35343        39.200          19.300
  20415769.273                    20415778.195                   107285545.900 8
  83599229.010 8        52.400          50.300
  20410552.273                    20410558.852    20410558.672   107258007.957 8
  83577843.465 8        51.600          49.500
  22703864.523                    22703870.340    22703870.219   119309713.531 7
  92968574.492 7        44.800          43.900
  21102708.383                    21102714.082    21102713.785   110895489.324 8
  86412083.334 8        51.000          48.100
 14  1  1  1 46 30.0000000  0  6G02G14G25G29G12G31
  22878500.039                                    22878503.859   120227146.415 7
  93683681.39545        44.600          30.400
  23626848.711                                    23626856.164   124159828.248 6
  96747997.92443        38.100          18.600
  20422380.289                    20422388.332                   107320285.810 8
  83626299.068 8        51.500          50.300
  20403785.766                    20403792.168    20403792.105   107222450.005 8
  83550135.981 8        51.700          49.900
  22721202.133                    22721207.715    22721207.418   119400822.014 7
  93039568.089 7        44.600          43.700
  21094710.141                    21094715.957    21094715.953   110853459.724 8
  86379332.990 7        51.100          47.700
 14  1  1  1 47  0.0000000  0  6G02G14G25G29G12G31
  22881162.500                                    22881166.262   120241135.778 7
  93694582.19044        44.200          29.900
  23645605.430                                    23645611.652   124258391.707 6
  96824800.57943        38.800          18.300
  20429067.539                    20429076.402                   107355429.358 8
  83653683.653 8        52.200          50.200
  20397120.938                    20397127.574    20397127.512   107187424.625 8
  83522843.486 8        51.600          49.700
  22738573.133                    22738579.594    22738579.473   119492109.106 7
  93110700.858 7        45.700          43.500
  21086803.477                    21086809.059    21086808.996   110811909.045 8
  86346955.839 8        51.200          48.200
 14  1  1  1 47 30.0000000  0  6G02G14G25G29G12G31
  22883943.328                                    22883946.621   120255750.117 7
  93705969.99245        44.500          30.200
  23664417.172                                    23664424.625   124357251.686 6
  96901834.32943        38.400          19.300
  20435847.320                    20435856.828                   107391057.017 8
  83681445.460 8        52.100          50.300
  20390572.719                    20390579.238    20390579.117   107153013.385 8
  83496029.520 8        52.000          49.200
  22755993.664                    22756000.242    22755999.945   119583654.345 7
  93182034.782 7        45.500          43.500
  21079003.594                    21079009.469    21079009.465   110770919.904 8
  86315016.246 7        51.500          47.900
 14  1  1  1 48  0.0000000  0  6G02G14G25G29G12G31
  22886812.805                                    22886817.270   120270830.979 7
  93717721.31245        45.300          30.200
  23683256.242                                    23683262.289   124456246.639 6
  96978973.21243        36.900          19.900
  20442688.836                    20442697.816                   107427009.707 8
  83709460.542 8        51.700          50.800
  20384110.977                    20384117.496    20384117.492   107119058.588 8
  83469571.229 8        52.100          49.500
  22773433.266                    22773439.316    22773439.137   119675298.783 7
  93253445.995 7        46.100          42.900
  21071280.508                    21071286.207    21071286.262   110730335.602 8
  86283392.116 7        51.500          47.800
 14  1  1  1 48 30.0000000  0  6G02G14G25G29G12G31
  22889786.070                                    22889789.832   120286455.317 7
  93729896.12145        44.500          30.800
  23702133.648                                    23702140.691   124555451.092 6
  97056275.32343        38.300          18.300
  20449606.922                    20449615.785                   107463364.367 8
  83737788.835 8        51.700          50.300
  20377751.070                    20377757.941    20377757.820   107085638.264 8
  83443529.415 8        52.000          49.900
  22790906.086                    22790911.609    22790911.430   119767118.631 7
  93324993.910 7        45.000          43.600
  21063649.531                    21063654.938    21063655.051   110690235.172 8
  86252145.022 7        51.300          47.500
 14  1  1  1 49  0.0000000  0  6G02G14G25G29G12G31
  22892878.523                                    22892882.168   120302705.330 7
  93742558.46445        44.600          30.600
  23721067.070                                    23721073.645   124654944.908 6
  97133802.97643        38.300          19.300
  20456617.305                    20456626.051                   107500203.040 8
  83766494.280 8        52.000          50.500
  20371509.484                    20371515.945    20371515.824   107052835.199 8
  83417968.577 8        51.600          49.100
  22808427.680                    22808433.555    22808433.434   119859195.339 7
  93396741.964 7        45.700          43.600
  21056126.969                    21056132.434    21056132.254   110650702.946 8
  86221340.689 7        51.000          47.700
 14  1  1  1 49 30.0000000  0  6G02G14G25G29G12G31
  22896059.172                                    22896063.227   120319420.499 7
  93755583.27345        44.900          30.900
  23740023.656                                    23740030.992   124754564.742 6
  97211428.76743        37.100          18.600
  20463688.828                    20463697.574                   107537364.782 8
  83795451.474 8        51.700          50.400
  20365354.602                    20365360.066    20365360.063   107020489.813 8
  83392764.392 8        51.800          50.000
  22825967.195                    22825973.363    22825973.242   119951367.331 7
  93468564.263 7        45.400          43.200
  21048682.070                    21048687.594    21048687.648   110611580.154 8
  86190855.400 8        51.000          48.100
 14  1  1  1 50  0.0000000  0  6G02G14G25G29G12G31
  22899343.188                                    22899346.949   120336677.565 7
  93769030.33645        44.800          30.200
  23759018.758                                    23759025.742   124854384.763 6
  97289210.60142        37.300          17.800
  20470836.289                    20470845.504                   107574926.258 8
  83824720.151 8        51.600          50.300
  20359300.922                    20359306.973    20359306.734   106988680.172 8
  83367977.685 8        51.000          50.000
  22843539.867                    22843546.035    22843545.973   120043710.876 7
  93540520.236 7        44.900          43.400
  21041330.313                    21041335.777    21041335.891   110572945.529 8
  86160750.496 8        51.100          48.000
 14  1  1  1 50 30.0000000  0  6G02G14G25G29G12G31
  22902745.969                                    22902749.555   120354558.967 7
  93782963.90445        45.100          30.700
  23778067.297                                    23778074.047   124954485.074 6
  97367210.82342        37.200          17.800
  20478076.203                    20478084.598                   107612969.670 8
  83854364.370 8        51.500          50.200
  20353365.453                    20353371.387    20353371.266   106957489.715 8
  83343673.454 8        51.100          49.500
  22861160.313                    22861166.715    22861166.770   120136307.837 7
  93612673.683 7        44.700          43.600
  21034086.813                    21034092.395    21034092.215   110534883.813 8
  86131092.012 8        51.100          48.000
 14  1  1  1 51  0.0000000  0  6G02G14G25G29G12G31
  22906237.516                                    22906240.691   120372905.210 7
  93797259.67145        45.100          30.100
  23797137.109                                    23797145.441   125054703.314 6
  97445302.87142        36.800          16.900
  20485376.703                    20485385.859                   107651335.216 8
  83884259.594 8        51.200          50.300
  20347518.023                    20347524.543    20347524.422   106926759.080 8
  83319727.536 8        51.600          49.400
  22878798.969                    22878804.844    22878804.898   120228997.864 7
  93684899.652 7        44.500          43.300
  21026923.367                    21026928.949    21026929.121   110497237.221 8
  86101757.006 7        51.000          47.800
 14  1  1  1 51 30.0000000  0  6G02G14G25G29G12G31
  22909830.484                                    22909834.305   120391789.265 7
  93811974.51645        45.100          31.400
  23816246.172                                    23816252.102   125155110.520 6
  97523542.20842        38.200          16.300
  20492752.664                    20492761.645                   107690096.024 8
  83914462.806 8        51.400          50.900
  20341771.523                    20341777.867    20341777.746   106896562.383 8
  83296197.652 8        50.800          49.900
  22896468.328                    22896474.613    22896474.316   120321853.391 7
  93757254.577 7        43.700          43.700
  21019852.570                    21019858.035    21019858.090   110460081.147 8
  86072804.224 8        50.700          48.200
 14  1  1  1 52  0.0000000  0  6G02G14G25G29G12G31
  22913542.578                                    22913546.223   120411295.412 7
  93827174.11544        45.200          29.800
  23835403.742                                    23835410.902   125255787.932 6
  97601992.10642        38.100          17.400
  20500219.656                    20500228.930                   107729335.968 8
  83945039.382 8        51.400          50.600
  20336143.422                    20336149.473    20336149.410   106866985.118 8
  83273150.434 8        51.200          50.400
  22914185.289                    22914192.629    22914192.391   120414958.422 7
  93829803.920 7        43.600          43.800
  21012891.703                    21012897.168    21012897.164   110423501.648 8
  86044300.715 8        51.000          48.700
 14  1  1  1 52 30.0000000  0  6G02G14G25G29G12G31
  22917342.875                                    22917345.934   120431263.347 7
  93842733.54645        45.500          32.100
  23854582.938                                    23854589.453   125356573.180 6
  97680526.00942        38.300          17.400
  20507747.719                    20507756.465                   107768894.849 8
  83975864.488 8        51.800          51.000
  20330602.523                    20330608.457    20330608.512   106837868.098 8
  83250461.835 8        51.000          50.000
  22931919.367                    22931925.945    22931926.117   120508151.944 7
  93902422.229 7        43.900          43.200
  21006010.563                    21006016.145    21006015.965   110387340.628 8
  86016123.296 8        50.800          48.000
 14  1  1  1 53  0.0000000  0  6G02G14G25G29G12G31
  22921245.164                                    22921248.340   120451771.354 7
  93858713.81045        45.400          31.100
  23873795.906                                    23873803.008   125457541.835 6
  97759202.85043        37.700          18.300
  20515350.805                    20515359.844                   107808850.357 8
  84006998.652 8        51.900          51.400
  20325164.328                    20325170.613    20325170.551   106809289.997 8
  83228193.189 8        51.600          50.000
  22949685.633                    22949692.035    22949691.914   120601511.293 7
  93975169.754 7        43.700          43.300
  20999224.320                    20999229.902    20999229.840   110351678.181 8
  85988334.373 7        50.900          47.800
 14  1  1  1 53 30.0000000  0  6G02G14G25G29G12G31
  22925265.953                                    22925269.188   120472901.190 7
  93875178.61745        45.700          31.600
  23893060.000                                    23893066.809   125558773.195 6
  97838084.39542        38.100          17.400
  20523045.422                    20523054.520                   107849284.468 8
  84038505.745 8        52.600          50.200
  20319844.133                    20319850.652    20319850.473   106781333.782 8
  83206409.121 8        51.200          49.800
  22967498.258                    22967504.660    22967504.363   120695117.681 7
  94048109.761 7        44.100          42.600
  20992548.984                    20992554.742    20992554.621   110316598.481 8
  85960999.549 7        50.500          47.900
 14  1  1  1 54  0.0000000  0  6G02G14G25G29G12G31
  22929374.164                                    22929377.340   120494490.120 7
  93892001.16545        45.700          30.700
  23912342.609                                    23912349.418   125660102.505 6
  97917042.28142        38.400          16.900
  20530799.656                    20530808.637                   107890034.367 8
  84070258.914 8        52.100          50.800
  20314611.930                    20314617.980    20314618.094   106753837.709 8
  83184983.631 8        51.300          50.100
  22985327.016                    22985333.184    22985333.063   120788808.292 7
  94121115.399 7        44.600          42.500
  20985953.523                    20985959.223    20985959.336   110281940.496 8
  85933993.322 7        50.400          47.800
 14  1  1  1 54 30.0000000  0  6G02G14G25G29G12G31
  22933584.563                                    22933588.324   120516616.394 7
  93909242.41145        46.200          30.800
  23931658.125                                    23931664.113   125761605.233 6
  97996135.26942        38.100          17.400
  20538629.289                    20538638.152                   107931178.255 8
  84102319.093 8        52.400          50.400
  20309481.938                    20309488.340    20309488.219   106726880.691 8
  83163978.171 8        51.300          50.400
  23003186.805                    23003192.855    23003193.145   120882660.689 7
  94194247.097 7        45.400          42.300
  20979453.922                    20979459.738    20979459.441   110247784.705 8
  85907378.422 8        50.100          48.400
 14  1  1  1 55  0.0000000  0  6G02G14G25G29G12G31
  22937912.086                                    22937915.906   120539359.739 7
  93926964.49945        45.100          30.200
  23951021.469                                    23951028.277   125863358.803 6
  98075423.73142        38.500          16.900
  20546548.844                    20546557.414                   107972795.702 8
  84134748.270 8        52.100          50.600
  20304470.391                    20304476.676    20304476.672   106700543.068 8
  83143455.360 8        51.300          50.700
  23021091.742                    23021097.676    23021097.789   120976753.713 7
  94267566.309 7        45.400          42.100
  20973065.797                    20973070.676    20973070.848   110214212.845 8
  85881218.533 8        49.700          48.400
 14  1  1  1 55 30.0000000  0  6G02G14G25G29G12G31
  22942327.492                                    22942331.137   120562561.761 7
  93945044.00145        45.900          30.600
  23970401.195                                    23970407.652   125965202.621 6
  98154782.46942        39.000          17.800
  20554528.031                    20554537.480                   108014728.205 8
  84167422.938 8        51.900          50.700
  20299546.375                    20299552.836    20299552.715   106674668.305 8
  83123293.225 8        51.300          50.100
  23039012.883                    23039019.051    23039019.047   121070929.178 7
  94340949.774 6        45.400          41.700
  20966758.516                    20966764.156    20966764.094   110181068.733 8
  85855391.947 8        50.400          48.300
 14  1  1  1 56  0.0000000  0  6G02G14G25G29G12G31
  22946844.547                                    22946848.074   120586298.280 7
  93963539.98845        45.800          30.200
  23989813.000                                    23989819.281   126067210.286 6
  98234268.91343        38.000          18.300
  20562582.031                    20562591.188                   108057051.677 8
  84200402.264 8        52.400          50.100
  20294725.180                    20294731.582    20294731.520   106649332.705 8
  83103551.211 8        51.700          50.000
  23056964.094                    23056970.203    23056969.965   121165262.247 7
  94414456.035 7        45.300          42.000
  20960547.664                    20960553.246    20960553.242   110148430.477 8
  85829959.543 7        50.800          47.900
 14  1  1  1 56 30.0000000  0  6G02G14G25G29G12G31
  22951477.797                                    22951481.500   120610649.803 7
  93982515.21745        46.200          30.400
  24009270.734                                    24009277.250   126169459.746 6
  98313943.80742        38.700          16.300
  20570725.359                    20570734.633                   108099846.651 8
  84233748.989 8        51.700          49.900
  20290021.813                    20290028.215    20290028.152   106624617.306 8
  83084292.439 8        50.900          50.500
  23074959.781                    23074966.359    23074966.355   121259833.037 7
  94488147.533 6        44.600          41.600
  20954448.891                    20954454.180    20954454.234   110116380.669 8
  85804985.662 8        50.000          48.800
 14  1  1  1 57  0.0000000  0  6G02G14G25G29G12G31
  22956199.672                                    22956202.203   120635458.588 7
  94001846.73645        45.400          30.200
  24028743.242                                    24028750.402   126271791.051 6
  98393682.45042        38.700          16.900
  20578929.023                    20578938.004                   108142955.191 8
  84267340.048 8        52.100          50.500
  20285407.305                    20285413.121    20285413.176   106600365.939 8
  83065395.279 8        51.600          50.700
  23092972.305                    23092977.477    23092977.004   121354483.233 7
  94561900.901 7        44.200          42.300
  20948432.211                    20948437.500    20948437.555   110084763.375 8
  85780348.806 7        50.600          47.900
 14  1  1  1 57 30.0000000  0  6G02G14G25G29G12G31
  22961022.227                                    22961025.402   120660802.106 7
  94021594.93145        44.500          30.000
  24048246.109                                    24048253.152   126374279.455 6
  98473543.49742        38.500          16.300
  20587206.609                    20587215.297                   108186454.904 8
  84301235.926 8        51.900          49.800
  20280895.281                    20280901.684    20280901.680   106576656.878 8
  83046920.710 8        51.600          50.800
  23111012.828                    23111018.820    23111018.699   121449290.057 7
  94635776.315 7        43.800          42.100
  20942513.133                    20942518.188    20942518.301   110053657.962 8
  85756110.820 8        49.900          48.100
 14  1  1  1 58  0.0000000  0  6G02G14G25G29G12G31
  22965961.281                                    22965964.809   120686758.214 7
  94041820.47344        44.100          29.600
  24067793.266                                    24067801.012   126477000.681 6
  98553585.99042        37.000          16.300
  20595573.531                    20595582.336                   108230423.680 8
  84335497.307 8        52.000          50.000
  20276501.898                    20276508.066    20276508.063   106553568.584 8
  83028929.827 8        51.100          50.500
  23129098.430                    23129104.012    23129103.949   121544331.002 7
  94709834.165 6        42.800          41.500
  20936706.461                    20936711.574    20936711.629   110023144.787 8
  85732334.322 8        50.800          48.100
 14  1  1  1 58 30.0000000  0  6G02G14G25G29G12G31
  22970986.789                                    22970990.316   120713168.144 7
  94062399.64344        44.800          29.600
  24087354.117                                    24087361.336   126579793.648 6
  98633684.36242        37.800          16.300
  20603999.656                    20604009.047                   108274702.843 8
  84370000.547 8        51.500          50.000
  20272196.344                    20272202.570    20272202.625   106530943.302 8
  83011299.736 8        51.900          50.700
  23147198.414                    23147204.699    23147204.578   121639447.090 7
  94783950.568 6        43.700          41.300
  20930983.063                    20930988.293    20930988.289   109993067.352 8
  85708897.361 8        50.300          48.400
 14  1  1  1 59  0.0000000  0  6G02G14G25G29G12G31
  22976113.203                                    22976116.145   120740108.372 7
  94083392.03145        44.900          30.000
  24106942.891                                    24106950.109   126682732.745 5
  98713896.63842        35.700          16.300
  20612499.375                    20612508.004                   108319368.898 8
  84404805.259 8        51.800          49.700
  20267993.891                    20268000.352    20268000.055   106508858.550 8
  82994090.847 8        51.200          50.700
  23165327.797                    23165333.262    23165332.965   121734714.504 7
  94858184.883 6        43.200          41.300
  20925357.516                    20925362.746    20925362.625   109963504.128 8
  85685861.076 8        50.300          48.700
 14  1  1  1 59 30.0000000  0  6G02G14G25G29G12G31
  22981356.383                                    22981360.203   120767660.226 7
  94104861.00244        44.400          29.900
  24126573.992                                    24126581.445   126785897.059 6
  98794284.35842        36.000          14.800
  20621088.078                    20621097.352                   108364503.127 8
  84439974.767 8        51.900          50.000
  20263909.648                    20263916.461    20263916.457   106487396.714 8
  82977367.350 8        50.900          50.700
  23183500.695                    23183506.043    23183506.039   121830214.152 7
  94932600.163 6        43.500          41.000
  20919845.570                    20919851.328    20919851.090   109934538.531 8
  85663290.484 8        49.700          48.500
 14  1  1  2  0  0.0000000  4  5
MORP (COGO code)                                            COMMENT
   0.033      (antenna height)                              COMMENT
 +55.21279000 (latitude)                                    COMMENT
  -1.68549700 (longitude)                                   COMMENT
0144.425      (elevation)                                   COMMENT
 14  1  1  2  0  0.0000000  0  6G02G14G25G29G12G31
  22986685.219                                    22986688.746   120795662.723 7
  94126681.11945        43.700          30.700
  24146217.531                                    24146225.043   126889123.215 5
  98874720.24242        35.500          15.600
  20629735.375                    20629744.121                   108409944.591 8
  84475383.688 8        51.800          49.800
  20259913.766                    20259919.875    20259919.871   106466397.494 8
  82961004.332 8        51.200          50.100
  23201686.773                    23201693.059    23201692.996   121925784.855 7
  95007070.811 6        43.300          41.400
  20914416.758                    20914422.223    20914422.277   109906011.753 8
  85641061.824 8        50.700          48.000
 14  1  1  2  0 30.0000000  0  6G02G14G25G29G12G31
  22992114.500                                    22992117.910   120824194.695 7
  94148913.82844        43.600          29.800
  24165887.328                                    24165894.781   126992488.115 5
  98955264.35242        34.600          15.600
  20638456.336                    20638465.258                   108455772.472 8
  84511093.723 8        51.700          50.000
  20256021.008                    20256027.410    20256027.289   106445941.171 8
  82945064.334 8        51.600          50.900
  23219901.797                    23219907.672    23219907.727   122021504.969 7
  95081657.872 6        43.000          41.700
  20909087.313                    20909092.660    20909092.480   109878004.671 8
  85619238.119 7        50.200          47.800
 14  1  1  2  1  0.0000000  0  6G02G14G25G29G12G31
  22997659.609                                    22997663.137   120853332.947 7
  94171618.95544        43.800          29.700
  24185597.406                                    24185605.094   127096066.278 5
  99035974.59742        34.800          14.800
  20647265.172                    20647274.152                   108502063.545 8
  84547164.694 8        51.900          50.000
  20252246.500                    20252253.254    20252253.367   106426105.074 8
  82929607.648 8        52.000          50.500
  23238159.977                    23238165.969    23238165.730   122117451.232 7
  95156421.163 6        42.600          41.100
  20903871.898                    20903877.773    20903877.477   109850596.417 8
  85597881.035 8        50.200          48.600
 14  1  1  2  1 30.0000000  0  6G02G14G25G29G12G31
  23003289.586                                    23003293.172   120882921.476 7
  94194674.96244        44.300          29.900
  24205318.055                                    24205325.801   127199699.970 5
  99116728.14542        35.500          15.600
  20656132.391                    20656141.605                   108548661.878 8
  84583475.075 8        51.800          50.200
  20248559.805                    20248566.266    20248566.203   106406734.028 8
  82914513.322 8        51.600          50.800
  23256431.453                    23256437.445    23256437.266   122213467.487 7
  95231238.982 6        42.700          41.200
  20898740.641                    20898746.340    20898746.395   109823633.000 8
  85576870.585 8        50.200          48.900
 14  1  1  2  2  0.0000000  0  6G02G14G25G29G12G31
  23009020.445                                    23009023.855   120913036.125 7
  94218140.92244        43.900          29.700
  24225063.461                                    24225070.797   127303462.746 5
  99197582.20342        34.800          16.300
  20665072.773                    20665081.520                   108595643.467 8
  84620084.097 8        50.900          50.600
  20244977.180                    20244983.348    20244983.402   106387905.477 8
  82899841.718 8        51.900          50.600
  23274729.859                    23274736.203    23274736.258   122309629.445 7
  95306170.339 6        42.900          41.300
  20893709.344                    20893714.457    20893714.453   109797192.500 8
  85556267.597 8        50.300          48.300
 14  1  1  2  2 30.0000000  0  6G02G14G25G29G12G31
  23014866.398                                    23014870.160   120943754.960 7
  94242077.67045        44.000          30.500
  24244847.969                                    24244856.125   127407430.246 5
  99278595.85242        33.700          13.900
  20674100.820                    20674109.566                   108643086.342 8
  84657052.561 8        51.800          50.200
  20241511.867                    20241518.914    20241518.793   106369697.768 8
  82885653.901 8        51.900          51.000
  23293071.242                    23293077.996    23293077.875   122406014.621 7
  95381275.629 6        42.000          40.800
  20888792.328                    20888798.379    20888798.258   109771354.899 8
  85536134.396 8        50.300          48.500
 14  1  1  2  3  0.0000000  0  6G02G14G25G29G12G31
  23020796.742                                    23020800.504   120974920.508 7
  94266362.52045        42.900          30.200
  24264640.266                                    24264649.066   127511443.376 5
  99359645.00242        33.800          15.600
  20683186.977                    20683196.074                   108690833.535 8
  84694258.151 8        51.400          49.800
  20238136.172                    20238142.281    20238142.395   106351954.640 8
  82871828.096 8        52.600          50.900
  23311425.984                    23311432.445    23311432.500   122502465.797 7
  95456432.361 6        42.600          41.200
  20883960.852                    20883966.609    20883966.547   109745965.206 8
  85516350.221 8        50.300          48.100
 14  1  1  2  3 30.0000000  0  6G02G14G25G29G12G31
  23026826.867                                    23026830.863   121006608.919 7
  94291054.79545        44.100          30.500
  24284457.336                                    24284465.258   127615576.141 5
  99440787.41042        35.000          14.800
  20692345.016                    20692354.113                   108738961.211 8
  84731760.228 8        51.700          50.700
  20234862.859                    20234869.438    20234869.375   106334752.964 8
  82858424.193 8        52.000          51.000
  23329806.289                    23329813.570    23329813.215   122599059.303 7
  95531699.980 6        42.600          40.500
  20879229.477                    20879234.766    20879234.703   109721101.556 8
  85496975.947 8        50.000          48.200
 14  1  1  2  4  0.0000000  0  7G02G14G25G29G21G12G31
  23032971.539                                    23032975.184   121038898.881 7
  94316215.80345        44.400          30.600
  24304309.836                                    24304318.461   127719905.189 5
  99522082.72542        35.200          13.900
  20701590.828                    20701599.867                   108787548.322 8
  84769620.306 8        51.600          50.500
  20231707.422                    20231714.234    20231714.113   106318172.275 8
  82845504.161 8        52.100          50.800
  25330705.391                                                   133113760.755 5
                        32.600
  23348230.219                    23348236.152    23348236.148   122695873.366 7
  95607139.478 6        43.500          41.100
  20874613.750                    20874619.039    20874618.977   109696845.006 8
  85478074.732 7        50.200          47.800
 14  1  1  2  4 30.0000000  0  7G02G14G25G29G21G12G31
  23039200.461                                    23039203.871   121071632.228 7
  94341722.31745        44.300          30.800
  24324170.758                                    24324178.445   127824270.693 5
  99603406.36442        35.800          14.800
  20710894.359                    20710903.223                   108836437.096 8
  84807715.449 8        51.400          49.800
  20228640.563                    20228647.141    20228647.371   106302056.266 8
  82832946.236 8        51.700          50.800
  25311828.070                                                   133014561.715 5
                        32.300
  23366665.484                    23366670.949    23366671.004   122792749.857 7
  95682627.617 6        42.800          40.500
  20870083.766                    20870089.172    20870088.934   109673039.689 8
  85459525.133 8        50.000          48.300
 14  1  1  2  5  0.0000000  0  7G02G14G25G29G21G12G31
  23045528.422                                    23045532.066   121104884.998 7
  94367633.56745        43.900          30.200
  24344050.883                                    24344059.801   127928746.773 6
  99684816.35442        36.300          14.800
  20720269.227                    20720278.441                   108885703.506 8
  84846104.849 8        51.800          49.400
  20225676.805                    20225683.266    20225682.969   106286481.510 8
  82820810.077 8        51.600          50.700
  25292948.328                                                   132915349.400 5
                        32.400
  23385125.906                    23385132.426    23385132.363   122889764.515 7
  95758223.412 6        43.000          41.300
  20865654.539                    20865660.238    20865660.059   109649763.591 8
  85441387.913 7        50.600          47.900
 14  1  1  2  5 30.0000000  0  7G02G14G25G29G21G12G31
  23051970.172                                    23051974.109   121138735.985 7
  94394010.95745        44.100          30.600
  24363967.820                                    24363976.680   128033409.921 5
  99766371.94642        35.600          15.600
  20729731.594                    20729739.871                   108935426.777 8
  84884850.252 8        51.200          49.800
  20222830.984                    20222837.328    20222837.266   106271527.654 8
  82809157.727 8        51.700          50.300
  25274082.250                                                   132816206.315 5
                        33.100
  23403629.016                    23403635.770    23403635.590   122986995.998 7
  95833988.166 6        42.600          41.100
  20861341.289                    20861346.754    20861346.750   109627097.799 8
  85423726.254 8        50.800          48.500
 14  1  1  2  6  0.0000000  0  7G02G14G25G29G21G12G31
  23058495.453                                    23058498.980   121173028.991 7
  94420732.78245        44.600          30.600
  24383889.797                                                   128138101.942 5
                        34.200
  20739250.523                    20739259.621                   108985450.653 8
  84923829.892 8        51.400          49.600
  20220074.148                    20220080.375    20220080.547   106257039.220 8
  82797868.051 8        51.100          50.100
  25255199.016                                                   132716979.445 5
                        33.000
  23422143.461                    23422149.629    23422149.566   123084288.352 7
  95909800.353 6        42.400          41.300
  20857114.883                    20857120.230    20857119.992   109604887.801 8
  85406419.765 8        50.900          48.500
 14  1  1  2  6 30.0000000  0  7G02G14G25G29G21G12G31
  23065119.563                                    23065123.383   121207836.727 7
  94447855.69045        44.500          30.100
  24403832.164                                                   128242893.947 5
                        34.500
  20748840.906                    20748849.418                   109035848.165 8
  84963100.679 8        51.300          49.500
  20217419.641                    20217426.102    20217426.156   106243089.948 8
  82786998.509 8        51.300          50.000
  25236315.828                                                   132617744.445 5
                        33.600
  23440682.203                    23440689.074    23440689.012   123181714.301 6
  95985716.640 6        41.800          41.600
  20852989.492                    20852995.133    20852995.188   109583208.937 8
  85389527.141 8        50.800          48.200
 14  1  1  2  7  0.0000000  0  7G02G14G25G29G21G12G31
  23071856.430                                    23071860.191   121243239.135 7
  94475441.98345        45.100          30.200
  24423806.938                                                   128347863.998 5
                        33.700
  20758517.563                    20758526.426                   109086699.681 8
  85002725.229 8        51.100          49.500
  20214883.320                    20214889.664    20214889.602   106229760.891 8
  82776612.240 8        51.300          51.100
  25217445.813                                                   132518585.151 5
                        34.600
  23459262.953                    23459269.180    23459269.293   123279353.904 6
  96061799.402 6        41.600          41.600
  20848980.586                    20848986.520    20848986.633   109562143.340 8
  85373112.391 8        50.800          48.500
 14  1  1  2  7 30.0000000  0  7G02G14G25G29G21G12G31
  23078676.695                                    23078680.457   121279080.646 7
  94503370.44245        45.300          31.300
  24443786.398                                                   128452854.479 5
                        34.000
  20768250.688                    20768260.195                   109137849.993 8
  85042582.606 8        50.800          49.400
  20212435.102                    20212441.738    20212441.734   106216897.447 8
  82766588.780 8        51.300          50.900
  25198562.742                                                   132419349.223 5
                        32.800
  23477854.055                    23477860.633    23477860.570   123377051.410 6
  96137927.287 6        41.800          41.300
  20845059.789                    20845065.488    20845065.309   109541537.741 8
  85357056.079 8        51.200          48.300
 14  1  1  2  8  0.0000000  0  7G02G14G25G29G21G12G31
  23085593.820                                    23085597.758   121315433.272 7
  94531697.16245        44.900          30.900
  24463782.461                                                   128557935.700 5
                        34.800
  20778055.141                    20778063.945                   109189371.392 8
  85082729.142 8        51.100          49.600
  20210089.875                    20210096.688    20210096.449   106204572.595 8
  82756985.007 8        51.300          51.200
  25179679.273                                                   132320111.670 5
                        32.500
  23496470.477                    23496476.586    23496476.758   123474879.028 6
  96214156.573 6        41.300          40.900
  20841240.008                    20841245.648    20841245.586   109521466.337 8
  85341416.019 8        50.300          48.100
 14  1  1  2  8 30.0000000  0  7G02G14G25G29G21G12G31
  23092624.492                                    23092627.961   121352377.148 7
  94560484.60445        44.400          30.400
  24483810.523                                                   128663185.942 5
                        34.600
  20787945.625                    20787954.547                   109241344.250 8
  85123227.455 8        51.000          48.800
  20207862.445                    20207869.023    20207868.961   106192866.832 8
  82747863.632 8        51.500          50.900
  25160809.383                                                   132220956.242 5
                        33.500
  23515125.789                    23515132.660    23515132.539   123572916.882 7
  96290549.665 6        42.200          40.900
  20837538.133                    20837543.656    20837543.652   109502011.111 8
  85326256.100 8        51.100          48.500
 14  1  1  2  9  0.0000000  0  7G02G14G25G29G21G12G31
  23099737.352                                    23099740.879   121389756.917 7
  94589611.71345        44.700          30.600
  24503841.398                                                   128768447.812 5
                        33.200
  20797892.258                    20797900.887                   109293613.297 8
  85163956.572 8        50.000          49.200
  20205723.703                    20205729.520    20205729.398   106181626.372 8
  82739104.827 8        50.700          50.400
  25141928.516                                                   132121731.243 5
                        33.800
  23533793.102                    23533799.211    23533799.266   123671009.731 7
  96366985.600 6        42.100          41.100
  20833923.656                    20833929.414    20833929.234   109483018.884 8
  85311456.962 8        50.200          48.100
 14  1  1  2  9 30.0000000  0  7G02G14G25G29G21G12G31
  23106947.070                                    23106950.773   121427644.442 7
  94619134.45645        45.000          30.100
  24523888.484                                                   128873792.023 5
                        33.700
  20807908.680                    20807917.191                   109346251.313 8
  85204973.193 8        49.700          49.000
  20203687.156                    20203693.148    20203693.145   106170924.353 8
  82730765.579 8        51.200          51.000
  25123046.516                                                   132022511.986 5
                        33.700
  23552483.180                    23552489.934    23552489.520   123769229.664 7
  96443520.577 6        42.900          40.800
  20830411.938                    20830417.461    20830417.574   109464564.196 8
  85297076.689 8        51.000          49.100
 14  1  1  2 10  0.0000000  0  7G02G14G25G29G21G12G31
  23114268.961                                    23114272.898   121466122.043 7
  94649117.00645        43.800          30.400
  24543965.266                                                   128979299.152 5
                        34.600
  20818011.422                    20818020.227                   109399340.517 8
  85246341.391 8        48.100          49.100
  20201768.859                    20201775.379    20201775.141   106160843.825 8
  82722910.626 8        50.200          50.800
  25104184.242                                                   131923384.121 5
                        33.700
  23571213.859                    23571220.320    23571220.258   123867658.721 7
  96520218.508 6        43.100          41.200
  20827018.539                    20827024.531    20827024.293   109446731.479 8
  85283181.060 8        51.600          48.800
 14  1  1  2 10 30.0000000  0  7G02G14G25G29G21G12G31
  23121672.750                                    23121676.570   121505028.745 7
  94679433.91045        43.500          30.600
  24564043.328                                                   129084805.816 5
                        33.500
  20828169.039                    20828178.430                   109452720.446 8
  85287936.136 8        49.100          48.800
  20199938.375                    20199944.719    20199944.773   106151224.459 8
  82715415.013 8        50.700          50.800
  25085309.203                                                   131824190.124 5
                        34.600
  23589953.023                    23589960.129    23589959.773   123966136.404 7
  96596954.317 6        42.400          40.600
  20823713.352                    20823719.051    20823718.871   109429361.656 8
  85269646.135 8        51.200          48.800
 14  1  1  2 11  0.0000000  0  8G02G14G25G23G29G21G12G31
  23129173.266                                    23129176.676   121544441.525 7
  94710145.17445        44.200          30.100
  24584134.320                                                   129190387.580 5
                        32.300
  20838396.688                    20838405.727                   109506468.369 8
  85329817.633 8        48.400          49.500
  24955309.109                                                   131141012.694 5
                        31.000
  20198210.508                    20198216.559    20198216.555   106142144.603 8
  82708339.815 8        50.500          51.600
  25066434.539                                                   131725010.187 5
                        35.900
  23608717.609                    23608723.836    23608723.773   124064739.876 7
  96673788.166 6        43.200          40.100
  20820511.250                    20820516.832    20820516.770   109412534.176 8
  85256533.808 8        50.800          48.700
 14  1  1  2 11 30.0000000  0  8G02G14G25G23G29G21G12G31
  23136784.445                                    23136787.797   121584438.812 7
  94741311.89544        44.300          29.500
  24604255.156                                                   129296121.183 5
                        33.200
  20848710.102                    20848719.434                   109560663.240 8
  85372047.402 8        48.900          49.500
  24942430.313                                                   131073344.599 5
                        31.200
  20196600.633                    20196607.152    20196607.031   106133683.501 8
  82701746.754 8        50.800          51.100
  25047580.352                                    25047585.168   131625926.696 6
 102565670.74042        36.900          15.600
  23627520.305                    23627525.828    23627525.707   124163547.847 7
  96750781.352 6        43.100          40.200
  20817427.758                    20817433.105    20817433.219   109396329.519 8
  85243906.799 8        51.000          48.700
 14  1  1  2 12  0.0000000  0  8G02G14G25G23G29G21G12G31
  23144477.055                                    23144480.348   121624864.907 7
  94772812.75544        44.600          29.900
  24624374.422                                                   129401849.048 5
                        32.900
  20859078.266                    20859087.188                   109615149.482 8
  85414504.206 8        49.300          49.300
  24929622.938                                                   131006036.119 5
                        31.300
  20195078.250                    20195084.359    20195084.297   106125685.911 8
  82695514.895 8        51.500          51.900
  25028713.594                                    25028720.227   131526787.176 5
 102488419.14242        35.400          13.900
  23646331.914                    23646337.730    23646337.609   124262404.494 7
  96827812.479 6        43.100          40.100
  20814433.203                    20814438.785    20814438.898   109380594.060 8
  85231645.399 8        50.800          48.300
 14  1  1  2 12 30.0000000  0  8G02G14G25G23G29G21G12G31
  23152264.930                                    23152268.926   121665791.899 7
  94804703.91444        44.600          29.400
  24644505.148                                                   129507641.794 5
                        32.400
  20869516.172                    20869525.035                   109669999.751 8
  85457244.664 8        49.700          49.800
  24916898.461                                                   130939167.37915
                        30.800
  20193658.813                    20193665.039    20193664.918   106118225.251 8
  82689701.415 8        52.100          51.800
  25009852.266                                    25009859.602   131427667.662 5
 102411183.10942        34.800          16.300
  23665166.688                    23665172.855    23665172.910   124361382.419 7
  96904938.096 6        43.000          39.900
  20811542.195                    20811547.953    20811547.949   109365401.950 8
  85219807.387 8        51.000          48.700
 14  1  1  2 13  0.0000000  0  8G02G14G25G23G29G21G12G31
  23160162.609                                    23160166.547   121707297.010 7
  94837045.56145        44.300          30.000
  24664664.172                                                   129613575.50015
                        32.600
  20880037.523                    20880046.738                   109725291.739 8
  85500329.327 8        49.200          49.300
  24904271.227                                                   130872816.07414
                        29.100
  20192356.508                    20192362.031    20192362.145   106111379.885 8
  82684367.368 8        51.200          51.400
  24991010.313                                    24991016.125   131328648.555 6
 102334025.47142        36.400          14.800
  23684039.352                    23684045.637    23684045.516   124460559.057 7
  96982218.558 6        42.800          39.400
  20808769.773                    20808775.063    20808774.941   109350832.698 8
  85208454.720 8        51.300          48.700
 14  1  1  2 13 30.0000000  0  8G02G14G25G23G29G21G12G31
  23168142.570                                    23168145.688   121749226.385 7
  94869717.80544        44.800          29.000
  24684818.844                                                   129719493.380 5
                        31.600
  20890614.320                    20890623.477                   109780872.125 8
  85543638.714 8        49.300          49.200
  24891713.523                                                   130806833.34315
                        30.100
  20191141.555                    20191147.723    20191147.719   106104996.748 8
  82679393.497 8        51.200          50.900
  24972157.625                                    24972163.906   131229579.955 6
 102256829.05542        36.200          14.800
  23702920.523                    23702926.691    23702926.629   124559780.599 7
  97059534.004 6        43.100          39.400
  20806087.336                    20806092.742    20806092.738   109336734.987 8
  85197469.490 8        50.600          48.100
 14  1  1  2 14  0.0000000  0  7G02G14G25G29G21G12G31
  23176215.336                                    23176219.332   121791653.185 7
  94902777.64744        44.100          28.700
  24704985.664                                                   129825468.409 5
                        32.400
  20901259.633                    20901268.965                   109836814.411 8
  85587230.096 8        49.600          49.000
  20190028.422                    20190035.176    20190034.938   106099149.608 8
  82674837.280 8        50.900          50.800
  24953310.406                                    24953317.508   131130538.552 6
 102179654.03142        36.400          15.600
  23721824.203                    23721830.488    23721830.309   124659120.520 7
  97136941.690 6        42.800          39.800
  20803508.484                    20803513.891    20803513.945   109323184.004 8
  85186910.284 8        50.600          48.900
 14  1  1  2 14 30.0000000  0  7G02G14G25G29G21G12G31
  23184398.281                                    23184401.809   121834654.165 7
  94936284.90744        44.400          29.800
  24725177.813                                                   129931575.370 5
                        30.700
  20911988.414                    20911997.863                   109893195.971 8
  85631163.772 8        49.300          49.300
  20189033.016                    20189039.359    20189039.414   106093917.060 8
  82670759.970 8        51.000          51.400
  24934484.516                                    24934490.211   131031604.681 6
 102102562.66042        36.400          15.600
  23740765.258                    23740771.426    23740770.953   124758656.080 7
  97214501.825 6        42.700          39.300
  20801048.680                    20801054.027    20801054.082   109310259.080 8
  85176838.912 8        51.300          48.800
 14  1  1  2 15  0.0000000  0  7G02G14G25G29G21G12G31
  23192660.867                                    23192664.453   121878074.621 7
  94970119.02744        44.500          28.500
  24745364.164                                                   130037657.894 5
                        31.300
  20922772.094                    20922781.191                   109949862.343 8
  85675319.389 8        49.200          49.100
  20188124.875                    20188131.336    20188131.156   106089145.056 8
  82667041.529 8        51.500          51.200
  24915648.969                                    24915655.426   130932627.001 6
 102025437.23742        36.500          16.900
  23759715.281                    23759720.277    23759720.098   124858232.909 7
  97292094.118 6        43.000          40.000
  20798679.328                    20798685.027    20798684.848   109297807.081 8
  85167136.048 8        51.100          49.100
 14  1  1  2 15 30.0000000  0  8G02G14G25G23G29G21G12G31
  23201017.461                                    23201021.457   121921988.160 7
  95004337.37744        45.100          29.100
  24765560.211                                                   130143787.796 5
                        30.100
  20933623.656                    20933632.695                   110006887.627 8
  85719754.677 8        49.100          49.300
  24842357.578                                                   130547453.06315
                        31.500
  20187318.789                    20187324.957    20187325.012   106084907.766 8
  82663739.747 8        51.000          51.500
  24896820.922                                    24896826.676   130833682.849 6
 101948337.91342        36.700          15.600
  23778685.344                    23778691.277    23778691.449   124957924.914 7
  97369776.152 6        42.700          39.200
  20796414.313                    20796419.426    20796419.539   109285903.909 8
  85157860.847 8        50.900          48.800
 14  1  1  2 16  0.0000000  0  7G02G14G25G29G21G12G31
  23209483.336                                    23209486.746   121966475.118 7
  95039002.53844        45.400          29.900
  24785779.648                                                   130250044.262 4
                        29.900
  20944559.227                    20944567.914                   110064352.731 8
  85764532.666 8        50.500          49.700
  20186629.422                    20186635.883    20186635.879   106081286.587 8
  82660918.053 8        52.100          51.400
  24878014.141                                    24878021.125   130734856.167 6
 101871330.11942        36.400          17.400
  23797692.906                    23797699.133    23797698.777   125057812.199 7
  97447610.353 6        42.700          39.300
  20794268.891                    20794275.176    20794275.055   109274632.203 8
  85149077.700 8        50.900          49.100
 14  1  1  2 16 30.0000000  0  8G02G14G25G23G29G21G12G31
  23218028.477                                    23218031.242   122011378.637 7
  95073992.29344        45.100          29.100
  24805993.344                                                   130356268.872 4
                        29.600
  20955547.852                    20955557.008                   110122101.187 8
  85809531.438 8        49.900          49.200
  24818204.148                                                   130420518.168 5
                        32.900
  20186028.078                    20186034.129    20186034.125   106078125.776 8
  82658455.077 8        52.200          51.400
  24859202.477                                    24859208.113   130635994.125 6
 101794294.73942        37.200          16.300
  23816708.063                    23816714.816    23816714.637   125157738.944 7
  97525475.320 6        43.000          38.700
  20792215.148                    20792220.672    20792220.902   109263837.048 8
  85140665.885 8        51.000          48.700
 14  1  1  2 17  0.0000000  0  8G02G14G25G23G29G21G12G31
  23226665.664                                    23226669.602   122056770.138 7
  95109362.29745        45.100          30.500
  24826213.367                                                   130462531.161 4
                        29.100
  20966604.938                    20966614.211                   110180205.169 8
  85854807.244 8        50.900          49.100
  24806251.773                                                   130357702.467 5
                        32.800
  20185527.516                    20185534.445    20185534.266   106075497.751 8
  82656407.273 8        51.800          51.300
  24840397.117                                    24840403.457   130537171.881 6
 101717290.41442        36.300          15.600
  23835745.078                    23835751.715    23835751.301   125257777.005 7
  97603427.038 6        43.400          38.400
  20790265.898                    20790270.895    20790270.949   109253592.395 8
  85132683.034 8        50.500          48.800
 14  1  1  2 17 30.0000000  0  8G02G14G25G23G29G21G12G31
  23235411.906                                    23235415.492   122102730.841 7
  95145175.83244        45.400          29.600
  24846458.000                                                   130568911.809 5
                        30.100
  20977745.344                    20977754.383                   110238746.403 8
  85900423.777 8        50.800          49.300
  24794398.328                                                   130295428.64315
                        32.800
  20185144.641                    20185151.277    20185151.273   106073484.245 8
  82654838.310 8        52.000          51.500
  24821615.227                                    24821622.445   130438474.386 6
 101640383.30342        37.900          16.900
  23854817.727                    23854824.656    23854824.359   125358007.767 7
  97681528.893 6        43.300          38.900
  20788436.844                    20788442.367    20788442.129   109243981.695 8
  85125194.171 8        51.200          48.500
 14  1  1  2 18  0.0000000  0  8G02G14G25G23G29G21G12G31
  23244236.328                                    23244239.738   122149102.529 7
  95181309.62744        46.000          29.400
  24866695.656                                                   130675250.630 5
                        31.500
  20988937.813                    20988947.145                   110297567.213 8
  85946258.164 8        50.900          48.600
  24782622.617                                                   130233540.403 5
                        33.700
  20184848.625                    20184855.320    20184855.375   106071928.545 8
  82653626.072 8        51.800          51.300
  24802828.664                                    24802835.297   130339747.169 6
 101563453.02042        38.300          16.900
  23873898.320                    23873904.547    23873904.309   125458273.415 7
  97759657.935 6        42.900          38.100
  20786698.828                    20786704.410    20786704.289   109234848.729 8
  85118077.573 8        51.200          48.000
 14  1  1  2 18 30.0000000  0  8G02G14G25G23G29G21G12G31
  23253153.109                                    23253155.992   122195959.226 7
  95217821.33544        45.600          29.500
  24886935.969                                                   130781620.121 5
                        31.000
  21000198.906                    21000207.652                   110356742.126 8
  85992368.469 8        50.700          49.100
  24770933.813                                                   130172116.664 5
                        33.500
  20184654.102                    20184660.680    20184660.617   106070905.328 8
  82652828.764 8        50.900          51.100
  24784049.766                                    24784056.340   130241067.741 6
 101486559.91143        37.600          18.300
  23892999.211                    23893004.852    23893004.555   125558648.596 7
  97837872.331 6        43.000          37.900
  20785066.633                    20785071.219    20785071.215   109226269.787 8
  85111392.686 8        50.500          48.600
 14  1  1  2 19  0.0000000  0  8G02G14G25G23G29G21G12G31
  23262161.227                                    23262164.871   122243298.476 7
  95254709.07245        45.600          30.500
  24907183.227                                                   130888016.887 5
                        30.800
  21011526.438                    21011535.770                   110416269.012 8
  86038753.042 8        50.200          48.700
  24759335.266                                                   130111158.256 5
                        35.200
  20184560.273                    20184566.324    20184566.496   106070413.346 8
  82652445.409 8        51.900          51.600
  24765281.063                                    24765287.988   130142437.223 6
 101409705.01642        36.900          17.400
  23912120.148                    23912125.789    23912125.961   125659130.504 7
  97916169.876 6        42.300          38.300
  20783538.953                    20783545.004    20783544.883   109218244.215 8
  85105138.985 8        51.000          48.700
 14  1  1  2 19 30.0000000  0  8G02G14G25G23G29G21G12G31
  23271277.375                                    23271280.668   122291202.812 7
  95292037.12244        45.000          29.000
  24927449.461                                                   130994520.908 4
                        29.600
  21022936.898                    21022945.879                   110476231.203 8
  86085476.813 8        49.900          48.600
  24747840.852                                                   130050752.217 5
                        34.000
  20184583.414                    20184589.934    20184589.930   106070536.063 8
  82652541.039 8        51.400          51.200
  24746537.344                                    24746545.266   130043942.591 6
 101332955.96742        36.500          15.600
  23931277.523                    23931283.633    23931283.570   125759802.974 7
  97994615.900 6        42.200          37.600
  20782133.586                    20782139.109    20782139.047   109210856.915 8
  85099382.642 8        51.200          48.200
 14  1  1  2 20  0.0000000  0  8G02G14G25G23G29G21G12G31
  23280469.234                                    23280472.938   122339509.279 7
  95329678.52944        45.700          29.900
  24947706.828                                                   131100969.250 5
                        30.500
  21034399.406                    21034408.445                   110536466.447 8
  86132413.364 8        49.600          49.100
  24736420.000                                                   129990737.212 5
                        33.800
  20184692.820                    20184699.750    20184699.512   106071111.353 8
  82652989.327 8        51.600          51.700
  24727790.070                                    24727797.172   129945423.873 6
 101256188.13842        36.500          16.900
  23950440.547                    23950445.895    23950445.773   125860503.421 6
  98073083.734 6        41.900          37.500
  20780818.383                    20780823.848    20780824.020   109203947.159 8
  85093998.409 8        51.600          48.700
 14  1  1  2 20 30.0000000  0  8G02G14G25G23G29G21G12G31
  23289753.016                                    23289756.191   122388294.114 7
  95367692.68444        45.100          29.800
  24967965.688                                                   131207436.210 4
                        29.600
  21045928.016                    21045937.113                   110597051.258 8
  86179622.295 8        50.000          48.700
  24725087.258                                                   129931193.701 5
                        32.600
  20184903.422                    20184909.297    20184909.469   106072216.391 8
  82653850.392 8        51.100          51.000
  24709054.109                                    24709060.625   129846961.840 5
 101179464.46942        35.300          16.900
  23969622.453                    23969628.504    23969628.969   125961308.605 6
  98151633.199 6        41.600          38.000
  20779609.547                    20779614.836    20779614.773   109197593.328 8
  85089047.372 8        51.200          48.500
 14  1  1  2 21  0.0000000  0  8G02G14G25G23G29G21G12G31
  23299143.148                                    23299146.383   122437639.084 7
  95406143.31544        45.400          28.900
  24988243.680                                                   131314002.282 4
                        28.900
  21057538.953                    21057548.285                   110658068.294 8
  86227168.028 8        49.800          48.900
  24713863.695                                                   129872207.379 5
                        34.000
  20185230.211                    20185236.555    20185236.492   106073933.868 8
  82655188.682 8        51.700          51.800
  24690344.500                                    24690350.781   129748641.898 5
 101102851.54942        35.800          16.300
  23988840.391                    23988846.969    23988846.906   126062300.473 6
  98230328.115 6        40.400          37.500
  20778522.000                    20778527.289    20778527.402   109191879.476 8
  85084595.013 8        51.300          48.800
 14  1  1  2 21 30.0000000  0  8G02G14G25G23G29G21G12G31
  23308608.492                                    23308612.254   122487380.418 7
  95444902.80644        45.300          29.600
  25008512.531                                                   131420502.474 4
                        28.600
  21069201.711                    21069211.102                   110719354.305 8
  86274923.359 8        49.200          48.500
  24702715.586                                                   129813617.722 5
                        35.000
  20185642.586                    20185649.223    20185649.160   106076100.555 8
  82656877.013 8        52.000          51.300
  24671631.992                                    24671637.629   129650304.006 6
 101026224.66642        36.500          17.800
  24008063.492                    24008069.602    24008069.715   126163315.816 6
  98309041.321 6        41.100          37.600
  20777525.781                    20777531.539    20777531.418   109186644.002 8
  85080515.413 8        51.400          49.000
 14  1  1  2 22  0.0000000  0  8G02G14G25G23G29G21G12G31
  23318164.250                                    23318168.246   122537597.943 7
  95484033.34044        45.000          29.800
  25028778.969                                                   131527015.478 4
                        28.900
  21080930.656                    21080939.520                   110780989.885 8
  86322951.082 8        48.000          48.600
  24691657.711                                                   129755508.415 5
                        34.800
  20186155.922                    20186162.734    20186162.613   106078798.272 8
  82658979.126 8        50.900          51.700
  24652930.617                                    24652936.957   129552032.397 6
 100949649.35742        36.800          16.900
  24027306.695                    24027312.512    24027312.156   126264435.577 6
  98387835.896 6        40.400          37.400
  20776636.078                    20776641.836    20776641.949   109181968.734 8
  85076872.349 8        51.400          49.000
 14  1  1  2 22 30.0000000  0  8G02G14G25G23G29G21G12G31
  23327825.719                                    23327829.305   122588368.742 7
  95523595.00644        45.200          29.300
  25049064.055                                                   131633616.841 4
                        29.600
  21092740.711                    21092749.750                   110843052.513 8
  86371311.557 8        49.500          48.500
  24680705.906                                                   129697960.135 5
                        35.200
  20186784.898                    20186791.770    20186791.707   106082104.332 8
  82661555.275 8        51.000          51.400
  24634257.648                                    24634264.516   129453907.126 6
 100873188.11842        38.000          16.900
  24046582.742                    24046589.555    24046589.258   126365736.643 6
  98466771.762 6        39.900          37.900
  20775868.055                    20775873.461    20775873.457   109177932.737 8
  85073727.411 8        50.600          49.400
