     2.11           OBSERVATION DATA    G (GPS)             RINEX VERSION / TYPE
teqc  2013Mar15                         20140110 01:02:36UTCPGM / RUN BY / DATE
Linux 2.4.20-8|Pentium IV|gcc -static|Linux|486/DX+         COMMENT
   0.033      (antenna height)                              COMMENT
 +55.21279000 (latitude)                                    COMMENT
  -1.68549700 (longitude)                                   COMMENT
0144.425      (elevation)                                   COMMENT
BIT 2 OF LLI FLAGS DATA COLLECTED UNDER A/S CONDITION       COMMENT
MORP (COGO code)                                            COMMENT
MORP                                                        MARKER NAME
13299S001                                                   MARKER NUMBER
Matt King           NCL                                     OBSERVER / AGENCY
4843K3347           TRIMBLE NETR8       4.19                REC # / TYPE / VERS
221                 AOAD/M_T        NONE                    ANT # / TYPE
  3645667.8584  -107277.2886  5215053.4919                  APPROX POSITION XYZ
        0.0330        0.0000        0.0000                  ANTENNA: DELTA H/E/N
     1     1                                                WAVELENGTH FACT L1/2
     8    C1    P1    C2    P2    L1    L2    S1    S2      # / TYPES OF OBSERV
    30.0000                                                 INTERVAL
    16                                                      LEAP SECONDS
Forced Modulo Decimation to 30 seconds                      COMMENT
 SNR is mapped to RINEX snr flag value [0-9]                COMMENT
  L1 & L2: min(max(int(snr_dBHz/6), 0), 9)                  COMMENT
  2014     1     9     0     0    0.0000000     GPS         TIME OF FIRST OBS
                                                            END OF HEADER
 14  1  9  0  0  0.0000000  0  8G02G04G12G14G29G24G31G25
  23589047.664                                    23589052.012   123961317.804 6
  96593238.36344        41.100          27.300
  23444929.922                                    23444936.848   123203952.228 7
  96003101.52843        42.500          22.300
  20655403.680                    20655409.789    20655409.727   108544851.626 8
  84580476.975 8        51.700          49.300
  21607191.141                                    21607197.832   113546570.880 7
  88477847.08645        47.200          31.400
  22413846.836                    22413853.355    22413853.469   117785527.502 7
  91780980.342 7        44.700          42.000
  23474078.352                    23474088.563                   123357081.227 6
  96122491.905 7        41.600          43.400
  23099087.102                    23099092.156    23099092.504   121386738.724 7
  94586930.580 7        43.000          42.000
  20323203.734                    20323212.773                   106799127.786 8
  83220187.511 8        51.400          50.900
 14  1  9  0  0 30.0000000  0  8G02G04G12G14G29G24G31G25
  23577591.664                                    23577595.895   123901117.558 6
  96546329.09644        40.100          27.100
  23447387.289                                    23447393.863   123216865.076 7
  96013163.48143        42.500          21.800
  20665070.070                    20665075.945    20665075.883   108595649.766 8
  84620059.938 8        51.600          49.600
  21614302.945                                    21614308.758   113583936.588 7
  88506963.21045        47.900          32.400
  22394745.047                    22394752.504    22394752.559   117685150.556 7
  91702764.542 7        44.900          42.200
  23493925.836                    23493936.340                   123461382.165 7
  96203765.328 7        42.200          43.200
  23081525.117                    23081530.348    23081530.695   121294450.336 7
  94515017.554 6        42.400          41.900
  20317795.234                    20317804.391                   106770705.834 8
  83198040.544 8        51.500          50.700
 14  1  9  0  1  0.0000000  0  8G02G04G12G14G29G24G31G25
  23566209.055                                    23566213.109   123841302.613 6
  96499720.10144        41.100          27.000
  23449964.477                                    23449971.285   123230407.741 7
  96023716.25143        42.400          20.900
  20674807.688                    20674813.035    20674812.973   108646819.559 8
  84659932.512 8        51.300          49.300
  21621522.078                                    21621528.242   113621875.540 7
  88536526.02545        47.200          32.100
  22375700.797                    22375707.961    22375708.016   117585071.847 7
  91624781.152 7        44.300          42.200
  23513808.703                    23513818.445                   123565866.436 7
  96285181.604 7        42.300          43.200
  23064000.492                    23064006.191    23064006.188   121202357.911 7
  94443257.227 7        43.100          42.200
  20312469.203                    20312478.125                   106742717.295 8
  83176231.328 8        51.700          51.200
 14  1  9  0  1 30.0000000  0  8G02G04G12G14G29G24G31G25
  23554899.563                                    23554904.203   123781873.566 6
  96453411.76944        40.800          26.300
  23452660.578                                    23452667.445   123244578.170 6
  96034758.12343        41.600          19.900
  20684615.031                    20684620.965    20684620.551   108698357.569 8
  84700091.992 8        51.000          49.700
  21628850.500                                    21628856.664   113660385.043 8
  88566533.41745        48.200          31.900
  22356713.359                    22356720.465    22356720.168   117485292.454 7
  91547030.988 7        45.100          42.400
  23533725.953                    23533735.285                   123670530.942 6
  96366738.310 7        41.700          43.300
  23046512.383                    23046518.727    23046518.605   121110461.946 7
  94371650.002 7        43.300          42.300
  20307225.414                    20307234.160                   106715160.793 8
  83154758.760 8        51.500          50.600
 14  1  9  0  2  0.0000000  0  8G02G04G12G14G29G24G31G25
  23543665.227                                    23543669.926   123722835.787 6
  96407408.32944        38.800          25.900
  23455476.469                                    23455484.332   123259379.084 6
  96046291.32143        41.600          21.100
  20694492.664                    20694498.773    20694498.770   108750266.030 8
  84740540.155 8        50.800          49.900
  21636287.414                                    21636293.578   113699466.291 7
  88596986.32145        47.700          33.000
  22337783.977                    22337791.434    22337791.137   117385817.384 7
  91469517.976 7        45.000          42.800
  23553677.664                    23553687.172                   123775377.218 7
  96448436.661 7        42.500          43.600
  23029064.180                    23029069.820    23029069.875   121018767.255 7
  94300199.599 7        43.300          42.600
  20302064.133                    20302073.172                   106688039.662 8
  83133625.405 8        51.100          50.200
 14  1  9  0  2 30.0000000  0  9G02G04G12G14G29G32G24G31G25
  23532505.727                                    23532509.664   123664189.648 6
  96361710.07044        41.700          25.100
  23458412.648                                    23458420.219   123274808.440 6
  96058314.18143        41.300          19.900
  20704440.531                    20704446.348    20704446.285   108802542.168 8
  84781274.811 8        51.000          49.100
  21643832.703                                    21643838.457   113739116.777 7
  88627882.78845        47.400          31.600
  22318912.977                    22318919.848    22318920.078   117286647.316 7
  91392242.604 7        44.500          42.100
  25145194.195                                                   132138828.672 5
                        31.500
  23573662.773                    23573672.457                   123880401.839 7
  96530273.982 7        42.300          43.200
  23011654.055                    23011658.992    23011659.047   120927273.392 7
  94228905.687 7        44.000          42.200
  20296986.031                    20296994.602                   106661352.569 8
  83112830.270 8        52.300          50.800
 14  1  9  0  3  0.0000000  0  9G02G04G12G14G29G32G24G31G25
  23521420.539                                    23521424.828   123605937.306 6
  96316318.63644        41.300          26.200
  23461468.281                                    23461476.145   123290865.668 6
  96070826.30943        40.600          19.300
  20714457.656                    20714463.531    20714463.762   108855184.025 8
  84822294.440 8        51.200          49.600
  21651485.945                                    21651491.641   113779334.758 7
  88659221.46745        47.500          31.300
  22300099.570                    22300107.379    22300107.023   117187784.236 7
  91315206.445 6        45.300          41.900
  25153104.602                                                   132180396.607 5
                        31.800
  23593683.141                    23593692.180                   123985603.063 7
  96612248.916 7        42.600          43.000
  22994281.563                    22994286.324    22994286.613   120835982.719 7
  94157770.105 7        43.400          42.200
  20291990.297                    20291999.160                   106635099.630 8
  83092373.426 8        52.300          50.800
 14  1  9  0  3 30.0000000  0  9G02G04G12G14G29G32G24G31G25
  23510410.820                                    23510414.699   123548081.259 6
  96271236.03344        41.100          25.700
  23464643.422                                    23464650.465   123307550.507 6
  96083827.51743        40.500          19.900
  20724544.836                    20724550.887    20724550.707   108908190.627 8
  84863598.284 8        51.100          49.100
  21659246.984                                    21659253.148   113820119.133 7
  88691001.47745        47.300          32.300
  22281345.641                    22281352.629    22281352.508   117089231.295 7
  91238411.950 7        44.700          42.600
  25161102.344                                                   132222430.012 5
                        32.300
  23613734.344                    23613744.379                   124090979.343 6
  96694360.261 7        41.800          43.600
  22976948.633                    22976954.391    22976954.387   120744897.381 7
  94086794.521 7        43.600          42.700
  20287077.023                    20287085.477                   106609281.337 8
  83072255.270 8        51.800          50.400
 14  1  9  0  4  0.0000000  0  9G02G04G12G14G29G32G24G31G25
  23499476.570                                    23499480.684   123490622.883 7
  96226463.30044        42.000          25.000
  23467937.852                                    23467944.836   123324861.868 6
  96097316.86243        40.600          19.900
  20734700.563                    20734706.145    20734706.023   108961559.814 8
  84905184.663 8        50.800          49.000
  21667115.406                                    21667121.043   113861467.647 7
  88723221.09645        47.500          32.100
  22262650.273                    22262657.906    22262657.961   116990989.394 7
  91161859.832 7        44.600          43.000
  25169188.453                                                   132264926.231 5
                        33.200
  23633820.273                    23633829.723                   124196528.414 7
  96776606.251 7        42.100          42.700
  22959654.961                    22959659.898    22959660.012   120654018.251 7
  94015979.606 7        43.900          42.600
  20282246.133                    20282255.582                   106583897.163 8
  83052475.410 8        52.100          50.600
 14  1  9  0  4 30.0000000  0  9G02G04G12G14G29G32G24G31G25
  23488619.164                                    23488622.926   123433565.022 6
  96182002.65644        41.500          27.400
  23471351.773                                    23471358.348   123342799.723 6
  96111294.40443        41.600          21.500
  20744925.367                    20744930.949    20744930.828   109015291.040 8
  84947053.155 8        51.300          49.200
  21675091.008                                    21675096.645   113903379.246 8
  88755879.46845        48.000          32.400
  22244015.758                    22244022.453    22244022.625   116893061.521 7
  91085552.413 7        44.900          42.400
  25177363.953                                                   132307883.821 5
                        33.400
  23653938.195                    23653947.762                   124302249.178 6
  96858986.028 7        41.500          43.400
  22942400.820                    22942406.344    22942406.105   120563347.888 7
  93945327.375 7        44.400          42.400
  20277498.711                    20277507.633                   106558947.999 8
  83033034.569 8        51.600          50.700
 14  1  9  0  5  0.0000000  0  9G02G04G12G14G29G32G24G31G25
  23477838.031                                    23477842.613   123376911.844 7
  96137857.34544        42.000          27.000
  23474884.141                                    23474891.301   123361365.830 6
  96125761.52543        41.600          20.900
  20755218.625                    20755225.203    20755224.906   109069385.001 8
  84989204.285 8        51.100          49.100
  21683173.297                                    21683179.520   113945854.900 7
  88788977.36345        47.900          32.100
  22225440.984                    22225448.969    22225448.906   116795452.279 7
  91009493.276 7        46.200          42.300
  25185625.023                                                   132351303.377 5
                        31.500
  23674090.281                    23674098.852                   124408142.344 6
  96941500.142 7        41.600          42.700
  22925187.344                    22925192.867    22925192.688   120472890.556 7
  93874841.154 7        43.900          42.600
  20272834.125                    20272843.398                   106534436.249 8
  83013934.527 8        52.700          50.700
 14  1  9  0  5 30.0000000  0  9G02G04G12G14G29G32G24G31G25
  23467134.359                                    23467138.707   123320662.870 6
  96094026.98244        41.400          26.200
  23478536.508                                    23478543.375   123380556.688 7
  96140715.45043        42.200          21.700
  20765580.883                    20765586.816    20765586.637   109123837.065 8
  85031634.461 8        50.900          48.800
  21691362.813                                    21691369.270   113988889.895 7
  88822511.11645        46.600          32.100
  22206927.297                    22206934.402    22206934.457   116698161.020 7
  90933681.910 7        44.500          42.700
  25193975.016                                                   132395179.901 5
                        31.600
  23694271.523                    23694281.441                   124514203.391 6
  97024145.078 7        40.700          43.400
  22908014.484                    22908019.539    22908019.477   120382645.026 7
  93804519.970 7        43.800          42.600
  20268252.641                    20268262.090                   106510359.217 8
  82995173.224 8        52.100          50.500
 14  1  9  0  6  0.0000000  0  9G02G04G12G14G29G32G24G31G25
  23456508.000                                    23456511.996   123264821.899 6
  96050514.56844        41.600          26.700
  23482307.813                                    23482314.680   123400373.720 7
  96156157.28043        43.300          22.200
  20776011.414                    20776016.586    20776016.758   109178648.317 8
  85074344.527 8        50.600          48.800
  21699658.414                                    21699664.871   114032484.965 7
  88856481.29145        46.700          31.800
  22188474.875                    22188481.688    22188481.566   116601192.064 7
  90858121.683 7        45.600          42.500
  25202412.367                                                   132439513.391 4
                        29.900
  23714486.789                    23714496.648                   124620432.212 6
  97106920.746 7        40.500          42.500
  22890882.047                    22890887.453    22890887.508   120292615.208 7
  93734366.868 7        44.300          42.400
  20263753.977                    20263763.309                   106486719.066 8
  82976752.332 8        51.500          50.500
 14  1  9  0  6 30.0000000  0  9G02G04G12G14G29G32G24G31G25
  23445960.219                                    23445964.215   123209391.361 6
  96007321.97644        40.400          26.600
  23486197.664                                    23486204.707   123420816.445 7
  96172086.67143        42.300          22.500
  20786509.453                    20786515.387    20786515.266   109233817.509 8
  85117333.508 8        51.200          48.200
  21708060.781                                    21708066.945   114076638.416 7
  88890886.56645        47.200          31.400
  22170084.000                    22170090.930    22170090.633   116504547.890 7
  90782814.528 7        46.100          43.200
  25210934.063                                                   132484302.203 5
                        30.100
  23734733.492                    23734743.000                   124726827.890 6
  97189826.434 7        40.600          43.000
  22873791.055                    22873796.813    22873796.750   120202803.078 7
  93664383.396 7        44.300          42.900
  20259338.664                    20259347.645                   106463516.168 8
  82958672.169 8        51.400          50.200
 14  1  9  0  7  0.0000000  0  9G02G04G12G14G29G32G24G31G25
  23435490.188                                    23435494.125   123154371.988 7
  95964449.73744        42.800          26.400
  23490207.148                                    23490214.016   123441882.874 7
  96188502.07943        43.200          22.200
  20797075.453                    20797081.152    20797080.914   109289341.175 8
  85160598.689 8        50.900          48.300
  21716568.609                                    21716574.773   114121347.640 7
  88925724.91645        46.600          31.900
  22151755.609                    22151762.129    22151762.184   116408228.558 7
  90707760.491 7        46.000          43.200
  25219542.586                                                   132529542.982 5
                        30.300
  23755010.422                    23755019.813                   124833387.117 6
  97272859.558 7        40.800          43.000
  22856742.047                    22856748.156    22856747.918   120113208.895 7
  93594569.755 7        44.700          43.000
  20255006.250                    20255015.230                   106440749.308 8
  82940931.758 8        51.300          51.100
 14  1  9  0  7 30.0000000  0  9G02G04G12G14G29G32G24G31G25
  23425099.859                                    23425102.859   123099766.159 7
  95921899.76144        42.000          25.600
  23494333.844                                    23494341.063   123463572.553 7
  96205403.12843        42.400          22.500
  20807708.234                    20807713.875    20807714.105   109345218.627 8
  85204139.548 8        50.700          48.400
  21725182.094                                    21725188.258   114166611.117 7
  88960995.15845        47.500          31.800
  22133488.102                    22133495.617    22133495.496   116312236.525 7
  90632961.524 7        44.900          43.500
  25228238.688                                                   132575234.070 4
                        29.900
  23775318.914                    23775328.832                   124940108.774 6
  97356019.246 7        40.700          43.000
  22839734.758                    22839740.340    22839740.102   120023835.239 7
  93524927.948 7        44.600          43.700
  20250756.758                    20250765.680                   106418419.148 8
  82923531.673 8        51.900          50.400
 14  1  9  0  8  0.0000000  0  9G02G04G12G14G29G32G24G31G25
  23414787.508                                    23414791.152   123045576.311 6
  95879673.94144        40.900          25.200
  23498580.141                                    23498587.301   123485885.468 6
  96222789.79443        41.100          22.800
  20818408.766                    20818414.406    20818414.520   109401449.444 8
  85247955.762 8        50.900          48.200
  21733900.680                                    21733906.668   114212427.386 7
  88996696.14845        46.400          31.200
  22115285.266                    22115291.551    22115291.723   116216575.405 7
  90558420.430 7        45.000          42.600
  25237018.492                                                   132621373.72715
                        30.300
  23795657.750                    23795668.254                   125046991.313 6
  97439304.294 7        40.800          42.200
  22822769.367                    22822775.301    22822775.121   119934684.305 7
  93455459.691 7        44.200          42.300
  20246590.969                    20246600.066                   106396526.124 8
  82906472.188 8        52.100          50.200
 14  1  9  0  8 30.0000000  0  8G02G04G12G14G29G24G31G25
  23404554.703                                    23404558.465   122991804.996 7
  95837774.25044        42.200          26.400
  23502944.617                                    23502951.836   123508821.013 7
  96240661.65643        42.100          22.800
  20829176.219                    20829181.742    20829181.855   109458032.257 8
  85292046.267 8        50.200          48.200
  21742724.078                                    21742729.891   114258795.537 7
  89032827.15045        46.400          31.600
  22097143.914                    22097151.957    22097151.660   116121247.493 7
  90484138.981 7        45.400          43.000
  23816027.414                    23816038.152                   125154033.286 6
  97522713.587 6        40.700          41.700
  22805847.719                    22805853.301    22805853.297   119845758.201 7
  93386166.639 7        44.600          43.300
  20242508.102                    20242517.434                   106375070.813 8
  82889753.760 8        52.600          49.700
 14  1  9  0  9  0.0000000  0  8G02G04G12G14G29G24G31G25
  23394402.023                                    23394406.313   122938453.945 6
  95796202.03244        41.600          26.700
  23507427.180                                    23507434.457   123532378.295 6
  96259017.96543        40.300          21.500
  20840010.070                    20840015.711    20840015.707   109514964.986 8
  85336409.444 8        49.500          48.500
  21751652.406                                    21751658.219   114305713.465 7
  89069386.56445        46.400          31.400
  22079067.898                    22079074.652    22079074.648   116026254.426 7
  90410118.432 7        45.100          44.100
  23836426.789                    23836436.766                   125261233.136 6
  97606245.904 7        41.300          42.200
  22788968.961                    22788974.895    22788974.832   119757058.968 7
  93317050.359 7        45.300          42.700
  20238508.398                    20238517.613                   106354053.010 8
  82873376.199 8        52.100          50.500
 14  1  9  0  9 30.0000000  0  8G02G04G12G14G29G24G31G25
  23384331.188                                    23384333.895   122885526.578 7
  95754959.95544        43.300          27.900
  23512028.656                                    23512035.406   123556557.910 6
  96277859.22143        40.300          22.300
  20850910.633                    20850916.859    20850916.738   109572248.078 8
  85381045.627 8        50.300          48.200
  21760685.023                                    21760691.012   114353180.669 7
  89106373.98345        46.600          32.100
  22061055.211                    22061062.961    22061062.898   115931599.803 7
  90336361.603 7        45.800          43.300
  23856855.391                    23856865.953                   125368590.546 6
  97689900.978 7        40.400          42.600
  22772134.031                    22772139.379    22772139.316   119668589.176 7
  93248112.873 7        45.200          43.900
  20234592.570                    20234601.785                   106333474.313 8
  82857340.795 8        51.700          49.900
 14  1  9  0 10  0.0000000  0  8G02G04G12G14G29G24G31G25
  23374339.766                                    23374342.941   122833021.776 7
  95714047.14944        43.700          26.400
  23516746.375                                    23516754.355   123581356.160 6
  96297182.51543        40.600          21.100
  20861876.844                    20861883.129    20861882.891   109629876.282 8
  85425950.724 8        50.100          48.300
  21769821.344                                    21769826.980   114401192.575 7
  89143785.84645        46.500          31.100
  22043107.117                    22043113.988    22043114.219   115837282.797 7
  90262867.866 7        45.800          44.000
  23877314.367                    23877325.223                   125476100.557 6
  97773674.968 7        41.200          42.400
  22755341.875                    22755347.691    22755347.629   119580348.024 7
  93179353.545 7        44.900          43.100
  20230759.547                    20230768.762                   106313332.019 8
  82841645.508 8        51.800          50.500
 14  1  9  0 10 30.0000000  0  8G02G04G12G14G29G24G31G25
  23364429.359                                    23364433.297   122780942.988 7
  95673466.30144        43.500          26.900
  23521583.344                                    23521590.738   123606773.296 6
  96316988.05143        40.000          20.600
  20872909.148                    20872915.199    20872915.020   109687850.805 8
  85471125.670 8        49.800          48.300
  21779061.656                                    21779067.703   114449748.893 7
  89181621.92245        45.700          31.400
  22025224.102                    22025231.559    22025231.496   115743307.005 7
  90189639.999 7        46.100          44.000
  23897802.836                    23897812.813                   125583763.460 6
  97857568.092 7        40.700          42.300
  22738594.398                    22738600.273    22738600.094   119492338.697 7
  93110774.850 7        45.000          43.400
  20227010.047                    20227019.320                   106293627.487 8
  82826291.380 8        52.000          50.500
 14  1  9  0 11  0.0000000  0  8G02G04G12G14G29G24G31G25
  23354601.102                                    23354603.809   122729293.066 6
  95633219.61144        41.400          27.500
  23526538.578                                    23526545.973   123632809.548 6
  96337276.07043        39.700          20.900
  20884007.180                    20884013.348    20884013.285   109746170.433 8
  85516569.534 8        50.100          48.600
  21788404.930                                    21788411.094   114498848.868 7
  89219881.62545        46.300          30.900
  22007407.398                    22007413.977    22007414.383   115649675.371 7
  90116680.312 7        45.400          43.600
  23918319.047                    23918328.613                   125691577.838 6
  97941579.243 7        40.400          42.000
  22721891.094                    22721897.320    22721897.375   119404564.193 7
  93042379.129 7        45.300          44.000
  20223343.617                    20223352.891                   106274361.751 8
  82811279.157 8        51.200          50.900
 14  1  9  0 11 30.0000000  0  8G02G04G12G14G29G24G31G25
  23344853.586                                    23344857.113   122678073.085 6
  95593307.96844        41.300          27.300
  23531610.750                                    23531617.793   123659463.220 6
  96358045.12443        40.600          21.300
  20895170.188                    20895176.531    20895176.352   109804832.977 8
  85562280.599 8        50.400          48.600
  21797851.367                                    21797857.473   114548489.920 7
  89258562.95245        45.400          30.900
  21989655.305                    21989662.410    21989662.465   115556389.345 7
  90043989.905 7        45.200          43.500
  23938864.406                    23938874.090                   125799541.265 6
  98025706.545 7        40.600          42.100
  22705233.430                    22705239.246    22705239.125   119317025.638 7
  92974167.281 7        44.700          44.100
  20219761.164                    20219769.793                   106255533.942 8
  82796608.076 8        51.400          51.300
 14  1  9  0 12  0.0000000  0  8G02G04G12G14G29G24G31G25
  23335188.609                                    23335192.781   122627285.392 7
  95553733.16144        42.800          27.100
  23536799.891                                    23536807.051   123686733.748 6
  96379294.90443        40.900          21.300
  20906398.398                    20906404.039    20906404.094   109863837.596 8
  85608258.226 8        49.500          48.900
  21807399.891                                    21807406.406   114598670.206 7
  89297664.46145        46.000          30.900
  21971969.938                    21971977.277    21971976.746   115463451.429 7
  89971570.748 7        46.000          43.500
  23959436.602                    23959447.105                   125907652.698 6
  98109949.181 7        40.600          42.100
  22688620.805                    22688626.328    22688626.324   119229725.267 7
  92906141.028 7        44.900          43.600
  20216261.820                    20216270.801                   106237144.900 8
  82782279.000 8        51.900          50.500
 14  1  9  0 12 30.0000000  0  8G02G04G12G14G29G24G31G25
  23325607.188                                    23325610.832   122576931.408 7
  95514496.31044        43.600          27.100
  23542106.203                                    23542113.422   123714619.295 6
  96401023.89843        41.100          20.900
  20917691.094                    20917697.438    20917697.434   109923181.913 8
  85654500.559 8        50.200          48.500
  21817051.203                                    21817057.543   114649387.472 7
  89337184.40645        45.800          30.900
  21954351.000                    21954357.285    21954357.516   115370862.907 7
  89899423.855 7        45.400          44.100
  23980037.602                    23980047.109                   126015909.270 6
  98194304.924 6        40.100          41.200
  22672053.563                    22672058.793    22672058.730   119142663.981 7
  92838301.058 7        45.000          43.800
  20212846.086                    20212854.598                   106219193.719 8
  82768291.104 8        52.100          50.400
 14  1  9  0 13  0.0000000  0  8G02G04G12G14G29G24G31G25
  23316107.875                                    23316111.813   122527014.157 7
  95475599.76744        43.700          26.400
  23547530.789                                    23547536.777   123743120.608 6
  96423232.73043        41.400          21.500
  20929048.750                    20929054.684    20929054.621   109982865.848 8
  85701007.535 8        50.100          48.300
  21826804.648                                    21826810.813   114700641.351 7
  89377122.47545        46.400          30.000
  21936799.289                    21936806.277    21936805.980   115278627.502 7
  89827552.138 7        46.100          44.100
  24000666.430                    24000675.762                   126124310.827 6
  98278773.631 7        40.100          42.000
  22655533.023                    22655538.840    22655538.309   119055845.324 7
  92770650.151 7        44.400          44.500
  20209513.344                    20209522.383                   106201681.943 8
  82754645.613 8        52.600          50.900
 14  1  9  0 13 30.0000000  0  8G02G04G12G14G29G24G31G25
  23306693.430                                    23306696.371   122477536.371 6
  95437045.68344        41.800          27.000
  23553071.234                                    23553077.691   123772237.095 6
  96445920.87443        41.300          21.700
  20940470.781                    20940476.773    20940476.711   110042888.814 8
  85747778.695 8        51.100          48.300
  21836659.383                                    21836665.137   114752429.976 7
  89417477.21745        46.300          31.500
  21919315.039                    21919321.676    21919321.789   115186747.566 7
  89755957.397 7        46.000          43.900
  24021320.859                    24021331.656                   126232856.450 6
  98363354.593 6        40.600          41.700
  22639057.953                    22639063.887    22639063.590   118969271.596 7
  92703190.109 7        44.800          44.000
  20206264.539                    20206273.695                   106184610.078 8
  82741342.866 8        52.000          50.200
 14  1  9  0 14  0.0000000  0  8G02G04G12G14G29G24G31G25
  23297361.125                                    23297364.418   122428497.307 7
  95398833.44344        44.500          28.600
  23558728.234                                    23558734.809   123801965.117 6
  96469085.58343        41.900          21.700
  20951956.516                    20951962.332    20951962.211   110103246.834 8
  85794810.908 8        50.400          48.000
  21846616.094                                    21846622.023   114804749.245 7
  89458245.45445        45.100          30.400
  21901897.719                    21901905.234    21901904.996   115095222.784 7
  89684639.410 7        46.100          43.900
  24042002.898                    24042013.168                   126341541.918 6
  98448044.525 6        40.000          41.300
  22622630.125                    22622636.176    22622636.055   118882942.348 7
  92635920.568 7        45.400          44.500
  20203099.164                    20203108.086                   106167975.654 8
  82728380.923 8        52.600          51.000
 14  1  9  0 14 30.0000000  0  8G02G04G12G14G29G24G31G25
  23288113.531                                    23288117.527   122379902.405 7
  95360967.30844        44.200          28.300
  23564502.195                                    23564507.949   123832307.277 6
  96492728.82643        41.300          20.900
  20963506.430                    20963512.773    20963512.418   110163941.664 8
  85842105.567 7        50.300          47.800
  21856672.852                                    21856679.777   114857601.117 7
  89499428.71745        46.000          30.900
  21884550.180                    21884557.285    21884557.340   115004059.127 7
  89613602.830 7        45.400          43.700
  24062711.992                    24062722.672                   126450368.843 6
  98532844.686 6        40.700          41.700
  22606249.703                    22606255.637    22606255.398   118796862.738 7
  92568845.541 7        44.600          44.600
  20200017.852                    20200027.125                   106151782.579 8
  82715762.942 8        52.600          50.500
 14  1  9  0 15  0.0000000  0  8G02G04G12G14G29G24G31G25
  23278951.039                                    23278954.391   122331750.598 7
  95323446.42744        42.600          27.700
  23570392.203                                    23570398.719   123863259.724 6
  96516847.58343        41.000          21.800
  20975119.320                    20975125.371    20975125.426   110224969.381 8
  85889659.610 7        50.500          47.700
  21866831.016                                    21866837.355   114910980.398 7
  89541022.93545        45.800          30.900
  21867271.484                    21867277.770    21867277.531   114913255.632 7
  89542846.899 7        46.000          44.700
  24083447.367                    24083457.344                   126559332.867 6
  98617751.680 6        40.600          41.000
  22589916.727                    22589922.191    22589922.363   118711032.230 7
  92501964.646 7        44.700          44.600
  20197019.625                    20197028.488                   106136027.855 8
  82703486.556 8        51.600          50.600
 14  1  9  0 15 30.0000000  0  8G02G04G12G14G29G24G31G25
  23269872.633                                    23269876.219   122284044.623 7
  95286272.97244        43.900          27.000
  23576397.703                                    23576405.859   123894822.027 6
  96541441.57543        39.300          21.300
  20986795.945                    20986801.938    20986801.758   110286329.506 8
  85937472.694 8        50.600          48.200
  21877088.852                                    21877095.426   114964886.260 7
  89583027.47345        46.000          30.900
  21850060.711                    21850067.992    21850067.871   114822815.039 7
  89472373.755 7        46.000          44.100
  24104208.625                    24104218.309                   126668433.131 6
  98702764.825 6        39.700          41.500
  22573631.461                    22573637.102    22573637.156   118625453.608 7
  92435280.022 7        44.200          44.300
  20194105.211                    20194114.074                   106120712.514 8
  82691552.621 8        51.800          50.100
 14  1  9  0 16  0.0000000  0  8G02G04G12G14G29G24G31G25
  23260879.820                                    23260883.582   122236788.481 7
  95249450.02044        42.700          28.400
  23582519.938                                    23582527.625   123926995.325 6
  96566511.63643        39.400          20.400
  20998535.930                    20998541.395    20998541.391   110348022.361 8
  85985545.051 7        50.100          47.600
  21887447.016                                    21887453.121   115019318.707 7
  89625442.35645        45.800          31.000
  21832920.203                    21832926.898    21832926.895   114732741.438 7
  89402186.564 7        46.400          44.500
  24124995.633                    24125005.727                   126777669.761 6
  98787884.231 6        39.700          41.300
  22557394.805                    22557400.914    22557400.969   118540130.175 7
  92368794.245 7        44.900          44.700
  20191274.555                    20191283.770                   106105838.320 8
  82679962.360 8        51.800          50.500
 14  1  9  0 16 30.0000000  0  8G02G04G12G14G29G24G31G25
  23251973.203                                    23251976.496   122189980.238 7
  95212976.07644        43.000          28.100
  23588757.734                                    23588765.656   123959774.704 6
  96592053.99643        38.400          19.000
  21010337.797                    21010343.320    21010343.316   110410043.192 8
  86033872.989 8        50.200          48.400
  21897904.398                                    21897910.563   115074272.107 7
  89668263.16744        46.200          29.800
  21815849.477                    21815856.406    21815856.402   114643033.560 7
  89332284.370 7        46.800          44.400
  24145807.586                    24145818.207                   126887037.516 6
  98873105.812 6        39.600          40.000
  22541206.883                    22541212.758    22541212.754   118455060.910 7
  92302506.504 7        44.600          44.200
  20188527.688                    20188536.902                   106091401.986 8
  82668713.254 8        51.900          50.800
 14  1  9  0 17  0.0000000  0  8G02G04G12G14G29G24G31G25
  23243150.977                                    23243154.387   122143622.924 7
  95176853.51744        42.500          28.700
  23595110.461                                    23595119.262   123993160.170 6
  96618068.63143        37.900          20.900
  21022202.398                    21022208.156    21022208.035   110472391.606 8
  86082456.174 7        49.800          47.600
  21908460.367                                    21908467.000   115129745.374 7
  89711489.06445        45.900          30.400
  21798848.516                    21798855.094    21798855.090   114553694.410 7
  89262669.474 7        47.000          44.500
  24166644.602                    24166655.047                   126996536.062 6
  98958429.316 6        39.800          40.400
  22525067.922                    22525073.563    22525073.383   118370248.716 7
  92236419.080 7        45.400          44.300
  20185863.945                    20185873.219                   106077404.537 8
  82657806.162 8        51.600          51.000
 14  1  9  0 17 30.0000000  0  8G02G04G12G14G29G24G31G25
  23234416.563                                    23234419.973   122097720.943 7
  95141085.77544        44.400          29.400
  23601579.883                                    23601587.570   124027153.190 6
  96644556.67943        38.600          19.900
  21034129.148                    21034134.965    21034134.961   110535068.411 8
  86131295.231 7        49.300          47.800
  21919115.750                                    21919122.324   115185739.558 7
  89755120.85945        45.500          31.400
  21781918.641                    21781925.395    21781925.273   114464728.567 7
  89193345.477 7        47.200          44.200
  24187506.414                    24187516.977                   127106166.055 6
  99043855.248 6        37.800          41.100
  22508977.883                    22508984.051    22508983.813   118285698.235 7
  92170535.583 7        44.100          44.100
  20183284.438                    20183293.711                   106063848.679 8
  82647243.168 8        51.500          50.700
 14  1  9  0 18  0.0000000  0  8G02G04G12G14G29G24G31G25
  23225768.266                                    23225771.852   122052274.183 6
  95105672.73044        41.300          28.500
  23608163.422                                    23608170.758   124061750.780 6
  96671515.83543        39.600          21.500
  21046118.148                    21046124.199    21046124.137   110598070.604 8
  86180387.839 7        50.000          47.400
  21929869.727                                    21929875.305   115242250.459 7
  89799155.29045        45.700          30.300
  21765060.523                    21765067.219    21765067.332   114376136.384 7
  89124312.646 7        47.300          44.100
  24208392.789                    24208403.410                   127215923.933 6
  99129380.828 6        39.100          40.200
  22492938.625                    22492944.676    22492944.613   118201409.074 7
  92104855.708 7        45.300          44.300
  20180788.539                    20180797.754                   106050732.555 8
  82637022.805 8        50.700          50.900
 14  1  9  0 18 30.0000000  0  8G02G04G12G14G29G24G31G25
  23217206.609                                    23217210.547   122007285.215 7
  95070616.42244        42.300          29.900
  23614862.023                                    23614868.949   124096952.078 6
  96698945.37143        39.400          20.600
  21058168.711                    21058174.586    21058174.348   110661397.302 8
  86229733.296 7        50.000          47.500
  21940721.383                                    21940727.723   115299276.785 7
  89843591.35945        45.500          30.900
  21748273.570                    21748280.148    21748279.852   114287920.759 7
  89055573.229 7        46.900          44.000
  24229303.953                    24229314.047                   127325808.561 6
  99215005.180 6        39.400          40.200
  22476948.852                    22476954.785    22476954.898   118117384.124 7
  92039381.716 7        44.300          43.900
  20178375.969                    20178385.125                   106038056.913 8
  82627145.685 8        51.400          51.300
 14  1  9  0 19  0.0000000  0  8G02G04G12G14G29G24G31G25
  23208733.148                                    23208736.500   121962755.043 7
  95035917.61344        42.900          29.000
  23621675.766                                    23621682.750   124132755.611 6
  96726844.20643        40.500          20.900
  21070281.047                    21070286.805    21070286.566   110725047.146 8
  86279330.559 7        49.500          47.700
  21951670.922                                    21951676.676   115356815.980 7
  89888427.06745        45.800          30.000
  21731558.883                    21731565.285    21731565.340   114200082.974 7
  88987128.231 7        46.400          45.100
  24250236.453                    24250247.543                   127435818.005 6
  99300726.785 6        37.700          40.200
  22461010.734                    22461016.434    22461016.078   118033624.759 7
  91974114.684 7        43.900          44.200
  20176047.859                    20176056.957                   106025821.062 8
  82617611.244 8        51.600          51.200
 14  1  9  0 19 30.0000000  0  8G02G04G12G14G29G24G31G25
  23200347.211                                    23200350.680   121918686.273 7
  95001578.33744        43.900          29.100
  23628603.563                                    23628610.313   124169160.659 6
  96755211.75943        40.500          21.500
  21082454.297                    21082460.406    21082460.285   110789018.834 8
  86329178.620 7        49.700          47.400
  21962717.594                                    21962723.992   115414866.887 7
  89933661.53144        45.700          29.600
  21714915.352                    21714922.691    21714922.570   114112625.737 7
  88918979.755 7        47.500          44.600
  24271194.445                    24271204.188                   127545951.004 6
  99386544.677 6        38.000          39.800
  22445122.000                    22445127.172    22445127.461   117950133.745 7
  91909056.753 7        45.300          44.300
  20173803.188                    20173812.461                   106014025.931 8
  82608420.235 8        51.100          51.400
 14  1  9  0 20  0.0000000  0  8G02G04G12G14G29G24G31G25
  23192049.555                                    23192052.965   121875079.945 7
  94967599.40344        43.000          29.500
  23635645.086                                    23635651.953   124206165.441 6
  96784046.63143        39.600          20.900
  21094688.844                    21094694.426    21094694.715   110853310.664 8
  86379276.138 7        49.100          47.700
  21973861.180                                    21973867.109   115473426.305 7
  89979292.22745        46.500          30.400
  21698345.766                    21698352.871    21698352.926   114025550.430 7
  88851128.888 7        45.900          44.700
  24292175.531                    24292185.801                   127656205.431 6
  99472457.180 6        38.300          40.400
  22429285.789                    22429291.313    22429291.543   117866912.560 7
  91844209.100 7        43.600          43.900
  20171642.844                    20171651.707                   106002670.853 8
  82599572.112 8        51.600          51.400
 14  1  9  0 20 30.0000000  0  8G02G04G12G14G29G24G31G25
  23183839.414                                    23183843.293   121831937.480 7
  94933981.93544        43.900          29.700
  23642801.047                                    23642807.094   124243768.090 6
  96813347.37043        40.400          20.900
  21106983.813                    21106989.922    21106989.801   110917920.815 8
  86429621.708 7        49.400          47.400
  21985101.102                                    21985107.031   115532491.985 7
  90025317.40745        45.900          30.700
  21681849.211                    21681856.492    21681855.961   113938858.300 7
  88783576.595 7        47.700          44.200
  24313179.266                    24313188.891                   127766579.164 6
  99558462.656 6        37.100          39.000
  22413500.766                    22413506.523    22413506.695   117783962.568 7
  91779572.752 7        45.300          43.900
  20169565.883                    20169574.277                   105991755.241 8
  82591066.412 8        51.900          51.700
 14  1  9  0 21  0.0000000  0  8G02G04G12G14G29G24G31G25
  23175717.945                                    23175721.941   121789260.828 7
  94900727.41444        42.600          29.100
  23650069.539                                    23650076.113   124281967.551 6
  96843113.16543        40.200          20.400
  21119338.953                    21119344.828    21119344.941   110982848.219 8
  86480214.486 8        50.000          48.100
  21996436.477                                    21996443.051   115592062.030 7
  90071735.59744        45.600          29.500
  21665425.523                    21665432.395    21665432.332   113852552.337 8
  88716325.217 7        48.300          45.400
  24334205.133                    24334215.051                   127877070.652 6
  99644559.877 6        37.600          39.400
  22397768.539                    22397773.945    22397773.883   117701286.033 7
  91715149.499 7        45.000          43.900
  20167571.930                    20167580.969                   105981279.511 8
  82582903.495 8        51.400          51.000
 14  1  9  0 21 30.0000000  0  8G02G04G12G14G29G24G31G25
  23167685.914                                    23167690.203   121747052.906 7
  94867838.15344        42.300          29.700
  23657452.711                                    23657459.520   124320763.974 6
  96873344.15043        41.000          19.000
  21131754.508                    21131760.090    21131760.203   111048092.317 8
  86531054.038 8        49.900          48.100
  22007868.133                                    22007874.707   115652136.009 7
  90118546.46144        45.800          29.700
  21649075.828                    21649082.816    21649082.754   113766635.689 8
  88649377.207 7        48.000          44.600
  24355254.148                    24355263.188                   127987679.005 6
  99730748.173 6        38.100          39.500
  22382088.813                    22382093.164    22382093.219   117618885.901 7
  91650941.616 7        45.500          44.300
  20165662.734                    20165671.070                   105971244.809 8
  82575084.224 8        51.500          51.400
 14  1  9  0 22  0.0000000  0  8G02G04G12G14G29G24G31G25
  23159743.711                                    23159748.059   121705315.485 7
  94835315.50144        43.400          29.700
  23664948.438                                    23664955.012   124360155.747 6
  96904039.01443        40.400          19.300
  21144230.156                    21144236.031    21144235.910   111113652.048 8
  86582139.533 8        50.000          48.000
  22019395.680                                    22019401.785   115712710.900 7
  90165747.65145        46.200          30.400
  21632801.039                    21632808.145    21632807.848   113681109.620 8
  88582733.539 7        48.300          44.400
  24376323.117                    24376333.504                   128098403.240 6
  99817026.762 6        37.100          38.800
  22366461.180                    22366466.234    22366466.289   117536764.688 7
  91586951.077 7        44.500          44.500
  20163836.695                    20163845.793                   105961651.115 8
  82567608.596 8        51.500          51.000
 14  1  9  0 22 30.0000000  0  8G02G04G12G14G29G24G31G25
  23151891.070                                    23151894.773   121664048.849 7
  94803159.70445        44.000          30.900
  23672557.422                                    23672563.879   124400140.372 6
  96935195.86543        40.400          19.300
  21156765.289                    21156770.988    21156770.867   111179524.207 8
  86633468.482 7        50.300          47.600
  22031017.070                                    22031023.703   115773783.807 7
  90213336.90644        45.800          29.100
  21616600.453                    21616607.383    21616607.555   113595975.694 7
  88516395.432 7        47.900          44.600
  24397415.180                    24397424.922                   128209240.486 6
  99903393.408 6        37.300          38.400
  22350886.750                    22350892.742    22350892.504   117454922.650 7
  91523178.069 7        44.800          44.300
  20162094.758                    20162103.855                   105952497.073 8
  82560475.507 8        52.200          51.600
 14  1  9  0 23  0.0000000  0  8G02G04G12G14G29G24G31G25
  23144128.047                                    23144132.102   121623255.533 7
  94771372.74744        43.400          28.500
  23680278.703                                    23680285.805   124440717.153 6
  96966814.13143        40.200          19.600
  21169359.750                    21169365.742    21169365.621   111245709.133 8
  86685041.143 7        50.300          47.700
  22042733.727                                    22042739.539   115835353.249 7
  90261313.06844        45.300          29.900
  21600474.938                    21600482.219    21600482.273   113511236.387 7
  88450364.827 7        47.800          44.800
  24418527.836                    24418538.164                   128320189.500 6
  99989847.160 6        36.900          38.800
  22335366.242                    22335371.707    22335371.938   117373362.541 7
  91459624.735 7        44.700          44.100
  20160436.930                    20160446.145                   105943783.716 8
  82553685.844 8        52.100          51.600
 14  1  9  0 23 30.0000000  0  8G02G04G12G14G29G24G31G25
  23136455.703                                    23136459.582   121582935.729 7
  94739954.74744        44.400          29.900
  23688111.852                                    23688119.480   124481883.175 6
  96998891.53242        39.400          17.800
  21182013.375                    21182019.309    21182018.895   111312203.627 8
  86736855.019 7        50.600          47.300
  22054543.508                                    22054549.789   115897415.720 7
  90309673.40744        45.600          29.800
  21584424.977                    21584431.906    21584431.844   113426892.166 7
  88384642.092 7        47.500          45.000
  24439661.180                    24439671.391                   128431247.248 5
 100076385.631 6        35.900          38.200
  22319900.172                    22319905.344    22319905.457   117292085.647 7
  91396292.081 7        44.900          43.900
  20158862.102                    20158871.551                   105935509.473 8
  82547238.365 8        51.900          51.500
 14  1  9  0 24  0.0000000  0  8G02G04G12G14G29G24G31G25
  23128873.781                                    23128877.660   121543093.305 7
  94708908.73744        44.300          28.300
  23696057.930                                    23696065.676   124523639.152 6
  97031428.68443        39.100          19.600
  21194725.789                    21194731.781    21194731.719   111379007.924 8
  86788910.301 7        50.000          47.900
  22066447.813                                    22066453.801   115959971.017 7
  90358417.78444        46.100          28.800
  21568450.438                    21568457.484    21568457.715   113342946.970 8
  88319230.273 7        48.000          44.900
  24460816.781                    24460825.996                   128542413.880 5
 100163008.942 6        35.800          37.900
  22304488.320                    22304493.609    22304493.840   117211095.166 7
  91333182.630 7        44.600          44.300
  20157371.727                    20157380.883                   105927676.366 8
  82541134.679 8        51.300          51.500
 14  1  9  0 24 30.0000000  0  8G02G04G12G14G29G24G31G25
  23121383.039                                    23121386.977   121503729.437 7
  94678235.62845        43.400          30.400
  23704115.742                                    23704123.254   124565983.352 6
  97064424.13043        38.300          18.600
  21207497.133                    21207503.652    21207503.531   111446120.927 8
  86841206.136 7        50.800          47.700
  22078444.656                                    22078451.113   116023016.645 7
  90407544.21344        46.200          29.500
  21552552.742                    21552559.730    21552559.668   113259402.823 8
  88254130.964 7        49.000          45.000
  24481990.438                    24482000.004                   128653687.889 6
 100249715.930 6        36.600          38.100
  22289131.477                    22289136.648    22289136.586   117130393.412 7
  91270298.156 7        45.400          44.300
  20155965.289                    20155974.211                   105920284.143 8
  82535374.489 8        51.700          51.700
 14  1  9  0 25  0.0000000  0  8G02G04G12G14G29G24G31G25
  23113984.133                                    23113987.367   121464844.461 7
  94647935.67745        43.600          30.200
  23712284.391                                    23712292.371   124608912.894 6
  97097875.69943        39.300          18.600
  21220326.563                    21220332.496    21220332.199   111513540.189 8
  86893740.616 7        50.000          47.600
  22090535.141                                    22090541.129   116086549.254 7
  90457050.11244        45.700          28.600
  21536731.477                    21536738.406    21536738.285   113176260.290 7
  88189344.598 7        46.300          44.900
  24503185.195                    24503195.172                   128765065.870 5
 100336503.927 6        35.900          37.800
  22273829.711                    22273834.766    22273834.762   117049980.641 7
  91207638.863 7        43.200          44.000
  20154642.125                    20154651.457                   105913331.315 8
  82529956.673 8        51.400          50.800
 14  1  9  0 25 30.0000000  0  8G02G04G12G14G29G24G31G25
  23106675.492                                    23106679.898   121426442.863 7
  94618012.38545        43.200          30.400
  23720566.422                                    23720573.289   124652429.329 6
  97131784.62843        39.600          20.600
  21233214.336                    21233220.563    21233220.559   111581266.665 8
  86946514.486 7        50.100          47.600
  22102717.680                                    22102724.020   116150569.362 7
  90506935.87144        45.700          29.600
  21520987.234                    21520994.340    21520994.219   113093524.353 7
  88124875.065 7        46.200          45.800
  24524400.383                    24524409.539                   128876549.185 5
 100423374.004 6        35.800          37.200
  22258583.250                    22258588.598    22258588.652   116969862.127 7
  91145208.854 7        44.500          44.300
  20153403.008                    20153412.105                   105906820.965 8
  82524883.664 8        51.000          51.000
 14  1  9  0 26  0.0000000  0  8G02G04G12G14G29G24G31G25
  23099459.945                                    23099463.766   121388522.090 7
  94588463.74845        43.500          30.000
  23728958.258                                    23728964.949   124696526.983 6
  97166146.42843        40.500          20.400
  21246159.602                    21246165.184    21246165.121   111649294.708 8
  86999523.346 7        49.900          47.300
  22114992.008                                    22114997.352   116215070.496 7
  90557196.46444        46.400          28.100
  21505319.422                    21505326.469    21505326.406   113011192.551 7
  88060720.446 7        47.200          45.900
  24545632.992                    24545643.555                   128988131.844 5
 100510321.497 6        35.300          37.400
  22243392.422                    22243398.063    22243398.117   116890035.778 7
  91083006.498 7        44.300          44.400
  20152247.563                    20152256.426                   105900748.737 8
  82520152.077 8        51.600          50.900
 14  1  9  0 26 30.0000000  0  8G02G04G12G14G29G24G31G25
  23092335.625                                    23092339.680   121351086.134 7
  94559292.89545        42.500          30.100
  23737460.242                                    23737466.758   124741206.429 6
  97200961.61143        40.600          20.600
  21259162.797                    21259168.555    21259168.082   111717625.683 8
  87052768.254 7        50.300          47.500
  22127357.031                                    22127363.488   116280052.832 7
  90607832.03044        45.100          28.800
  21489729.766                    21489737.164    21489737.512   112929268.994 7
  87996883.927 7        45.700          46.000
  24566885.633                    24566895.492                   129099814.795 5
 100597347.133 6        34.100          36.600
  22228258.680                    22228263.910    22228263.789   116810505.774 7
  91021035.076 7        43.700          43.900
  20151176.039                    20151184.902                   105895116.825 8
  82515763.590 8        51.200          50.800
 14  1  9  0 27  0.0000000  0  8G02G04G12G14G29G24G31G25
  23085304.992                                    23085309.164   121314136.720 7
  94530501.18545        44.100          30.100
  23746072.750                                    23746078.973   124786466.334 6
  97236229.08843        41.200          19.600
  21272223.273                    21272229.734    21272229.496   111786258.932 8
  87106248.696 7        49.900          47.000
  22139814.508                                    22139820.613   116345514.581 7
  90658841.16644        45.000          28.100
  21474218.805                    21474225.441    21474225.438   112847756.117 7
  87933367.424 7        47.700          45.500
  24588156.656                    24588167.277                   129211596.331 5
 100684449.590 6        35.000          36.600
  22213181.359                    22213186.590    22213186.938   116731274.455 7
  90959296.393 7        45.600          44.000
  20150187.852                    20150197.066                   105889925.736 8
  82511718.623 8        51.900          51.200
 14  1  9  0 27 30.0000000  0  8G02G04G12G14G29G24G31G25
  23078365.914                                    23078369.734   121277674.305 7
  94502088.93445        43.400          30.900
  23754795.813                                    23754802.270   124832304.100 6
  97271946.81743        41.100          20.100
  21285340.547                    21285346.539    21285346.477   111855191.342 8
  87159962.261 7        50.000          47.500
  22152361.992                                    22152368.156   116411451.894 7
  90710220.86944        44.600          28.300
  21458785.430                    21458792.945    21458792.824   112766654.719 8
  87870171.552 7        48.400          45.700
  24609445.766                    24609456.855                   129323474.187 5
 100771627.113 6        34.700          36.900
  22198160.914                    22198166.262    22198166.199   116652342.549 7
  90897791.018 7        46.000          43.800
  20149283.875                    20149292.914                   105885174.007 8
  82508015.976 8        52.000          51.400
 14  1  9  0 28  0.0000000  0  8G02G04G12G14G29G24G31G25
  23071521.547                                    23071524.723   121241701.893 7
  94474058.50945        44.100          30.600
  23763627.531                                    23763634.750   124878719.853 6
  97308114.92743        40.900          19.600
  21298514.805                    21298520.445    21298520.148   111924423.373 8
  87213909.282 7        50.400          47.200
  22164999.711                                    22165005.641   116477864.324 7
  90761970.79144        44.800          28.900
  21443431.078                    21443438.594    21443438.473   112685968.278 8
  87807299.035 7        48.300          45.800
  24630753.914                    24630764.594                   129435447.804 5
 100858879.239 6        35.200          37.000
  22183198.438                    22183203.785    22183203.723   116573713.748 7
  90836521.839 7        46.700          44.100
  20148463.500                    20148472.539                   105880863.196 8
  82504656.880 8        51.800          50.800
 14  1  9  0 28 30.0000000  0  8G02G04G12G14G29G24G31G25
  23064768.930                                    23064772.691   121206219.672 7
  94446410.03845        44.300          30.900
  23772570.234                                    23772577.102   124925710.365 6
  97344730.88343        41.300          19.000
  21311745.867                    21311752.211    21311752.031   111993951.827 8
  87268087.280 7        50.200          47.800
  22177726.758                                    22177733.449   116544747.727 7
  90814087.70144        44.900          27.300
  21428156.734                    21428163.137    21428163.191   112605697.204 8
  87744750.181 7        48.600          45.900
  24652080.453                    24652090.254                   129547514.001 5
 100946203.513 6        34.700          36.400
  22168293.328                    22168299.203    22168299.141   116495388.613 7
  90775489.270 7        46.000          43.800
  20147727.016                    20147736.465                   105876991.616 8
  82501639.980 8        51.800          51.200
 14  1  9  0 29  0.0000000  0  8G02G04G12G14G29G24G31G25
  23058110.086                                    23058114.844   121171230.219 7
  94419145.53845        43.700          30.200
  23781621.180                                    23781628.223   124973275.004 6
  97381794.22943        40.300          19.000
  21325033.156                    21325038.680    21325038.676   112063777.039 8
  87322496.531 7        49.700          47.500
  22190543.734                                    22190550.484   116612101.460 7
  90866571.11444        43.100          28.500
  21412960.797                    21412968.254    21412968.016   112525844.903 8
  87682527.643 7        48.300          46.100
  24673423.094                    24673432.836                   129659672.576 5
 101033599.776 6        35.400          36.200
  22153447.422                    22153452.887    22153452.590   116417370.410 7
  90714695.865 7        46.400          43.900
  20147073.891                    20147082.988                   105873560.783 8
  82498966.581 8        51.800          51.100
 14  1  9  0 29 30.0000000  0  8G02G04G12G14G29G24G31G25
  23051546.297                                    23051550.527   121136735.232 7
  94392266.34345        44.700          30.300
  23790781.617                                    23790788.309   125021412.156 6
  97419303.66743        40.400          18.300
  21338376.500                    21338382.727    21338382.430   112133897.395 8
  87377135.760 7        50.000          47.800
  22203450.188                                    22203456.410   116679922.997 7
  90919419.01844        44.600          28.500
  21397845.820                    21397852.867    21397852.980   112446412.808 7
  87620632.544 7        46.400          46.000
  24694782.852                    24694793.941                   129771921.743 5
 101121066.621 5        35.000          35.900
  22138659.250                    22138665.359    22138665.121   116339661.300 7
  90654143.315 7        44.500          43.900
  20146505.156                    20146514.020                   105870570.440 8
  82496636.438 8        52.000          50.900
 14  1  9  0 30  0.0000000  0  8G02G04G12G14G29G24G31G25
  23045075.461                                    23045079.809   121102732.794 7
  94365770.97345        45.100          30.000
  23800049.539                                    23800056.348   125070117.709 6
  97457256.05142        39.600          17.400
  21351775.695                    21351781.043    21351781.039   112204308.527 8
  87432001.567 7        50.000          47.200
  22216444.188                                    22216450.410   116748207.078 7
  90972627.38044        44.600          26.800
  21382809.648                    21382817.047    21382816.750   112367399.863 8
  87559064.050 7        48.600          46.400
  24716160.773                    24716170.223                   129884257.206 5
 101208600.713 5        34.900          35.900
  22123930.953                    22123936.359    22123936.238   116262260.250 7
  90593830.820 7        46.300          43.900
  20146019.367                    20146028.172                   105868017.437 8
  82494647.088 8        52.200          51.100
 14  1  9  0 30 30.0000000  0  8G02G04G12G14G29G24G31G25
  23038699.727                                    23038703.723   121069226.691 7
  94339662.33844        43.700          29.700
  23809426.219                                    23809432.676   125119391.610 6
  97495651.25942        40.000          16.900
  21365229.977                    21365235.734    21365235.789   112275011.615 8
  87487094.877 7        50.000          46.900
  22229526.078                                    22229532.359   116816953.320 7
  91026195.85744        44.200          27.300
  21367854.578                    21367862.270    21367862.031   112288810.152 8
  87497825.337 7        48.700          45.300
  24737553.625                    24737563.367                   129996678.818 5
 101296201.933 5        35.000          34.800
  22109260.914                    22109266.848    22109266.668   116185171.288 7
  90533761.511 7        46.100          43.800
  20145616.789                    20145626.121                   105865903.729 8
  82493000.049 8        51.900          50.700
 14  1  9  0 31  0.0000000  0  8G02G04G12G14G29G24G31G25
  23032418.445                                    23032422.090   121036218.484 7
  94313941.68244        44.000          29.200
  23818910.141                                    23818916.656   125169232.060 6
  97534487.97942        39.400          16.900
  21378739.516                    21378745.508    21378745.387   112346005.249 8
  87542414.588 7        49.300          46.300
  22242695.375                                    22242702.008   116886159.326 7
  91080122.60944        42.000          27.700
  21352980.094                    21352987.727    21352987.840   112210645.450 8
  87436917.790 7        48.800          45.500
  24758962.859                    24758973.012                   130109185.314 5
 101383869.306 5        35.400          35.600
  22094651.492                    22094656.664    22094656.895   116108396.635 7
  90473937.108 7        46.900          43.600
  20145298.555                    20145307.359                   105864229.380 8
  82491695.366 8        51.300          50.300
 14  1  9  0 31 30.0000000  0  8G02G04G12G14G29G24G31G25
  23026233.023                                    23026236.316   121003710.960 7
  94288611.15144        43.900          29.500
  23828501.930                                    23828509.324   125219639.168 6
  97573766.19142        38.100          16.900
  21392304.453                    21392310.797    21392310.441   112417289.416 8
  87597960.686 7        48.300          46.700
  22255952.336                                    22255958.852   116955824.269 7
  91134406.97444        42.100          26.500
  21338187.625                    21338195.023    21338194.844   112132909.183 8
  87376344.092 7        48.800          45.400
  24780388.484                    24780397.641                   130221776.331 5
 101471602.544 5        34.900          35.300
  22080101.633                    22080108.094    22080107.621   116031939.799 7
  90414360.362 7        46.700          44.000
  20145063.758                    20145072.914                   105862995.803 8
  82490734.106 8        52.000          50.300
 14  1  9  0 32  0.0000000  0  8G02G04G12G14G29G24G31G25
  23020140.953                                    23020145.066   120971703.012 7
  94263669.89944        43.500          29.800
  23838200.555                                    23838208.711   125270608.475 6
  97613482.50142        38.500          14.800
  21405923.805                    21405929.152    21405929.266   112488860.223 8
  87653730.143 7        48.800          47.200
  22269295.656                                    22269302.055   117025943.272 7
  91189045.14244        43.900          26.700
  21323476.859                    21323483.320    21323483.199   112055600.844 8
  87316103.836 7        48.700          46.200
  24801828.438                    24801838.004                   130334447.885 5
 101559398.539 5        35.200          35.500
  22065613.398                    22065618.629    22065618.801   115955800.376 7
  90355030.952 7        46.400          44.400
  20144912.461                    20144921.031                   105862200.374 8
  82490114.280 8        51.200          50.400
 14  1  9  0 32 30.0000000  0  8G02G04G12G14G29G24G31G25
  23014146.297                                    23014150.410   120940198.579 7
  94239121.00644        43.200          29.600
  23848007.750                                    23848014.969   125322140.634 6
  97653637.39042        38.800          16.300
  21419597.602                    21419603.770    21419603.766   112560718.483 8
  87709723.592 7        49.600          47.100
  22282724.813                                    22282731.328   117096516.393 7
  91244037.18044        43.800          27.200
  21308847.703                    21308853.988    21308853.809   111978724.520 8
  87256200.237 7        48.400          45.400
  24823284.344                    24823294.965                   130447200.422 5
 101647257.629 5        34.800          34.500
  22051185.672                    22051191.078    22051191.191   115879982.699 7
  90295952.243 7        47.000          43.900
  20144844.758                    20144853.973                   105861845.247 8
  82489837.557 8        51.500          51.300
 14  1  9  0 33  0.0000000  0  8G02G04G12G14G29G24G31G25
  23008247.016                                    23008251.012   120909196.041 7
  94214963.19544        44.300          29.700
  23857921.047                                    23857927.563   125374230.820 6
  97694227.10643        40.100          18.600
  21433326.313                    21433331.836    21433331.715   112632860.725 8
  87765938.320 7        49.800          47.000
  22296240.555                                    22296246.309   117167538.060 7
  91299378.69044        43.600          26.900
  21294300.484                    21294307.590    21294307.410   111902279.173 8
  87196632.457 7        48.100          46.300
  24844755.492                    24844765.879                   130560029.462 5
 101735176.347 5        34.700          35.200
  22036819.008                    22036824.473    22036824.527   115804486.105 7
  90237123.740 7        46.500          44.100
  20144860.242                    20144869.633                   105861927.493 8
  82489901.642 8        51.500          51.300
 14  1  9  0 33 30.0000000  0  8G02G04G12G14G29G24G31G25
  23002443.234                                    23002446.996   120878699.127 7
  94191199.38944        44.800          29.900
  23867939.797                                    23867946.371   125426880.143 6
  97735252.54742        40.600          17.800
  21447108.852                    21447114.492    21447114.488   112705288.001 8
  87822375.160 7        48.500          46.500
  22309840.828                                    22309846.523   117239008.716 7
  91355070.09444        43.500          25.900
  21279836.188                    21279843.000    21279843.113   111826269.017 7
  87137403.778 7        47.800          45.500
  24866240.680                    24866250.598                   130672935.978 5
 101823155.446 5        35.700          35.800
  22022514.477                    22022519.648    22022519.820   115729315.059 7
  90178548.903 7        45.400          44.500
  20144959.703                    20144968.742                   105862449.634 8
  82490308.519 8        51.900          50.900
 14  1  9  0 34  0.0000000  0  8G02G04G12G14G29G24G31G25
  22996736.305                                    22996740.125   120848708.942 7
  94167830.43845        45.000          30.600
  23878064.461                                    23878071.563   125480086.064 6
  97776711.63443        40.300          18.600
  21460945.195                    21460950.895    21460950.832   112777998.300 8
  87879032.536 7        49.200          46.300
  22323525.844                                    22323532.066   117310925.009 7
  91411108.71944        43.200          26.200
  21265454.852                    21265461.898    21265461.660   111750695.495 8
  87078515.344 7        48.600          46.600
  24887741.742                    24887750.488                   130785917.887 5
 101911193.271 5        35.200          35.400
  22008272.266                    22008278.141    22008278.137   115654471.009 7
  90120228.861 7        47.100          44.200
  20145142.352                    20145151.918                   105863410.897 8
  82491057.570 8        52.300          50.900
 14  1  9  0 34 30.0000000  0  8G02G04G12G14G29G24G31G25
  22991125.531                                    22991129.586   120819225.371 7
  94144856.24345        45.300          30.300
  23888294.227                                    23888301.973   125533845.289 6
  97818601.91043        41.000          18.300
  21474834.438                    21474840.840    21474840.484   112850988.732 8
  87935908.197 7        48.800          46.300
  22337295.203                                    22337301.250   117383283.490 7
  91467491.91044        43.500          25.600
  21251156.883                    21251163.402    21251163.398   111675558.996 8
  87019967.455 7        48.500          46.200
  24909254.172                    24909264.383                   130898972.310 5
 101999287.602 5        34.600          35.000
  21994092.438                    21994097.727    21994097.664   115579954.615 7
  90062164.143 7        46.700          44.500
  20145408.398                    20145417.730                   105864809.858 8
  82492147.671 8        51.700          51.600
 14  1  9  0 35  0.0000000  0  8G02G04G12G14G29G24G31G25
  22985612.508                                    22985615.508   120790250.914 7
  94122278.73245        44.900          31.800
  23898629.383                                    23898636.895   125588157.166 6
  97860922.82642        40.200          17.800
  21488777.500                    21488783.258    21488783.195   112924259.383 8
  87993002.209 7        48.200          46.200
  22351148.758                                    22351155.273   117456083.115 7
  91524218.86544        43.400          25.500
  21236942.547                    21236949.418    21236949.297   111600862.476 8
  86961762.391 7        48.800          46.100
  24930781.594                    24930791.453                   131012098.639 5
 102087437.974 5        35.100          35.300
  21979975.492                    21979980.605    21979980.602   115505769.175 7
  90004357.307 7        47.200          44.500
  20145758.273                    20145767.078                   105866647.572 8
  82493579.675 8        52.200          51.200
 14  1  9  0 35 30.0000000  0  8G02G04G12G14G29G24G31G25
  22980195.438                                    22980198.730   120761784.339 7
  94100096.99745        44.300          30.700
  23909069.789                                    23909076.480   125643017.709 6
  97903671.26843        39.900          19.300
  21502773.305                    21502778.828    21502778.766   112997806.784 8
  88050311.865 7        48.000          46.400
  22365084.984                                    22365091.383   117529318.663 7
  91581285.50244        43.400          24.900
  21222811.945                    21222818.875    21222819.047   111526605.661 8
  86903899.946 7        48.300          45.300
  24952323.664                    24952332.352                   131125293.098 5
 102175641.447 5        34.600          34.700
  21965921.313                    21965926.660    21965926.598   115431915.162 7
  89946808.725 7        46.500          44.500
  20146191.594                    20146200.223                   105868921.664 8
  82495351.687 8        51.900          50.900
 14  1  9  0 36  0.0000000  0  8G02G04G12G14G29G24G31G25
  22974875.086                                    22974879.668   120733829.300 7
  94078313.88345        45.300          30.400
  23919613.320                                    23919620.539   125698426.810 6
  97946847.14642        40.000          17.400
  21516821.344                    21516826.633    21516826.805   113071631.587 8
  88107837.685 7        49.000          46.000
  22379104.094                                    22379110.199   117602989.823 7
  91638691.56944        43.400          24.400
  21208765.648                    21208772.930    21208772.691   111452792.148 8
  86846382.954 7        48.100          46.500
  24973874.781                    24973884.523                   131238555.603 5
 102263897.936 5        34.700          34.500
  21951930.867                    21951936.918    21951936.797   115358395.979 7
  89889521.060 7        46.800          44.500
  20146707.461                    20146716.441                   105871634.052 8
  82497465.278 8        52.800          51.400
 14  1  9  0 36 30.0000000  0  8G02G04G12G14G29G24G31G25
  22969653.117                                    22969657.465   120706387.928 7
  94056930.98845        44.900          30.200
  23930261.961                                    23930268.359   125754384.090 6
  97990450.17342        39.200          16.900
  21530922.766                    21530928.113    21530927.934   113145733.716 8
  88165579.609 7        49.300          46.400
  22393205.938                                    22393212.219   117677095.341 7
  91696436.10244        43.500          26.500
  21194804.320                    21194810.898    21194810.895   111379424.818 8
  86789213.622 7        48.300          46.000
  24995441.430                    24995450.645                   131351886.043 5
 102352207.357 5        34.000          34.900
  21938005.227                    21938010.867    21938010.629   115285215.024 7
  89832496.941 7        46.700          44.500
  20147306.711                    20147315.574                   105874785.512 8
  82499920.986 8        53.100          50.800
 14  1  9  0 37  0.0000000  0  8G02G04G12G14G29G24G31G25
  22964528.836                                    22964532.656   120679458.143 7
  94035946.73544        45.000          29.200
  23941014.281                                    23941021.148   125810884.028 6
  98034476.04542        39.600          17.800
  21545075.352                    21545081.402    21545081.281   113220108.345 8
  88223533.857 7        48.900          45.800
  22407389.359                                    22407395.816   117751629.062 7
  91754514.29744        42.700          26.800
  21180927.750                    21180934.563    21180934.734   111306501.913 8
  86732390.597 7        48.500          46.200
  25017019.375                    25017029.059                   131465279.043 5
 102440565.529 5        35.400          34.200
  21924143.008                    21924148.648    21924148.703   115212370.688 7
  89775735.126 7        47.000          44.500
  20147989.602                    20147998.523                   105878372.593 8
  82502716.128 8        52.000          51.400
 14  1  9  0 37 30.0000000  0  8G02G04G12G14G29G24G31G25
  22959502.703                                    22959506.230   120653044.186 7
  94015364.43444        45.500          29.500
  23951867.828                                    23951875.164   125867927.497 6
  98078925.45542        39.100          16.300
  21559281.148                    21559287.082    21559286.961   113294757.204 8
  88281701.798 7        48.900          46.400
  22421654.016                                    22421660.473   117826591.510 7
  91812926.57244        42.400          24.800
  21167136.102                    21167142.973    21167142.910   111234028.391 8
  86675917.734 7        48.100          46.700
  25038608.859                    25038619.715                   131578736.305 5
 102528973.802 5        34.300          35.300
  21910346.859                    21910352.676    21910352.555   115139868.144 7
  89719239.638 7        47.500          45.200
  20148755.648                    20148764.570                   105882398.163 8
  82505852.948 8        52.900          51.300
 14  1  9  0 38  0.0000000  0  8G02G04G12G14G29G24G31G25
  22954574.852                                    22954578.262   120627147.042 7
  93995184.83445        45.300          30.500
  23962826.203                                    23962833.832   125925512.482 6
  98123796.85342        38.100          16.900
  21573538.211                    21573543.969    21573543.848   113369678.776 8
  88340082.241 7        48.200          46.400
  22436000.133                                    22436006.414   117901980.127 7
  91871670.91944        43.100          26.500
  21153430.875                    21153437.805    21153437.566   111162005.500 8
  86619796.010 7        49.100          46.400
  25060210.563                    25060221.652                   131692256.120 5
 102617430.796 5        34.300          34.600
  21896614.836                    21896621.121    21896621.000   115067709.303 7
  89663011.968 7        47.400          44.900
  20149605.352                    20149614.156                   105886861.822 8
  82509331.140 8        52.400          51.000
 14  1  9  0 38 30.0000000  0  8G02G04G12G14G29G24G31G25
  22949744.453                                    22949748.273   120601766.207 7
  93975407.56244        45.800          29.900
  23973886.992                                    23973894.270   125983635.259 6
  98169087.35842        38.500          16.300
  21587845.992                    21587851.867    21587851.863   113444869.780 8
  88398672.629 7        48.100          46.400
  22450426.586                                    22450432.223   117977790.375 7
  91930743.83044        42.100          26.200
  21139811.086                    21139818.250    21139818.129   111090433.205 8
  86564025.408 7        48.700          45.800
  25081824.883                    25081834.625                   131805834.342 5
 102705933.317 5        33.800          34.900
  21882949.305                    21882954.945    21882955.000   114995894.639 7
  89607052.489 7        46.900          44.900
  20150537.273                    20150546.371                   105891761.580 8
  82513149.157 8        52.300          50.900
 14  1  9  0 39  0.0000000  0  8G02G04G12G14G29G24G31G25
  22945013.219                                    22945017.039   120576903.048 7
  93956033.68644        45.200          29.100
  23985049.266                                    23985056.660   126042294.140 6
  98214795.53842        38.200          15.600
  21602205.719                    21602212.238    21602212.059   113520329.611 8
  88457472.496 7        48.300          46.100
  22464932.445                                    22464938.961   118054020.221 7
  91990143.69544        43.000          25.500
  21126277.477                    21126284.406    21126284.227   111019313.846 8
  86508607.737 7        49.200          46.400
  25103448.375                    25103459.172                   131919470.292 5
 102794480.834 5        32.900          34.700
  21869349.586                    21869354.816    21869354.930   114924426.465 7
  89551363.003 7        46.800          45.000
  20151552.859                    20151561.781                   105897097.597 8
  82517307.094 8        51.900          50.800
 14  1  9  0 39 30.0000000  0  8G02G04G12G14G29G24G31G25
  22940380.680                                    22940384.324   120552559.568 7
  93937064.75044        45.000          28.700
  23996313.859                                    23996320.902   126101487.627 6
  98260920.29942        38.200          16.300
  21616616.586                    21616622.285    21616622.164   113596057.560 8
  88516481.300 7        48.500          45.900
  22479518.375                                    22479524.480   118130667.349 6
  92049868.72344        41.800          24.800
  21112830.438                    21112837.016    21112837.012   110948649.306 8
  86453544.471 7        49.500          46.400
  25125083.945                    25125094.625                   132033162.929 5
 102883072.512 5        32.900          34.800
  21855815.758                    21855821.223    21855821.102   114853307.193 7
  89495945.390 7        47.600          45.100
  20152651.125                    20152660.281                   105902870.248 8
  82521805.275 8        52.600          51.200
 14  1  9  0 40  0.0000000  0  8G02G04G12G14G29G24G31G25
  22935847.695                                    22935851.516   120528736.381 7
  93918501.23544        45.700          29.600
  24007678.750                                    24007686.145   126161213.503 6
  98307459.94642        38.000          16.300
  21631077.563                    21631083.203    21631083.316   113672052.300 8
  88575697.986 7        48.200          46.200
  22494182.242                                    22494188.113   118207729.644 7
  92109917.24144        42.400          25.200
  21099470.516                    21099477.094    21099477.031   110878441.379 8
  86398837.001 7        49.600          45.700
  25146730.250                    25146739.816                   132146910.010 5
 102971706.605 5        32.300          35.300
  21842349.336                    21842355.152    21842355.031   114782538.895 7
  89440801.272 7        47.600          45.500
  20153832.719                    20153842.051                   105909079.237 8
  82526643.470 8        51.800          50.900
 14  1  9  0 40 30.0000000  0  8G02G04G12G14G29G24G31G25
  22931413.391                                    22931417.152   120505435.723 7
  93900344.86645        45.500          30.700
  24019145.758                                    24019152.508   126221471.075 6
  98354413.84242        38.600          16.300
  21645589.680                    21645595.555    21645595.492   113748313.165 8
  88635122.031 7        49.100          46.200
  22508925.203                                    22508931.836   118285205.222 6
  92170287.79144        41.700          24.300
  21086197.992                    21086204.453    21086204.332   110808692.766 8
  86344487.446 7        48.900          46.700
  25168384.234                    25168395.148                   132260711.511 5
 103060383.114 5        32.900          34.600
  21828950.195                    21828955.719    21828955.422   114712124.956 8
  89385933.260 7        48.100          45.200
  20155097.391                    20155106.137                   105915725.598 8
  82531822.496 8        52.100          51.700
 14  1  9  0 41  0.0000000  0  8G02G04G12G14G29G24G31G25
  22927079.664                                    22927082.957   120482657.203 7
  93882595.38345        45.400          30.800
  24030712.820                                    24030720.098   126282256.482 6
  98401779.06142        38.400          16.900
  21660151.680                    21660157.555    21660157.375   113824837.383 7
  88694751.293 7        47.800          45.800
  22523746.633                                    22523752.855   118363090.000 6
  92230977.21843        39.200          23.600
  21073012.320                    21073018.840    21073018.777   110739403.385 8
  86290495.733 7        48.700          46.600
  25190050.492                    25190060.000                   132374563.968 5
 103149099.350 5        31.600          34.600
  21815617.852                    21815623.609    21815623.957   114642065.704 7
  89331341.645 7        46.400          45.500
  20156445.063                    20156454.336                   105922807.365 8
  82537340.790 8        51.900          51.700
 14  1  9  0 41 30.0000000  0  8G02G04G12G14G29G24G31G25
  22922843.758                                    22922847.930   120460401.485 7
  93865253.26645        45.700          30.200
  24042379.625                                    24042386.902   126343567.199 6
  98449553.63742        38.500          16.300
  21674763.625                    21674769.090    21674769.555   113901623.905 8
  88754584.942 7        48.000          46.700
  22538645.195                                    22538651.066   118441380.709 6
  92291982.93644        41.100          24.200
  21059914.617                    21059922.133    21059921.953   110670574.349 8
  86236862.732 7        49.200          47.100
  25211725.469                    25211734.449                   132488465.018 5
 103237853.400 5        31.000          35.100
  21802353.797                    21802359.672    21802359.785   114572362.335 7
  89277027.333 7        47.800          45.800
  20157875.539                    20157884.402                   105930323.781 8
  82543197.764 8        51.900          51.000
 14  1  9  0 42  0.0000000  0  8G02G04G12G14G29G24G31G25
  22918709.297                                    22918711.945   120438670.642 7
  93848320.15945        45.800          31.100
  24054147.211                                    24054153.551   126405402.199 6
  98497736.69942        38.500          15.600
  21689425.516                    21689431.449    21689431.328   113978672.284 8
  88814622.628 7        48.400          46.700
  22553620.102                                    22553626.266   118520075.947 6
  92353303.85944        41.300          24.400
  21046905.023                    21046911.602    21046911.598   110602208.405 8
  86183590.572 7        50.700          46.800
  25233409.031                    25233419.066                   132602414.262 5
 103326645.035 5        31.200          34.100
  21789158.203                    21789164.020    21789163.898   114503018.322 8
  89222993.034 7        48.800          45.700
  20159388.617                    20159397.891                   105938275.839 8
  82549394.224 8        52.300          51.100
 14  1  9  0 42 30.0000000  0  8G02G04G12G14G29G24G31G25
  22914673.633                                    22914676.633   120417464.048 7
  93831795.55845        45.800          30.600
  24066012.711                                    24066019.344   126467758.012 6
  98546325.64242        38.400          16.900
  21704136.742                    21704142.383    21704142.379   114055979.051 8
  88874861.672 7        49.100          46.200
  22568670.930                                    22568677.680   118599171.651 6
  92414936.85943        40.500          23.200
  21033983.305                    21033990.000    21033989.879   110534305.930 8
  86130679.586 7        50.500          47.000
  25255100.031                    25255111.414                   132716408.744 5
 103415471.939 5        30.700          33.500
  21776030.633                    21776036.039    21776036.152   114434034.311 8
  89169239.263 7        48.600          45.500
  20160984.367                    20160993.289                   105946661.663 8
  82555928.620 8        52.100          51.100
 14  1  9  0 43  0.0000000  0  8G02G04G12G14G29G24G31G25
  22910737.938                                    22910741.523   120396783.660 7
  93815680.97745        45.900          30.900
  24077977.781                                    24077984.238   126530633.163 6
  98595319.22942        38.700          17.400
  21718897.117                    21718902.816    21718902.695   114133544.681 8
  88935302.422 7        49.200          46.400
  22583798.688                                    22583805.145   118678666.143 7
  92476880.57944        42.000          25.300
  21021150.719                    21021157.590    21021157.410   110466869.286 8
  86078131.561 7        50.700          47.200
  25276801.930                    25276811.730                   132830447.830 5
 103504333.576 5        30.500          33.500
  21762972.383                    21762978.609    21762978.488   114365413.061 8
  89115768.167 7        48.400          45.800
  20162662.781                    20162671.469                   105955482.086 8
  82562801.676 8        52.700          51.400
 14  1  9  0 43 30.0000000  0  8G02G04G12G14G29G24G31G25
  22906902.766                                    22906906.586   120376629.247 7
  93799976.26445        44.600          30.900
  24090040.617                                    24090047.660   126594024.178 6
  98644714.73242        38.700          16.900
  21733706.055                    21733711.930    21733711.750   114211366.087 8
  88995942.493 7        48.400          46.300
  22599001.086                                    22599007.836   118758555.141 6
  92539131.72444        41.100          24.300
  21008406.578                    21008412.863    21008412.859   110399898.440 8
  86025946.505 7        50.200          47.300
  25298509.727                    25298521.051                   132944528.39315
 103593227.15215        30.300          33.600
  21749983.617                    21749988.965    21749989.195   114297155.238 8
  89062580.253 7        48.700          45.800
  20164423.625                    20164432.723                   105964735.293 8
  82570011.965 8        51.900          50.900
 14  1  9  0 44  0.0000000  0  8G02G04G12G14G29G24G31G25
  22903168.820                                    22903172.348   120357004.378 7
  93784684.16545        45.700          31.500
  24102201.367                                    24102209.055   126657931.723 6
  98694512.77742        37.400          16.300
  21748563.758                    21748569.633    21748569.512   114289444.585 8
  89056782.894 7        48.300          46.300
  22614278.180                                    22614285.047   118838838.899 6
  92601690.46743        38.600          22.600
  20995752.102                    20995758.914    20995758.734   110333397.709 8
  85974127.769 7        50.400          47.100
  25320227.414                    25320237.449                   133058650.344 5
 103682153.743 5        30.300          33.600
  21737064.555                    21737070.254    21737070.133   114229265.663 8
  89009679.298 7        48.800          46.400
  20166267.586                    20166276.039                   105974423.902 8
  82577561.530 8        52.400          51.400
 14  1  9  0 44 30.0000000  0  8G02G04G12G14G29G24G31G25
  22899535.008                                    22899538.184   120337909.576 7
  93769805.10245        45.100          31.700
  24114460.758                                    24114467.391   126722353.160 6
  98744711.27442        36.700          16.300
  21763469.813                    21763475.863    21763475.801   114367778.731 8
  89117822.499 7        49.300          46.100
  22629630.305                                    22629637.348   118919514.274 6
  92664554.35644        41.100          24.400
  20983186.867                    20983194.090    20983193.969   110267368.349 8
  85922676.337 7        50.500          47.900
  25341950.984                    25341962.543                   133172813.012 5
 103771111.655 5        30.700          33.900
  21724215.906                    21724221.664    21724221.719   114161745.907 8
  88957066.508 7        48.200          45.900
  20168193.906                    20168202.477                   105984547.086 8
  82585449.690 8        52.100          51.100
 14  1  9  0 45  0.0000000  0  8G02G04G12G14G29G24G31G25
  22896001.992                                    22896005.637   120319346.539 7
  93755340.40145        46.000          31.600
  24126816.703                                    24126824.918   126787287.440 5
  98795309.33142        35.800          13.900
  21778424.953                    21778431.121    21778431.059   114446367.847 8
  89179060.777 7        49.200          45.500
  22645056.820                                    22645064.039   119000579.691 6
  92727722.19643        41.300          22.800
  20970712.367                    20970718.945    20970718.824   110201812.888 8
  85871594.173 7        48.500          46.900
  25363685.273                    25363694.371                   133287015.597 5
 103860100.697 5        31.300          33.200
  21711438.227                    21711444.043    21711443.980   114094599.119 7
  88904744.340 7        46.000          45.800
  20170202.563                    20170211.895                   105995105.718 8
  82593677.166 8        52.400          51.600
 14  1  9  0 45 30.0000000  0  7G02G04G12G14G29G31G25
  22892570.727                                    22892574.195   120301313.782 7
  93741288.91145        44.700          31.200
  24139269.695                                    24139278.730   126852729.105 5
  98846302.76742        34.500          14.800
  21793427.844                    21793434.129    21793433.832   114525208.570 8
  89240495.103 7        49.100          45.500
  22660556.281                                    22660562.328   119082029.228 6
  92791189.34043        41.400          22.800
  20958327.195                    20958333.773    20958333.418   110136729.861 8
  85820880.147 7        50.700          46.800
  21698731.414                    21698737.055    21698737.109   114027824.271 8
  88852712.005 7        48.500          46.400
  20172294.516                    20172303.320                   106006096.635 8
  82602241.517 8        52.400          50.900
 14  1  9  0 46  0.0000000  0  7G02G04G12G14G29G31G25
  22889240.383                                    22889244.086   120283814.069 7
  93727652.77145        44.900          31.000
  24151819.828                                    24151828.160   126918678.299 5
  98897691.71142        34.500          15.600
  21808479.000                    21808484.582    21808484.227   114604301.150 8
  89302125.681 7        49.100          45.300
  22676128.234                                    22676135.746   119163862.376 6
  92854955.43043        40.200          22.600
  20946032.719                    20946039.473    20946039.410   110072122.784 8
  85770536.980 7        50.200          46.600
  21686096.242                    21686101.531    21686101.703   113961425.422 8
  88800972.647 7        48.500          45.500
  20174468.523                    20174478.031                   106017521.488 8
  82611143.991 8        52.100          51.800
 14  1  9  0 46 30.0000000  0  7G02G04G12G14G29G31G25
  22886011.609                                    22886015.605   120266846.779 7
  93714431.51045        45.000          31.600
  24164464.664                                    24164473.055   126985131.256 5
  98949473.13042        35.000          14.800
  21823577.195                    21823582.777    21823582.832   114683642.843 8
  89363950.371 7        49.200          45.300
  22691772.945                                    22691779.578   119246075.179 6
  92919017.34243        41.600          22.600
  20933828.688                    20933835.793    20933835.555   110007991.719 8
  85720564.736 7        50.400          46.700
  21673532.742                    21673538.266    21673538.438   113895403.524 8
  88749527.015 7        48.700          46.300
  20176724.891                    20176734.398                   106029378.704 8
  82620383.365 8        51.900          51.400
 14  1  9  0 47  0.0000000  0  7G02G04G12G14G29G31G25
  22882884.578                                    22882888.281   120250412.964 7
  93701625.95445        43.400          31.400
  24177205.992                                    24177214.734   127052086.032 5
  99001645.69742        35.900          16.300
  21838722.531                    21838727.938    21838727.934   114763232.674 8
  89425968.409 7        49.200          45.900
  22707489.672                                    22707496.363   119328665.044 6
  92983373.07943        39.600          23.400
  20921716.016                    20921723.238    20921723.117   109944338.696 8
  85670964.985 7        50.000          47.300
  21661041.617                    21661047.023    21661046.844   113829760.583 8
  88698376.675 7        48.800          46.600
  20179063.328                    20179072.777                   106041668.209 8
  82629959.581 8        51.500          51.200
 14  1  9  0 47 30.0000000  0  7G02G04G12G14G29G31G25
  22879859.023                                    22879862.492   120234514.344 7
  93689237.42945        45.100          31.300
  24190043.641                                    24190051.855   127119541.133 6
  99054208.05342        36.400          14.800
  21853915.313                    21853921.012    21853920.656   114843070.431 8
  89488179.638 7        49.100          45.400
  22723276.766                                    22723283.633   119411630.095 6
  93048021.16543        39.400          22.500
  20909694.773                    20909701.645    20909701.465   109881165.909 8
  85621739.447 7        49.100          47.200
  21648622.336                    21648627.977    21648627.914   113764499.685 7
  88647524.039 7        47.600          46.400
  20181484.578                    20181492.973                   106054390.504 8
  82639873.062 8        52.100          51.300
 14  1  9  0 48  0.0000000  0  7G02G04G12G14G29G31G25
  22876934.828                                    22876938.824   120219149.737 7
  93677265.01645        42.800          30.900
  24202973.930                                    24202982.203   127187492.198 6
  99107156.95942        36.500          15.600
  21869154.422                    21869160.121    21869160.059   114923152.522 8
  89550581.271 7        49.300          45.600
  22739134.688                                    22739141.789   119494965.565 6
  93112957.84643        40.500          22.200
  20897764.563                    20897771.199    20897771.313   109818472.418 8
  85572887.386 7        48.600          47.100
  21636276.258                    21636282.367    21636282.363   113699620.398 7
  88596968.760 7        46.300          46.400
  20183987.586                    20183995.688                   106067543.280 8
  82650121.971 8        51.700          51.300
 14  1  9  0 48 30.0000000  0  7G02G04G12G14G29G31G25
  22874113.898                                    22874117.133   120204321.797 7
  93665710.77745        44.500          30.800
  24215998.297                                    24216007.391   127255938.661 6
  99160491.78642        37.000          15.600
  21884439.859                    21884445.676    21884445.613   115003480.060 8
  89613174.158 7        49.000          45.600
  22755063.422                                    22755070.523   119578670.814 6
  93178182.69943        40.400          22.600
  20885926.320                    20885933.133    20885933.246   109756262.083 8
  85524411.829 7        49.600          46.800
  21624003.375                    21624009.074    21624009.129   113635126.904 8
  88546714.088 7        48.200          46.500
  20186572.406                    20186581.504                   106081128.286 8
  82660707.678 8        52.000          51.400
 14  1  9  0 49  0.0000000  0  7G02G04G12G14G29G31G25
  22871393.211                                    22871397.441   120190028.845 7
  93654573.41845        43.800          30.100
  24229116.734                                    24229125.066   127324876.497 6
  99214209.61342        37.200          14.800
  21899771.539                    21899778.059    21899777.762   115084049.502 8
  89675955.530 7        49.400          46.000
  22771061.547                                    22771068.473   119662740.492 6
  93243691.49343        40.600          22.500
  20874180.078                    20874187.477    20874187.355   109694533.601 7
  85476311.722 7        47.700          47.100
  21611804.258                    21611809.898    21611809.719   113571018.897 7
  88496759.795 7        47.000          46.400
  20189239.672                    20189248.594                   106095142.727 8
  82671628.049 8        51.800          51.100
 14  1  9  0 49 30.0000000  0  7G02G04G12G14G29G31G25
  22868775.953                                    22868779.656   120176273.612 7
  93643855.05445        42.800          30.200
  24242329.016                                    24242337.055   127394304.630 6
  99268309.37442        37.600          14.800
  21915149.930                    21915155.629    21915155.391   115164861.054 8
  89738925.574 7        49.100          45.600
  22787128.680                                    22787135.664   119747173.646 6
  93309483.54243        40.900          22.300
  20862525.508                    20862532.203    20862532.258   109633290.170 8
  85428589.562 7        49.000          47.200
  21599679.242                    21599684.297    21599684.410   113507300.027 8
  88447108.726 7        48.000          46.400
  20191988.250                    20191997.113                   106109587.922 8
  82682884.050 8        52.000          50.900
 14  1  9  0 50  0.0000000  0  7G02G04G12G14G29G31G25
  22866260.734                                    22866264.848   120163056.064 7
  93633555.68145        44.300          30.400
  24255633.609                                    24255641.590   127464220.382 6
  99322789.23642        37.400          14.800
  21930573.141                    21930579.777    21930579.715   115245912.996 8
  89802082.930 7        49.100          45.600
  22803264.656                                    22803271.172   119831967.043 6
  93375556.27943        41.000          22.900
  20850964.086                    20850970.898    20850970.836   109572532.756 8
  85381246.139 7        50.200          46.400
  21587628.234                    21587633.758    21587633.695   113443971.848 8
  88397762.098 7        48.900          46.100
  20194818.781                    20194827.938                   106124463.213 8
  82694475.154 8        51.700          51.100
 14  1  9  0 50 30.0000000  0  7G02G04G12G14G29G31G25
  22863848.297                                    22863852.293   120150377.846 7
  93623676.55645        42.700          30.200
  24269030.711                                    24269038.867   127534622.187 6
  99377647.77642        36.500          14.800
  21946042.984                    21946048.859    21946048.738   115327204.964 8
  89865427.324 7        48.300          45.800
  22819468.813                                    22819476.031   119917119.019 6
  93441908.42843        41.100          22.600
  20839495.078                    20839502.008    20839502.063   109512263.800 8
  85334283.333 7        50.600          47.200
  21575651.891                    21575657.941    21575657.645   113381037.435 8
  88348722.296 7        49.000          46.400
  20197731.805                    20197740.668                   106139769.153 8
  82706401.830 8        51.700          51.600
 14  1  9  0 51  0.0000000  0  7G02G04G12G14G29G31G25
  22861537.563                                    22861541.793   120138237.045 7
  93614216.20344        43.100          29.300
  24282519.563                                                   127605504.533 6
                        36.000
  21961556.969                    21961562.844    21961562.840   115408732.684 8
  89928955.419 7        48.700          45.700
  22835739.156                                    22835746.316   120002623.414 6
  93508535.18143        39.600          22.800
  20828118.703                    20828125.281    20828125.277   109452481.282 7
  85287699.570 7        47.500          47.200
  21563751.047                    21563756.453    21563756.508   113318495.620 7
  88299988.408 7        46.800          46.700
  20200725.703                    20200734.449                   106155502.315 8
  82718661.421 8        52.300          51.500
 14  1  9  0 51 30.0000000  0  7G02G04G12G14G29G31G25
  22859330.813                                    22859334.633   120126638.295 7
  93605178.22345        42.600          30.600
  24296099.289                                                   127676869.736 5
                        35.900
  21977116.711                    21977123.113    21977122.992   115490499.072 8
  89992669.494 7        48.500          44.900
  22852078.117                                    22852084.398   120088481.997 6
  93575437.94143        40.400          21.300
  20816836.695                    20816842.980    20816843.094   109393191.200 8
  85241499.509 7        50.400          47.500
  21551924.891                    21551930.648    21551930.703   113256352.826 8
  88251565.452 7        49.000          47.000
  20203801.820                    20203810.391                   106171666.689 8
  82731256.998 8        52.100          50.800
 14  1  9  0 52  0.0000000  0  7G02G04G12G14G29G31G25
  22857226.094                                    22857229.738   120115579.408 7
  93596560.92444        43.800          29.300
  24309771.398                                                   127748712.488 5
                        34.800
  21992721.086                    21992726.258    21992726.195   115572500.570 8
  90056566.782 7        48.800          45.300
  22868483.500                                    22868489.605   120174689.067 6
  93642612.22443        41.300          22.800
  20805647.367                    20805654.180    20805653.941   109334391.971 8
  85195681.924 7        49.900          47.300
  21540175.633                    21540181.449    21540181.328   113194607.819 8
  88203452.449 7        49.100          46.800
  20206959.039                    20206968.371                   106188259.184 8
  82744186.218 8        52.200          51.500
 14  1  9  0 52 30.0000000  0  7G02G04G12G14G29G31G25
  22855224.508                                    22855228.035   120105062.366 7
  93588365.83144        42.000          29.400
  24323532.211                                                   127821031.399 5
                        34.000
  22008370.266                    22008376.082    22008375.961   115654737.212 8
  90120647.313 7        48.600          46.100
  22884954.344                                    22884960.098   120261243.042 6
  93710056.85943        40.900          22.800
  20794552.422                    20794558.473    20794558.703   109276086.512 8
  85150249.123 7        50.200          47.800
  21528502.391                    21528508.031    21528508.145   113133264.455 8
  88155652.435 7        48.900          46.400
  20210198.039                    20210207.313                   106205280.865 8
  82757449.887 8        51.600          51.200
 14  1  9  0 53  0.0000000  0  7G02G04G12G14G29G31G25
  22853326.359                                    22853329.477   120095084.287 7
  93580590.70445        42.300          30.000
  24337383.047                                                   127893820.548 5
                        33.300
  22024062.953                    22024068.945    22024068.766   115737203.586 8
  90184906.847 7        48.300          45.000
  22901489.039                                    22901495.496   120348137.616 6
  93777766.88943        40.800          22.500
  20783549.828                    20783556.934    20783557.047   109218271.740 8
  85105198.672 7        50.200          46.600
  21516905.477                    21516911.234    21516911.172   113072320.597 8
  88108163.715 7        48.800          46.500
  20213517.945                    20213527.277                   106222727.176 8
  82771044.425 8        51.400          50.400
 14  1  9  0 53 30.0000000  0  7G02G04G12G14G29G31G25
  22851530.422                                    22851533.949   120085648.797 7
  93573238.39844        43.400          28.900
  24351324.109                                                   127967081.224 5
                        33.100
  22039800.297                    22039805.762    22039805.758   115819902.305 8
  90249347.414 7        48.200          45.100
  22918089.203                                    22918095.777   120435373.319 6
  93845742.72643        41.100          22.500
  20772642.992                    20772649.570    20772649.742   109160952.869 8
  85060534.636 7        50.700          46.900
  21505385.023                    21505390.840    21505390.777   113011782.035 8
  88060990.802 7        48.600          45.800
  20216919.453                    20216928.375                   106240601.706 8
  82784972.634 8        52.500          50.200
 14  1  9  0 54  0.0000000  0  7G02G04G12G14G29G31G25
  22849838.492                                    22849842.313   120076756.999 7
  93566309.73445        43.000          30.000
  24365354.250                                                   128040811.434 5
                        33.000
  22055580.867                    22055587.738    22055587.500   115902832.154 8
  90313968.099 7        48.200          45.300
  22934753.953                                    22934760.352   120522948.013 6
  93913982.77643        41.200          22.200
  20761830.117                    20761836.813    20761836.516   109104131.624 8
  85016258.353 7        50.800          47.800
  21493942.742                    21493948.852    21493948.672   112951651.184 8
  88014135.591 7        49.100          46.500
  20220402.438                    20220411.477                   106258904.444 8
  82799234.512 8        51.200          49.900
 14  1  9  0 54 30.0000000  0  7G02G04G12G14G29G31G25
  22848250.258                                    22848253.902   120068408.596 7
  93559804.49445        43.600          30.400
  24379474.305                                                   128115007.036 5
                        33.200
  22071405.797                    22071411.320    22071411.316   115985991.354 8
  90378767.479 7        48.100          45.300
  22951483.039                                    22951489.789   120610857.489 6
  93982483.64343        41.200          22.600
  20751112.086                    20751119.309    20751119.129   109047807.853 8
  84972369.709 7        50.700          47.700
  21482577.984                    21482584.211    21482583.914   112891928.454 8
  87967598.400 7        49.300          46.600
  20223966.289                    20223975.563                   106277633.667 8
  82813828.708 8        51.600          51.000
 14  1  9  0 55  0.0000000  0  7G02G04G12G14G29G31G25
  22846765.313                                    22846767.727   120060603.590 7
  93553722.67444        43.200          29.800
  24393681.086                                                   128189665.865 5
                        34.400
  22087273.758                    22087279.867    22087279.629   116069378.047 7
  90443744.129 7        47.600          44.600
  22968274.078                                    22968281.531   120699098.443 6
  94051242.80543        40.800          22.900
  20740488.859                    20740495.672    20740495.785   108991982.753 8
  84928869.648 7        48.200          47.900
  21471290.898                    21471296.305    21471296.359   112832615.828 7
  87921380.771 7        46.500          47.100
  20227611.617                    20227620.773                   106296788.797 8
  82828754.771 8        51.200          51.000
 14  1  9  0 55 30.0000000  0  7G02G04G12G14G29G31G25
  22845382.984                                    22845386.336   120053342.153 7
  93548064.42545        43.400          30.500
  24407976.109                                                   128264784.700 5
                        34.900
  22103184.781                    22103191.066    22103191.121   116152990.880 7
  90508896.994 7        47.800          44.600
  22985129.109                                    22985135.332   120787667.923 6
  94120257.96343        40.700          22.800
  20729960.344                    20729967.098    20729967.445   108936656.961 8
  84885758.657 7        50.800          47.800
  21460082.320                    21460088.078    21460088.016   112773714.714 8
  87875483.800 7        49.800          46.300
  20231337.289                    20231346.328                   106316369.005 8
  82844012.081 8        51.000          50.900
 14  1  9  0 56  0.0000000  0  7G02G04G12G14G29G31G25
  22844105.570                                    22844108.160   120046626.461 7
  93542831.42745        43.800          31.400
  24422358.672                                                   128340362.895 5
                        35.400
  22119139.016                    22119144.480    22119144.594   116236829.768 7
  90574225.988 7        47.600          44.700
  23002046.359                                    23002052.113   120876564.576 6
  94189528.06543        40.800          22.600
  20719528.211                    20719534.906    20719534.961   108881833.311 8
  84843038.929 8        48.100          48.000
  21448952.633                    21448958.098    21448958.270   112715228.696 7
  87829910.271 7        46.700          45.800
  20235144.266                    20235153.012                   106336375.587 8
  82859601.615 8        51.300          50.400
 14  1  9  0 56 30.0000000  0  7G02G04G12G14G29G31G25
  22842931.055                                    22842934.113   120040456.205 7
  93538023.43745        44.900          31.800
  24436826.875                                                   128416397.246 5
                        35.400
  22135135.602                    22135141.008    22135141.180   116320893.293 7
  90639730.030 7        47.100          44.500
  23019023.773                                    23019030.172   120965785.095 6
  94259050.52243        41.400          23.500
  20709191.281                    20709198.152    20709198.148   108827512.696 8
  84800711.180 7        49.600          47.300
  21437902.531                    21437908.289    21437908.285   112657159.524 7
  87784661.565 7        47.000          47.000
  20239032.820                    20239041.625                   106356807.632 8
  82875522.703 8        51.100          51.100
 14  1  9  0 57  0.0000000  0  7G02G04G12G14G29G31G25
  22841860.563                                    22841863.973   120034831.264 7
  93533640.36845        45.200          30.900
  24451381.750                                                   128492884.517 5
                        35.800
  22151174.898                    22151180.480    22151180.477   116405179.455 7
  90705407.547 7        47.300          44.100
  23036063.305                                    23036068.766   121055325.986 6
  94328822.60743        40.900          22.800
  20698950.109                    20698956.629    20698956.566   108773695.639 8
  84758775.815 7        50.700          47.800
  21426931.742                    21426937.441    21426937.320   112599508.220 8
  87739738.472 7        48.900          46.300
  20243001.625                    20243010.313                   106377664.017 8
  82891774.417 8        51.300          51.300
 14  1  9  0 57 30.0000000  0  7G02G04G12G14G29G31G25
  22840894.266                                    22840897.500   120029751.235 7
  93529681.92645        45.000          30.900
  24466023.039                                                   128569821.416 5
                        35.900
  22167256.008                    22167261.063    22167260.766   116489686.157 7
  90771256.916 7        46.800          44.600
  23053162.531                                    23053168.109   121145183.253 6
  94398841.23743        41.100          22.200
  20688804.922                    20688811.559    20688811.672   108720382.214 8
  84717232.908 7        50.900          47.900
  21416040.930                    21416046.922    21416046.801   112542275.450 8
  87695141.507 7        49.600          47.000
  20247050.781                    20247059.645                   106398943.257 8
  82908355.631 8        51.800          51.100
 14  1  9  0 58  0.0000000  0  7G02G04G12G14G29G31G25
  22840030.727                                    22840034.313   120025215.879 7
  93526147.88545        44.500          30.400
  24480748.305                                                   128647204.852 5
                        35.700
  22183378.477                    22183384.176    22183384.172   116574412.047 7
  90837277.071 7        47.300          43.700
  23070320.242                                    23070327.402   121235353.613 6
  94469103.83243        40.800          22.800
  20678755.844                    20678762.598    20678762.652   108667573.211 8
  84676083.038 8        50.800          48.100
  21405229.922                    21405235.328    21405235.324   112485462.924 8
  87650872.004 7        49.300          46.400
  20251180.852                    20251189.422                   106420644.579 8
  82925265.724 8        51.900          51.000
 14  1  9  0 58 30.0000000  0  7G02G04G12G14G29G31G25
  22839272.281                                    22839275.809   120021229.295 7
  93523041.45345        44.300          30.700
  24495560.984                                                   128725036.307 5
                        35.400
  22199543.383                    22199548.848    22199548.844   116659358.772 7
  90903469.307 7        46.200          44.200
  23087539.461                                    23087546.035   121325837.655 6
  94539610.85743        40.600          22.800
  20668803.375                    20668809.895    20668809.891   108615272.885 8
  84635329.552 8        50.000          48.000
  21394500.164                    21394505.746    21394505.801   112429076.134 8
  87606934.237 7        48.900          46.800
  20255391.352                    20255399.922                   106442770.943 8
  82942507.030 8        51.300          51.900
 14  1  9  0 59  0.0000000  0  7G02G04G12G14G29G31G25
  22838617.586                                    22838621.172   120017788.105 7
  93520360.01345        44.000          31.500
  24510454.609                                                   128803309.102 5
                        34.200
  22215748.789                    22215754.605    22215754.660   116744521.802 7
  90969830.095 7        46.100          44.100
  23104815.961                                    23104822.887   121416629.049 6
  94610357.35943        41.200          22.800
  20658947.273                    20658953.324    20658953.555   108563479.260 8
  84594970.891 7        50.700          47.300
  21383850.289                    21383856.340    21383856.219   112373113.345 8
  87563326.870 7        49.900          46.500
  20259681.695                    20259690.676                   106465318.560 8
  82960076.598 8        51.300          50.700
 14  1  9  0 59 30.0000000  0  7G02G04G12G14G29G31G25
  22838066.211                                    22838069.855   120014892.252 7
  93518103.50745        44.200          30.900
  24525432.633                                                   128882020.160 5
                        33.500
  22231996.211                    22232001.559    22232001.496   116829900.040 7
  91036358.576 7        44.300          43.500
  23122152.117                                    23122158.105   121507724.771 6
  94681341.01143        41.400          21.700
  20649187.539                    20649193.883    20649193.820   108512192.913 8
  84555007.517 8        50.700          48.000
  21373282.305                    21373287.887    21373287.941   112317576.480 8
  87520051.385 7        50.200          47.200
  20264052.570                    20264061.316                   106488286.497 8
  82977973.682 8        51.300          51.000
 14  1  9  1  0  0.0000000  4  5
MORP (COGO code)                                            COMMENT
   0.033      (antenna height)                              COMMENT
 +55.21279000 (latitude)                                    COMMENT
  -1.68549700 (longitude)                                   COMMENT
0144.425      (elevation)                                   COMMENT
 14  1  9  1  0  0.0000000  0  7G02G04G12G14G29G31G25
  22837619.703                                    22837623.230   120012546.463 7
  93516275.61845        44.300          31.100
  24540495.203                                                   128961171.459 5
                        33.100
  22248284.117                    22248290.461    22248290.223   116915496.290 7
  91103056.939 7        46.400          44.100
  23139543.977                                    23139550.551   121599125.732 6
  94752562.54043        40.500          22.200
  20639525.742                    20639532.379    20639532.551   108461419.355 8
  84515443.736 8        50.800          48.500
  21362796.109                    21362801.750    21362801.805   112262471.612 8
  87477112.523 7        49.800          47.200
  20268503.438                    20268512.828                   106511678.651 8
  82996201.327 8        50.900          51.800
 14  1  9  1  0 30.0000000  0  7G02G04G12G14G29G31G25
  22837278.273                                    22837281.625   120010748.885 7
  93514874.90645        44.600          31.300
  24555640.305                                                   129040758.299 5
                        32.600
  22264613.875                    22264619.750    22264619.746   117001307.088 7
  91169922.475 7        46.500          43.800
  23156994.875                                    23157000.688   121690827.373 6
  94824018.30843        41.100          21.700
  20629961.070                    20629967.707    20629967.703   108411157.249 8
  84476278.467 8        51.100          48.000
  21352392.070                    21352397.711    21352397.473   112207798.070 8
  87434509.757 7        50.800          47.300
  20273035.102                    20273044.434                   106535492.438 8
  83014757.524 8        51.300          51.100
 14  1  9  1  1  0.0000000  0  7G02G04G12G14G29G31G25
  22837039.398                                    22837043.980   120009498.707 7
  93513900.74345        44.300          31.000
  24570867.656                                                   129120777.555 5
                        31.900
  22280983.523                    22280989.633    22280989.629   117087330.273 7
  91236953.512 7        45.800          44.200
  23174500.609                                    23174507.945   121782825.679 6
  94895705.27843        40.700          21.800
  20620494.008                    20620501.230    20620501.109   108361406.643 8
  84437511.781 8        50.800          48.100
  21342070.531                    21342076.113    21342076.051   112153556.934 8
  87392243.929 7        50.300          47.200
  20277646.750                    20277655.789                   106559726.308 8
  83033641.055 8        51.000          50.300
 14  1  9  1  1 30.0000000  0  7G02G04G12G14G29G31G25
  22836906.305                                    22836910.008   120008796.156 7
  93513353.30545        45.000          32.100
  24586175.258                                                   129201225.660 5
                        31.000
  22297393.203                    22297398.844    22297398.664   117173564.585 7
  91304149.067 7        45.900          43.900
  23192063.570                                    23192070.613   121875117.130 6
  94967620.67443        40.500          21.700
  20611124.211                    20611131.199    20611131.254   108312168.345 8
  84399144.293 8        50.700          48.400
  21331830.984                    21331836.918    21331836.855   112099749.919 8
  87350316.382 7        49.800          47.300
  20282338.219                    20282347.258                   106584379.560 8
  83052851.368 8        51.900          50.700
 14  1  9  1  2  0.0000000  0  7G02G04G12G14G29G31G25
  22836876.828                                    22836880.590   120008641.999 7
  93513233.18845        45.500          30.900
  24601566.156                                                   129282100.860 5
                        30.500
  22313843.055                    22313848.930    22313848.984   117260009.233 7
  91371508.517 7        46.000          43.800
  23209681.133                                    23209688.586   121967700.054 6
  95039763.18143        40.800          22.000
  20601852.320                    20601859.367    20601859.246   108263444.272 8
  84361177.483 8        50.900          48.500
  21321675.102                    21321680.684    21321680.680   112046379.612 8
  87308729.119 7        50.600          47.300
  20287109.617                    20287118.539                   106609452.615 8
  83072388.808 8        51.300          50.800
 14  1  9  1  2 30.0000000  0  7G02G04G12G14G29G31G25
  22836952.125                                    22836956.063   120009036.949 7
  93513540.95045        45.200          31.600
  24617037.633                                                   129363401.354 4
                        28.900
  22330333.078                    22330339.129    22330339.066   117346663.973 7
  91439031.683 7        45.700          44.000
  23227354.320                                    23227361.305   122060571.607 6
  95112130.62443        40.200          21.100
  20592678.688                    20592685.617    20592685.672   108215235.951 8
  84323612.580 8        50.500          48.300
  21311603.039                    21311608.621    21311608.207   111993448.436 8
  87267484.046 7        49.900          47.300
  20291960.727                    20291969.824                   106634945.377 8
  83092253.271 8        51.200          51.000
 14  1  9  1  3  0.0000000  0  7G02G04G12G14G29G31G25
  22837131.000                                    22837134.527   120009979.352 7
  93514275.29845        45.500          31.200
  24632588.406                                                   129445122.884 4
                        29.900
  22346861.828                    22346868.406    22346868.168   117433525.683 7
  91506716.134 7        46.600          43.900
  23245080.820                                    23245088.215   122153727.566 6
  95184719.65043        40.500          20.900
  20583602.984                    20583608.801    20583608.973   108167542.431 8
  84286448.813 8        51.200          48.200
  21301614.031                    21301619.379    21301619.316   111940956.682 8
  87226581.375 7        50.000          47.500
  20296891.125                    20296900.340                   106660855.813 8
  83112443.222 8        51.600          50.900
 14  1  9  1  3 30.0000000  0  7G02G04G12G14G29G31G25
  22837415.422                                    22837418.598   120011471.366 7
  93515437.90345        45.200          30.500
  24648220.211                                                   129527264.302 5
                        30.300
  22363431.109                    22363437.277    22363437.332   117520594.791 7
  91574562.182 7        46.000          44.000
  23262862.758                                    23262869.566   122247166.600 6
  95257529.26243        40.100          20.100
  20574625.578                    20574631.980    20574631.977   108120366.899 8
  84249688.673 8        51.400          48.600
  21291709.695                    21291715.160    21291715.215   111888907.719 8
  87186023.734 7        50.900          47.100
  20301901.422                    20301910.637                   106687185.129 8
  83132959.566 8        51.200          50.500
 14  1  9  1  4  0.0000000  0  7G02G04G12G14G29G31G25
  22837803.047                                    22837807.395   120013512.577 7
  93517028.46745        45.000          30.400
  24663929.617                                                   129609822.22515
                        30.100
  22380038.938                    22380044.578    22380044.867   117607869.718 7
  91642568.611 7        46.900          44.200
  23280696.727                                    23280702.949   122340884.910 6
  95330556.47843        40.000          21.500
  20565746.891                    20565753.762    20565753.758   108073709.489 8
  84213332.270 8        51.200          48.800
  21281889.438                    21281894.844    21281894.781   111837302.679 8
  87145812.013 7        50.500          46.800
  20306991.453                    20307000.199                   106713932.028 8
  83153801.303 8        51.600          50.900
 14  1  9  1  4 30.0000000  0  7G02G04G12G14G29G31G25
  22838295.922                                    22838299.742   120016102.316 7
  93519046.45945        44.600          30.200
  24679718.477                                                   129692793.402 4
                        29.600
  22396685.164                    22396691.918    22396691.914   117695348.349 7
  91710733.760 7        46.400          43.800
  23298583.453                                    23298589.910   122434878.980 6
  95403798.55843        41.100          20.900
  20556967.352                    20556973.813    20556973.809   108027570.179 8
  84177379.585 8        51.100          48.400
  21272153.867                    21272159.215    21272159.328   111786142.906 8
  87105947.258 7        50.000          47.100
  20312160.398                    20312169.555                   106741095.295 8
  83174967.492 8        52.000          50.400
 14  1  9  1  5  0.0000000  0  7G02G04G12G14G29G31G25
  22838893.781                                    22838897.016   120019240.947 7
  93521492.14244        45.500          29.700
  24695585.141                                                   129776175.620 4
                        27.300
  22413370.859                    22413375.973    22413376.027   117783030.021 7
  91779057.127 7        46.500          43.800
  23316521.125                                    23316527.992   122529146.125 6
  95477253.44243        41.100          20.100
  20548285.836                    20548292.414    20548292.293   107981950.270 8
  84141831.618 8        51.100          48.800
  21262503.461                    21262509.219    21262509.156   111735430.573 8
  87066431.150 7        51.000          47.200
  20317408.719                    20317417.406                   106768674.826 8
  83196458.037 8        52.100          50.400
 14  1  9  1  5 30.0000000  0  7G02G04G12G14G29G31G25
  22839595.609                                    22839599.488   120022929.912 7
  93524366.67545        45.300          30.500
  24711531.719                                                   129859967.406 4
                        27.300
  22430094.500                    22430100.785    22430100.781   117870914.791 7
  91847538.752 7        46.600          44.300
  23334511.398                                    23334518.324   122623685.095 6
  95550920.11243        40.900          21.100
  20539704.055                    20539710.691    20539710.746   107936852.001 8
  84106690.131 8        51.000          49.200
  21252939.320                    21252944.844    21252945.191   111685168.933 8
  87027266.231 7        50.000          47.500
  20322736.063                    20322745.219                   106796671.621 8
  83218273.710 8        51.900          50.500
 14  1  9  1  6  0.0000000  0  6G02G12G14G29G31G25
  22840402.305                                    22840405.656   120027166.457 7
  93527667.90145        45.600          30.500
  22446856.758                    22446862.633    22446862.629   117958998.668 7
  91916175.510 7        45.500          43.600
  23352552.977                                    23352559.141   122718490.000 6
  95624794.00843        41.100          20.100
  20531220.555                    20531227.836    20531227.480   107892273.624 8
  84071953.758 8        51.400          48.800
  21243460.547                    21243466.363    21243466.066   111635356.797 8
  86988451.593 7        50.500          47.500
  20328142.641                    20328151.797                   106825082.194 8
  83240411.806 8        52.000          50.700
 14  1  9  1  6 30.0000000  0  6G02G12G14G29G31G25
  22841312.469                                    22841316.230   120031952.091 7
  93531396.97144        45.400          29.900
  22463656.164                    22463662.215    22463662.094   118047282.003 7
  91984967.689 7        45.900          44.400
  23370643.031                                    23370650.074   122813559.251 6
  95698873.92143        41.300          21.800
  20522837.383                    20522843.961    20522843.840   107848217.425 8
  84037624.269 8        52.000          48.800
  21234067.805                    21234072.977    21234073.031   111585997.470 8
  86949989.782 7        49.700          47.000
  20333627.641                    20333636.270                   106853907.465 8
  83262873.043 8        51.600          50.600
 14  1  9  1  7  0.0000000  0  6G02G12G14G29G31G25
  22842327.328                                    22842330.680   120037285.943 7
  93535553.23145        45.500          30.000
  22480493.969                    22480499.785    22480499.605   118135763.008 7
  92053913.915 7        46.000          43.900
  23388784.609                                    23388791.184   122908889.286 6
  95773157.02143        41.800          20.400
  20514553.016                    20514559.535    20514559.707   107804683.776 8
  84003701.936 8        51.400          48.800
  21224761.195                    21224766.543    21224766.598   111537092.125 8
  86911881.727 8        50.300          48.000
  20339191.500                    20339200.891                   106883146.298 8
  83285656.543 8        52.100          51.700
 14  1  9  1  7 30.0000000  0  6G02G12G14G29G31G25
  22843447.242                                    22843450.711   120043169.462 7
  93540137.79745        45.800          30.900
  22497368.633                    22497374.156    22497374.387   118224441.441 7
  92123013.974 7        45.600          43.800
  23406973.813                                    23406980.914   123004478.366 6
  95847641.98243        40.900          20.400
  20506368.844                    20506375.539    20506375.535   107761674.350 8
  83970188.088 8        51.000          48.900
  21215541.594                    21215547.059    21215547.348   111488643.619 8
  86874129.638 7        49.800          47.300
  20344834.508                    20344843.781                   106912799.315 8
  83308762.788 8        52.300          51.100
 14  1  9  1  8  0.0000000  0  6G02G12G14G29G31G25
  22844671.086                                    22844673.793   120049600.769 7
  93545149.21245        45.600          31.100
  22514280.719                    22514286.770    22514286.414   118313314.829 7
  92192265.944 7        46.100          43.700
  23425212.563                                    23425219.840   123100321.522 6
  95922324.93043        41.300          20.600
  20498283.719                    20498290.414    20498290.234   107719187.954 8
  83937081.832 8        51.300          49.000
  21206408.711                    21206414.352    21206414.230   111440651.945 8
  86836733.524 7        50.000          47.200
  20350555.758                    20350564.855                   106942863.989 8
  83332189.802 8        52.200          51.100
 14  1  9  1  8 30.0000000  0  6G02G12G14G29G31G25
  22845999.141                                    22846002.258   120056581.883 7
  93550589.05845        45.900          30.100
  22531230.039                    22531236.441    22531236.320   118402383.706 7
  92261670.243 7        45.600          43.800
  23443499.250                                    23443506.469   123196417.848 6
  95997205.16843        41.100          20.600
  20490298.859                    20490305.730    20490305.492   107677227.918 8
  83904385.713 8        51.100          49.000
  21197364.078                    21197369.895    21197369.832   111393120.969 8
  86799696.392 8        50.200          48.000
  20356355.570                    20356364.668                   106973342.081 8
  83355938.954 8        51.500          51.200
 14  1  9  1  9  0.0000000  0  6G02G12G14G29G31G25
  22847432.430                                    22847435.605   120064112.061 7
  93556456.73744        45.800          29.600
  22548216.086                    22548222.664    22548222.426   118491646.273 7
  92331225.466 7        44.400          43.600
  23461833.305                                    23461840.172   123292764.219 6
  96072280.22943        39.900          19.300
  20482414.953                    20482420.711    20482420.824   107635794.235 8
  83872099.733 8        51.600          48.800
  21188407.211                    21188412.910    21188412.848   111346051.697 8
  86763019.031 7        50.400          47.300
  20362233.711                    20362242.809                   107004232.195 8
  83380009.164 8        51.300          50.900
 14  1  9  1  9 30.0000000  0  6G02G12G14G29G31G25
  22848969.938                                    22848973.348   120072191.042 7
  93562752.05444        46.100          29.900
  22565238.453                    22565244.855    22565244.617   118581101.266 7
  92400930.629 7        45.300          43.900
  23480214.539                                    23480221.230   123389356.868 6
  96147547.20343        40.600          19.600
  20474630.391                    20474636.793    20474636.730   107594887.537 8
  83840224.392 8        51.200          48.700
  21179538.625                    21179544.090    21179543.969   111299445.761 8
  86726702.712 7        49.900          47.900
  20368189.945                    20368199.629                   107035533.773 8
  83404399.981 8        51.100          51.000
 14  1  9  1 10  0.0000000  0  6G02G12G14G29G31G25
  22850611.508                                    22850614.449   120080817.898 7
  93569474.28345        46.000          30.700
  22582297.727                    22582304.012    22582303.773   118670746.816 7
  92470784.286 7        45.300          43.900
  23498641.500                                    23498648.484   123486192.341 6
  96223003.40343        40.200          20.400
  20466945.984                    20466952.563    20466952.676   107554507.875 8
  83808759.741 8        51.200          49.200
  21170757.945                    21170763.117    21170763.113   111253304.154 8
  86690748.206 7        49.600          47.400
  20374224.484                    20374233.289                   107067245.396 8
  83429110.322 8        51.600          51.100
 14  1  9  1 10 30.0000000  0  6G02G12G14G29G31G25
  22852356.883                                    22852360.586   120089992.044 7
  93576622.97545        45.900          30.700
  22599392.523                    22599398.398    22599398.219   118760581.177 7
  92540785.063 7        44.100          43.600
  23517115.156                                    23517121.262   123583267.237 6
  96298646.15543        39.600          20.100
  20459362.500                    20459368.844    20459368.840   107514655.285 8
  83777705.788 8        51.200          49.200
  21162066.320                    21162071.551    21162071.723   111207628.350 8
  86655156.656 7        50.700          47.900
  20380336.969                    20380345.715                   107099366.120 8
  83454139.450 8        51.000          50.800
 14  1  9  1 11  0.0000000  0  6G02G12G14G29G31G25
  22854207.766                                    22854211.059   120099715.754 7
  93584199.89745        46.300          30.200
  22616524.000                    22616529.816    22616529.637   118850604.942 7
  92610933.426 7        44.800          44.100
  23535632.578                                    23535639.563   123680580.937 6
  96374474.96643        39.800          19.000
  20451879.938                    20451886.398    20451886.160   107475332.701 8
  83747064.823 8        51.400          49.500
  21153463.875                    21153469.105    21153469.160   111162422.139 8
  86619931.027 7        50.700          47.600
  20386527.625                    20386537.133                   107131897.535 8
  83479488.597 8        51.000          50.600
 14  1  9  1 11 30.0000000  0  6G02G12G14G29G31G25
  22856162.305                                    22856164.953   120109986.266 7
  93592202.90745        46.000          30.200
  22633690.680                    22633696.496    22633696.492   118940815.350 7
  92681227.223 7        45.100          44.300
  23554195.258                                    23554202.301   123778127.965 6
  96450485.62743        39.500          19.300
  20444497.813                    20444504.098    20444504.035   107436538.735 8
  83716835.774 8        50.800          49.100
  21144950.219                    21144955.566    21144955.680   111117684.688 8
  86585070.660 7        50.900          46.600
  20392795.492                    20392804.297                   107164836.682 8
  83505155.463 8        51.100          50.600
 14  1  9  1 12  0.0000000  0  6G02G12G14G29G31G25
  22858220.211                                    22858223.621   120120805.405 7
  93600633.40645        45.600          30.200
  22650892.625                    22650898.559    22650898.496   119031213.047 7
  92751666.962 7        44.400          43.900
  23572802.844                                    23572809.184   123875907.103 6
  96526677.16143        39.900          19.600
  20437216.141                    20437223.012    20437222.656   107398275.398 8
  83687020.192 8        51.200          49.200
  21136527.133                    21136532.949    21136533.004   111073419.768 8
  86550578.505 7        50.700          47.500
  20399141.695                    20399150.500                   107198184.736 8
  83531140.949 8        51.500          50.500
 14  1  9  1 12 30.0000000  0  6G02G12G14G29G31G25
  22860383.617                                    22860386.910   120132171.505 7
  93609490.13144        45.500          29.300
  22668130.156                    22668136.031    22668136.027   119121795.444 7
  92822250.624 7        45.300          43.500
  23591452.367                                    23591458.766   123973914.264 6
  96603046.34443        39.300          19.000
  20430036.117                    20430042.578    20430042.574   107360542.714 8
  83657618.107 8        50.900          49.200
  21128194.016                    21128199.715    21128199.711   111029627.833 8
  86516454.896 7        50.200          47.900
  20405564.836                    20405573.641                   107231939.934 8
  83557443.676 8        51.400          50.700
 14  1  9  1 13  0.0000000  0  6G02G12G14G29G31G25
  22862650.883                                    22862654.586   120144085.981 7
  93618774.15345        44.900          30.200
  22685402.625                    22685408.266    22685408.262   119212562.912 7
  92892978.497 7        44.900          43.400
  23610145.266                                    23610152.133   124072147.814 6
  96679591.91943        38.800          19.300
  20422956.914                    20422963.492    20422963.605   107323342.353 8
  83628630.825 8        51.200          49.500
  21119951.359                    21119956.297    21119956.469   110986312.109 8
  86482702.358 7        50.200          47.800
  20412066.148                    20412075.246                   107266103.121 8
  83584064.322 8        51.500          50.500
 14  1  9  1 13 30.0000000  0  6G02G12G14G29G31G25
  22865022.516                                    22865026.395   120156547.712 7
  93628484.60345        45.000          30.600
  22702709.750                    22702715.977    22702715.973   119303513.310 7
  92963848.926 7        45.300          43.400
  23628881.656                                    23628887.996   124170603.797 6
  96756310.82042        39.300          17.800
  20415979.125                    20415985.352    20415985.465   107286674.549 8
  83600058.530 8        50.500          49.400
  21111799.070                    21111804.652    21111804.355   110943473.274 8
  86449321.429 8        50.700          48.300
  20418644.633                    20418653.848                   107300673.023 8
  83611001.900 8        51.800          50.600
 14  1  9  1 14  0.0000000  0  6G02G12G14G29G31G25
  22867497.922                                    22867500.863   120169555.761 7
  93638620.75345        44.700          30.900
  22720051.586                    22720057.988    22720057.867   119394645.057 7
  93034860.663 7        45.600          43.900
  23647657.258                                    23647664.652   124269278.680 6
  96833200.35042        38.800          17.800
  20409102.625                    20409109.145    20409109.316   107250538.893 8
  83571900.886 8        51.000          50.200
  21103738.297                    21103743.820    21103743.758   110901112.154 8
  86416312.755 7        51.200          47.900
  20425299.938                    20425309.094                   107335648.137 8
  83638255.217 8        52.400          50.600
 14  1  9  1 14 30.0000000  0  6G02G12G14G29G31G25
  22870076.406                                    22870079.992   120183109.574 7
  93649182.18045        45.600          30.500
  22737427.859                    22737433.676    22737433.555   119485956.680 7
  93106012.560 7        45.400          44.100
  23666476.727                                    23666483.418   124368169.531 6
  96910258.13643        38.400          18.600
  20402327.594                    20402334.465    20402334.461   107214935.875 8
  83544158.275 8        50.800          49.600
  21095768.344                    21095774.277    21095774.215   110859230.477 8
  86383677.675 7        51.100          47.900
  20432032.734                    20432041.422                   107371027.805 8
  83665823.775 8        52.000          50.400
 14  1  9  1 15  0.0000000  0  6G02G12G14G29G31G25
  22872759.016                                    22872763.012   120197208.936 7
  93660168.71145        44.300          30.200
  22754837.719                    22754843.359    22754843.063   119577447.061 7
  93177303.758 7        45.600          44.100
  23685336.414                                    23685342.871   124467273.757 6
  96987482.19143        38.600          19.000
  20395654.219                    20395661.031    20395660.969   107179866.186 8
  83516831.254 8        51.200          49.800
  21087889.945                    21087895.645    21087895.758   110817830.002 8
  86351417.578 8        50.800          48.000
  20438841.859                    20438851.133                   107406811.581 8
  83693707.226 8        51.700          50.300
 14  1  9  1 15 30.0000000  0  6G02G12G14G29G31G25
  22875546.445                                    22875549.914   120211852.224 7
  93671579.06145        44.600          30.000
  22772281.008                    22772287.234    22772287.113   119669113.996 7
  93248732.531 7        45.800          43.700
  23704234.133                                    23704241.000   124566586.370 6
  97064868.60343        37.800          18.300
  20389082.070                    20389088.531    20389088.527   107145329.060 8
  83489919.201 8        51.500          49.400
  21080103.273                    21080109.266    21080109.027   110776910.717 8
  86319532.421 7        50.700          47.900
  20445728.070                    20445736.875                   107442997.337 8
  83721903.922 8        51.300          50.300
 14  1  9  1 16  0.0000000  0  6G02G12G14G29G31G25
  22878437.070                                    22878440.363   120227042.355 7
  93683415.54144        45.200          29.700
  22789758.836                    22789764.945    22789764.707   119760959.340 7
  93320300.318 7        46.300          43.100
  23723172.336                                    23723179.672   124666107.463 6
  97142417.51142        37.400          17.800
  20382611.836                    20382617.887    20382617.824   107111328.108 8
  83463424.971 8        51.100          49.300
  21072409.477                    21072415.117    21072415.055   110736477.612 8
  86288026.103 7        50.800          47.000
  20452690.906                    20452700.180                   107479587.490 8
  83750415.728 8        52.200          50.200
 14  1  9  1 16 30.0000000  0  6G02G12G14G29G31G25
  22881431.180                                    22881435.000   120242778.577 7
  93695677.52845        44.600          30.100
  22807270.438                    22807276.078    22807275.664   119852981.809 7
  93392006.122 7        45.000          43.600
  23742149.781                                    23742156.355   124765834.097 6
  97220126.52642        37.100          17.800
  20376243.750                    20376250.387    20376250.324   107077863.970 8
  83437349.049 8        51.200          49.000
  21064807.914                    21064813.203    21064813.258   110696532.110 8
  86256899.738 7        50.300          46.900
  20459730.820                    20459740.035                   107516581.315 8
  83779242.085 8        51.700          50.000
 14  1  9  1 17  0.0000000  0  6G02G12G14G29G31G25
  22884528.906                                    22884532.668   120259057.999 7
  93708362.79645        45.400          30.200
  22824814.055                    22824821.043    22824820.688   119945177.599 7
  93463846.983 7        45.100          43.200
  23761165.734                                    23761172.191   124865760.899 6
  97297991.55642        38.300          16.900
  20369977.477                    20369983.352    20369983.582   107044934.273 8
  83411689.566 8        51.400          48.900
  21057299.352                    21057305.051    21057304.813   110657073.239 8
  86226152.559 7        51.000          47.500
  20466846.336                    20466855.258                   107553975.760 8
  83808380.617 8        51.700          49.900
 14  1  9  1 17 30.0000000  0  6G02G12G14G29G31G25
  22887731.094                                    22887734.387   120275881.412 7
  93721471.95645        44.500          31.200
  22842391.047                    22842398.094    22842398.090   120037546.646 7
  93535822.853 7        45.500          43.900
  23780217.602                                    23780225.230   124965885.951 6
  97376011.00942        37.300          16.900
  20363813.484                    20363819.887    20363819.707   107012540.536 8
  83386447.714 8        51.800          48.700
  21049883.453                    21049889.035    21049888.855   110618103.829 8
  86195786.785 7        50.900          47.700
  20474038.383                    20474047.246                   107591771.331 8
  83837831.717 8        51.300          50.200
 14  1  9  1 18  0.0000000  0  6G02G12G14G29G31G25
  22891035.078                                    22891038.664   120293248.274 7
  93735004.57245        44.800          30.500
  22860001.703                    22860008.223    22860007.867   120130088.421 7
  93607933.320 7        44.900          43.900
  23799308.336                                    23799315.672   125066206.336 6
  97454182.73242        36.100          16.900
  20357750.734                    20357757.137    20357757.250   106980683.584 8
  83361624.150 8        51.300          49.600
  21042561.375                    21042566.781    21042566.660   110579625.689 8
  86165803.813 7        50.700          47.900
  20481307.289                    20481316.387                   107629967.341 8
  83867594.837 8        51.700          49.800
 14  1  9  1 18 30.0000000  0  6G02G12G14G29G31G25
  22894443.227                                    22894447.047   120311157.482 7
  93748959.80445        44.700          30.500
  22877643.938                    22877649.813    22877649.984   120222800.677 7
  93680176.626 7        44.900          43.300
  23818435.031                                    23818441.898   125166718.274 6
  97532503.75342        37.000          16.900
  20351791.008                    20351797.410    20351797.348   106949363.291 8
  83337218.743 8        50.900          49.600
  21035332.453                    21035338.094    21035337.973   110541639.115 8
  86136203.882 7        50.900          47.400
  20488651.742                    20488660.605                   107668562.390 8
  83897668.901 8        51.500          50.300
 14  1  9  1 19  0.0000000  0  6G02G12G14G29G31G25
  22897954.211                                    22897958.324   120329608.478 7
  93763337.20345        45.000          30.600
  22895318.391                    22895325.730    22895325.316   120315682.070 7
  93752551.733 7        43.500          43.200
  23837597.328                                    23837604.781   125267418.388 6
  97610971.32742        37.600          16.900
  20345932.711                    20345939.172    20345939.227   106918579.645 8
  83313231.500 8        51.100          49.700
  21028198.070                    21028203.301    21028203.297   110504145.732 8
  86106988.247 7        51.000          47.800
  20496071.633                    20496080.906                   107707555.663 8
  83928053.267 8        52.700          50.500
 14  1  9  1 19 30.0000000  0  6G02G12G14G29G31G25
  22901568.867                                    22901572.102   120348602.420 7
  93778137.67645        45.100          30.400
  22913025.930                    22913032.859    22913032.563   120408733.457 7
  93825059.307 7        43.900          43.400
  23856795.695                                    23856803.031   125368305.829 6
  97689584.89243        36.700          18.300
  20340177.555                    20340184.543    20340184.422   106888334.923 8
  83289664.217 8        51.400          49.700
  21021157.664                    21021162.953    21021163.066   110467148.808 8
  86078159.474 7        50.800          47.100
  20503568.023                    20503576.887                   107746948.217 8
  83958748.754 8        51.300          50.800
 14  1  9  1 20  0.0000000  0  6G02G12G14G29G31G25
  22905286.602                                    22905290.129   120368137.805 7
  93793360.05345        45.700          30.900
  22930765.313                    22930771.246    22930771.066   120501952.618 7
  93897697.616 7        43.500          43.600
  23876029.570                                    23876035.793   125469376.184 6
  97768341.00442        37.100          16.900
  20334524.227                    20334530.980    20334530.977   106858628.389 8
  83266516.290 8        51.100          49.900
  21014212.047                    21014217.863    21014217.859   110430649.023 8
  86049718.081 7        50.600          47.800
  20511139.930                    20511148.910                   107786738.428 8
  83989754.118 8        51.700          50.300
 14  1  9  1 20 30.0000000  0  6G02G12G14G29G31G25
  22909106.844                                    22909110.488   120388214.092 7
  93809003.91545        45.200          30.900
  22948534.953                    22948541.707    22948541.879   120595338.064 7
  93970465.500 7        43.800          42.900
  23895297.070                                    23895304.172   125570626.754 6
  97847237.54442        37.700          16.300
  20328974.000                    20328980.871    20328980.750   106829460.324 8
  83243787.943 8        50.500          49.500
  21007361.563                    21007366.852    21007366.789   110394647.792 8
  86021665.184 7        51.000          47.300
  20518787.250                    20518796.348                   107826925.672 8
  84021068.852 8        51.900          50.200
 14  1  9  1 21  0.0000000  0  6G02G12G14G29G31G25
  22913030.656                                    22913033.773   120408832.224 7
  93825069.99145        45.200          30.500
  22966337.922                    22966344.383    22966344.379   120688890.822 7
  94043363.750 7        43.900          43.000
  23914599.094                                    23914604.906   125672055.947 6
  97926273.24942        38.800          16.900
  20323526.219                    20323532.563    20323532.441   106800832.897 8
  83221480.838 8        50.500          49.900
  21000606.125                    21000611.414    21000611.293   110359147.900 8
  85994002.930 7        50.200          47.700
  20526510.375                    20526519.473                   107867510.578 8
  84052693.451 8        52.300          50.500
 14  1  9  1 21 30.0000000  0  6G02G12G14G29G31G25
  22917055.797                                    22917059.500   120429987.648 7
  93841554.73945        44.900          31.400
  22984171.695                    22984177.805    22984177.508   120782605.667 7
  94116388.313 7        43.900          43.000
  23933932.383                                    23933939.543   125773657.000 6
  98005442.89242        38.700          16.900
  20318181.258                    20318187.543    20318187.480   106772742.354 8
  83199592.070 8        50.500          49.600
  20993945.352                    20993950.875    20993951.105   110324147.064 8
  85966729.553 7        50.100          47.600
  20534308.250                    20534317.465                   107908488.705 8
  84084624.461 8        51.400          50.300
 14  1  9  1 22  0.0000000  0  6G02G12G14G29G31G25
  22921184.367                                    22921187.895   120451681.007 7
  93858458.66145        45.800          30.900
  23002035.602                    23002041.359    23002041.414   120876482.492 7
  94189539.075 7        44.100          42.200
  23953298.617                                    23953305.777   125875428.004 6
  98084744.93242        38.400          14.800
  20312938.000                    20312944.227    20312944.164   106745190.311 8
  83178122.946 8        50.700          50.000
  20987380.859                    20987386.500    20987386.555   110289648.308 8
  85939847.411 7        50.500          47.600
  20542181.031                    20542190.070                   107949860.522 8
  84116862.248 8        51.500          50.500
 14  1  9  1 22 30.0000000  0  6G02G12G14G29G31G25
  22925414.398                                    22925418.102   120473912.050 7
  93875781.55445        45.100          30.800
  23019930.242                    23019936.820    23019936.465   120970520.483 7
  94262815.425 7        44.900          42.300
  23972697.148                                    23972703.254   125977366.503 6
  98164177.56142        38.900          16.300
  20307797.750                    20307804.328    20307804.207   106718177.506 8
  83157074.038 8        51.300          49.600
  20980911.148                    20980917.375    20980917.488   110255652.924 8
  85913357.514 7        50.600          47.800
  20550128.219                    20550138.020                   107991625.626 8
  84149406.485 8        52.000          50.200
 14  1  9  1 23  0.0000000  0  6G02G12G14G29G31G25
  22929747.164                                    22929750.516   120496680.818 7
  93893523.45145        45.300          30.200
  23037855.758                    23037861.867    23037861.805   121064719.460 7
  94336217.223 6        44.600          41.900
  23992126.719                                    23992133.176   126079469.788 6
  98243738.54042        38.500          16.300
  20302759.844                    20302766.832    20302766.770   106691704.777 8
  83136445.964 8        51.400          50.000
  20974538.578                    20974544.277    20974544.273   110222163.202 8
  85887261.630 7        49.900          47.800
  20558150.961                    20558160.059                   108033784.002 8
  84182257.169 8        52.100          50.100
 14  1  9  1 23 30.0000000  0  6G02G12G14G29G31G25
  22934182.016                                    22934185.602   120519986.604 7
  93911683.80345        45.200          31.000
  23055811.719                    23055817.535    23055817.297   121159077.862 7
  94409743.258 7        45.000          42.200
  24011587.313                                    24011593.770   126181734.810 6
  98323425.55242        38.400          16.900
  20297825.297                    20297831.641    20297831.637   106665771.943 8
  83116238.588 8        51.300          49.800
  20968261.906                    20968268.016    20968267.777   110189180.534 8
  85861560.845 8        51.000          48.400
  20566247.602                    20566257.168                   108076334.854 8
  84215413.678 8        51.300          50.000
 14  1  9  1 24  0.0000000  0  6G02G12G14G29G31G25
  22938719.148                                    22938722.852   120543830.166 7
  93930263.19845        45.700          30.500
  23073798.148                    23073803.789    23073803.902   121253596.449 7
  94483394.106 6        44.600          41.500
  24031078.203                                    24031084.836   126284160.389 6
  98403237.70142        38.100          14.800
  20292993.664                    20292999.188    20292999.418   106640381.456 8
  83096453.804 8        51.600          50.300
  20962082.922                    20962088.387    20962088.383   110156707.795 8
  85836257.418 8        49.600          48.700
  20574420.352                    20574429.156                   108119278.996 8
  84248876.646 8        52.100          50.000
 14  1  9  1 24 30.0000000  0  6G02G12G14G29G31G25
  22943358.133                                    22943362.012   120568207.567 7
  93949258.57945        45.400          30.200
  23091814.289                    23091820.223    23091820.219   121348271.070 7
  94557166.532 6        45.200          41.400
  24050598.555                                    24050605.129   126386740.160 6
  98483169.98042        38.000          16.900
  20288264.258                    20288271.246    20288271.184   106615529.907 8
  83077088.994 8        51.400          50.000
  20956000.398                    20956005.629    20956005.684   110124743.288 8
  85811350.008 7        50.100          47.800
  20582666.109                    20582675.559                   108162612.424 8
  84282642.949 8        51.900          49.900
 14  1  9  1 25  0.0000000  0  6G02G12G14G29G31G25
  22948098.930                                    22948102.457   120593119.793 7
  93968670.70745        44.500          31.000
  23109860.039                    23109865.797    23109865.441   121443101.817 7
  94631060.598 6        44.200          41.900
  24070147.641                                    24070154.918   126489472.683 6
  98563221.31342        37.300          14.800
  20283638.289                    20283644.926    20283644.863   106591219.690 8
  83058145.991 8        51.000          50.200
  20950015.047                    20950020.863    20950020.801   110093290.186 8
  85786841.106 7        48.700          47.900
  20590986.344                    20590995.148                   108206336.241 8
  84316713.457 8        51.400          49.800
 14  1  9  1 25 30.0000000  0  6G02G12G14G29G31G25
  22952941.758                                    22952944.992   120618565.850 7
  93988498.81145        45.000          30.200
  23127935.047                    23127940.688    23127940.508   121538087.392 7
  94705075.320 6        43.100          41.100
  24089726.102                                    24089732.617   126592355.083 6
  98643389.43342        37.600          16.900
  20279114.820                    20279121.340    20279121.277   106567449.962 8
  83039624.137 8        50.900          50.200
  20944127.203                    20944132.609    20944132.547   110062349.425 8
  85762731.423 7        50.200          47.900
  20599381.023                    20599390.180                   108250449.434 8
  84351087.374 8        52.000          49.800
 14  1  9  1 26  0.0000000  0  6G02G12G14G29G31G25
  22957885.055                                    22957888.172   120644546.416 7
  94008743.41444        45.300          29.700
  23146039.484                    23146045.359    23146045.414   121633228.353 7
  94779211.121 6        43.900          41.500
  24109331.602                                    24109338.586   126695385.029 6
  98723672.44342        37.000          16.300
  20274694.859                    20274701.613    20274701.434   106544222.607 8
  83021524.871 8        51.400          50.300
  20938337.117                    20938342.934    20938342.988   110031923.201 8
  85739022.674 7        49.900          47.600
  20607849.617                    20607858.422                   108294952.219 8
  84385764.863 8        51.600          49.800
 14  1  9  1 26 30.0000000  0  6G02G12G14G29G31G25
  22962930.320                                    22962933.848   120671059.553 7
  94029402.99444        45.000          29.600
  23164173.828                    23164179.469    23164179.406   121728522.459 7
  94853466.246 6        43.400          40.800
  24128964.633                                    24128971.617   126798559.221 5
  98804067.93242        35.800          14.800
  20270378.172                    20270384.750    20270384.570   106521537.117 8
  83003847.826 8        51.200          50.300
  20932645.867                    20932650.980    20932651.035   110002012.614 8
  85715715.724 8        50.000          48.400
  20616392.398                    20616401.320                   108339843.399 8
  84420745.004 8        51.700          50.100
 14  1  9  1 27  0.0000000  0  6G02G12G14G29G31G25
  22968076.570                                    22968080.273   120698104.184 7
  94050476.73844        44.600          29.900
  23182336.289                    23182341.871    23182341.809   121823968.043 7
  94927839.423 6        43.600          41.600
  24148625.234                                    24148632.043   126901874.161 5
  98884573.09442        35.400          15.600
  20266164.242                    20266170.410    20266170.348   106499393.001 8
  82986592.680 8        51.900          50.300
  20927051.813                    20927056.926    20927056.922   109972618.671 8
  85692811.341 8        50.300          48.200
  20625008.414                    20625017.395                   108385121.708 8
  84456026.801 8        51.700          49.900
 14  1  9  1 27 30.0000000  0  6G02G12G14G29G31G25
  22973324.023                                    22973327.668   120725679.753 7
  94071964.18445        44.200          30.500
  23200527.430                    23200533.480    23200533.301   121919564.639 7
  95002330.267 6        42.200          41.900
  24168311.898                                    24168318.414   127005327.323 5
  98965185.94742        35.600          14.800
  20262053.500                    20262059.961    20262060.016   106477790.902 8
  82969759.889 8        51.100          50.800
  20921556.750                    20921562.098    20921562.152   109943742.659 8
  85670310.560 8        49.500          48.300
  20633698.414                    20633707.336                   108430786.654 8
  84491609.867 8        51.700          50.600
 14  1  9  1 28  0.0000000  0  6G02G12G14G29G31G25
  22978672.195                                    22978676.250   120753785.007 7
  94093864.38444        44.600          29.900
  23218747.930                    23218753.922    23218753.566   122015310.718 7
  95076937.586 6        42.800          40.900
  24188023.461                                    24188030.738   127108914.790 5
  99045903.39742        35.300          14.800
  20258045.961                    20258052.832    20258052.711   106456730.412 8
  82953349.131 8        51.900          50.800
  20916160.195                    20916165.543    20916165.832   109915385.529 8
  85648214.093 8        49.800          48.800
  20642461.258                    20642470.707                   108476837.048 8
  84527493.302 8        51.600          49.700
 14  1  9  1 28 30.0000000  0  6G02G12G14G29G31G25
  22984121.344                                    22984124.695   120782418.582 7
  94116176.25345        43.200          30.000
  23236995.914                    23237001.438    23237001.316   122111204.533 6
  95151660.028 6        41.900          40.400
  24207759.734                                    24207768.301   127212633.321 6
  99126723.05242        36.200          15.600
  20254141.148                    20254147.609    20254147.547   106436210.835 8
  82937359.854 8        51.100          50.600
  20910863.484                    20910869.066    20910869.238   109887548.343 8
  85626522.781 8        49.900          48.100
  20651297.367                    20651306.348                   108523271.564 8
  84563676.051 8        52.100          49.600
 14  1  9  1 29  0.0000000  0  6G02G12G14G29G31G25
  22989671.242                                    22989674.301   120811581.655 7
  94138900.73345        43.500          30.400
  23255271.570                    23255277.445    23255277.559   122207247.241 7
  95226498.491 6        42.100          41.400
  24227522.969                                    24227530.598   127316482.022 5
  99207644.05942        34.500          15.600
  20250339.703                    20250346.457    20250346.395   106416234.439 8
  82921793.843 8        51.800          50.500
  20905665.203                    20905671.371    20905671.191   109860233.894 8
  85605238.793 8        50.100          48.200
  20660206.813                    20660216.438                   108570091.509 8
  84600159.131 8        51.400          50.000
 14  1  9  1 29 30.0000000  0  6G02G12G14G29G31G25
  22995319.953                                    22995324.184   120841271.275 7
  94162035.50544        43.600          29.500
  23273575.664                    23273581.832    23273581.711   122303435.069 7
  95301450.024 6        43.100          41.100
  24247308.688                                    24247316.258   127420455.715 5
  99288662.56142        34.500          15.600
  20246641.219                    20246647.445    20246647.500   106396799.085 8
  82906649.396 8        51.200          50.800
  20900567.242                    20900573.000    20900572.996   109833441.332 8
  85584361.477 8        50.400          48.000
  20669189.172                    20669198.152                   108617293.880 8
  84636940.188 8        51.800          50.400
 14  1  9  1 30  0.0000000  0  6G02G12G14G29G31G25
  23001070.352                                    23001073.762   120871486.122 7
  94185579.54644        43.700          29.800
  23291906.703                    23291912.871    23291912.750   122399766.935 7
  95376513.804 6        42.300          41.100
  24267117.102                                    24267124.496   127524551.065 5
  99369775.80742        33.800          14.800
  20243045.633                    20243052.152    20243052.148   106377904.661 8
  82891926.474 8        52.300          50.700
  20895568.195                    20895573.602    20895573.539   109807172.049 8
  85563891.922 8        50.300          48.400
  20678243.930                    20678253.145                   108664877.671 8
  84674018.467 8        51.700          49.900
 14  1  9  1 30 30.0000000  0  7G02G12G14G29G21G31G25
  23006919.391                                    23006922.918   120902225.033 7
  94209531.93944        43.800          29.800
  23310265.844                    23310271.367    23310271.422   122496241.929 7
  95451689.120 6        42.500          41.600
  24286946.805                                    24286956.074   127628765.300 5
  99450981.59742        33.700          14.800
  20239553.094                    20239559.906    20239559.902   106359551.199 8
  82877625.080 8        51.500          50.500
  25335232.852                                                   133137447.531 5
                        31.500
  20890669.047                    20890675.098    20890675.094   109781426.868 8
  85543830.752 8        50.500          48.300
  20687371.422                    20687380.578                   108712842.199 8
  84711393.419 8        51.700          50.000
 14  1  9  1 31  0.0000000  0  7G02G12G14G29G21G31G25
  23012869.008                                    23012872.828   120933490.957 7
  94233895.00145        44.200          30.000
  23328651.523                    23328657.926    23328657.980   122592862.315 7
  95526977.710 6        42.900          41.000
  24306801.961                                    24306809.824   127733098.779 5
  99532280.53342        33.800          14.800
  20236163.938                    20236170.984    20236170.746   106341742.082 8
  82863747.848 8        51.300          50.500
  25316371.555                                                   133038333.962 5
                        31.300
  20885870.727                    20885876.074    20885876.070   109756210.922 8
  85524181.973 8        50.500          48.200
  20696571.852                    20696580.656                   108761190.027 8
  84749067.056 8        51.200          49.800
 14  1  9  1 31 30.0000000  0  7G02G12G14G29G21G31G25
  23018918.406                                    23018922.520   120965280.468 7
  94258666.04145        43.600          30.000
  23347065.633                    23347071.684    23347071.387   122689624.715 7
  95602376.955 6        42.100          41.400
  24326678.031                                    24326685.660   127837546.001 5
  99613667.95742        34.900          13.900
  20232878.352                    20232884.930    20232884.809   106324474.855 8
  82850292.879 8        51.800          50.800
  25297509.727                                                   132939208.664 5
                        32.200
  20881172.969                    20881178.199    20881178.371   109731523.046 8
  85504944.669 8        50.100          48.400
  20705844.180                    20705853.922                   108809918.322 8
  84787037.178 8        51.600          50.100
 14  1  9  1 32  0.0000000  0  7G02G12G14G29G21G31G25
  23025067.555                                    23025071.551   120997591.144 7
  94283843.18645        44.700          31.500
  23365504.641                    23365511.277    23365510.922   122786526.723 7
  95677884.989 6        42.300          41.400
  24346574.625                                                   127942102.718 5
                        35.200
  20229695.164                    20229702.270    20229702.148   106307748.469 8
  82837259.337 8        51.300          50.800
  25278644.742                                                   132840071.823 5
                        32.200
  20876574.781                    20876580.422    20876580.125   109707362.472 8
  85486118.271 8        50.800          48.400
  20715188.883                    20715198.332                   108859024.488 8
  84825301.736 8        51.400          50.300
 14  1  9  1 32 30.0000000  0  7G02G12G14G29G21G31G25
  23031315.070                                    23031318.891   121030424.474 7
  94309427.60444        44.300          29.700
  23383971.586                    23383977.461    23383977.340   122883569.618 7
  95753502.807 6        43.100          41.300
  24366490.336                                                   128046768.802 5
                        35.000
  20226615.844                    20226622.305    20226622.301   106291565.583 8
  82824649.292 8        51.700          51.200
  25259777.984                                                   132740927.704 5
                        31.900
  20872078.258                    20872083.957    20872084.129   109683733.167 8
  85467705.835 8        50.100          48.600
  20724605.438                    20724615.004                   108908510.445 8
  84863862.232 8        51.600          49.600
 14  1  9  1 33  0.0000000  0  7G02G12G14G29G21G31G25
  23037662.242                                    23037665.945   121063777.935 7
  94335417.31245        45.100          31.100
  23402464.734                    23402470.961    23402470.605   122980751.200 7
  95829228.689 6        43.300          41.400
  24386427.891                                                   128151539.458 6
                        36.000
  20223639.492                    20223645.836    20223645.891   106275924.248 8
  82812461.241 8        51.500          50.700
  25240909.938                                                   132641778.474 5
                        33.600
  20867683.234                    20867688.758    20867688.637   109660634.928 8
  85449707.197 8        51.500          48.800
  20734094.273                    20734103.254                   108958373.869 8
  84902716.824 8        51.900          49.900
 14  1  9  1 33 30.0000000  0  7G02G12G14G29G21G31G25
  23044107.266                                    23044111.086   121097647.509 7
  94361809.18545        44.800          30.000
  23420983.273                    23420989.383    23420989.379   123078066.959 6
  95905059.113 6        41.800          41.800
  24406384.930                                                   128256408.890 5
                        35.400
  20220765.547                    20220772.125    20220772.180   106260821.262 8
  82800692.689 8        51.800          51.200
  25222042.008                                                   132542622.958 5
                        33.200
  20863388.141                    20863393.957    20863393.953   109638065.651 8
  85432120.755 8        51.100          48.300
  20743654.438                    20743663.125                   109008610.973 8
  84941862.622 8        51.600          49.800
 14  1  9  1 34  0.0000000  0  7G02G12G14G29G21G31G25
  23050651.844                                    23050655.840   121132037.943 7
  94388606.91845        44.200          30.600
  23439528.516                    23439534.156    23439534.328   123175521.079 7
  95980997.363 6        42.000          41.300
  24426360.156                                                   128361379.381 5
                        34.900
  20217994.820                    20218001.574    20218001.395   106246261.793 8
  82789347.656 8        51.700          50.800
  25203171.195                                                   132443468.436 5
                        33.700
  20859195.477                    20859201.352    20859201.172   109616031.970 8
  85414951.658 8        50.400          48.600
  20753286.422                    20753294.934                   109059226.276 8
  84981303.113 8        51.800          49.500
 14  1  9  1 34 30.0000000  0  7G02G12G14G29G21G31G25
  23057294.266                                    23057298.027   121166945.356 7
  94415807.50345        44.000          30.600
  23458098.898                    23458104.773    23458104.945   123273110.569 6
  96057041.081 7        41.700          42.100
  24446354.242                                                   128466446.065 5
                        34.500
  20215327.625                    20215333.383    20215333.438   106232243.772 8
  82778424.529 8        51.900          51.200
  25184305.898                                                   132344315.494 5
                        33.100
  20855104.344                    20855109.926    20855110.098   109594533.324 8
  85398199.466 8        50.700          48.900
  20762989.555                    20762998.242                   109110216.997 8
  85021036.136 8        51.400          49.200
 14  1  9  1 35  0.0000000  0  7G02G12G14G29G21G31G25
  23064034.461                                    23064038.223   121202365.750 7
  94443407.80645        44.500          31.200
  23476695.352                    23476700.758    23476700.754   123370831.424 6
  96133187.182 6        41.300          41.300
  24466363.430                                                   128571602.663 5
                        34.300
  20212762.094                    20212769.199    20212769.137   106218764.522 8
  82767921.229 8        51.600          50.700
  25165436.008                                                   132245162.876 5
                        34.100
  20851114.242                    20851120.469    20851120.348   109573567.209 8
  85381862.242 8        51.300          48.600
  20772763.047                    20772772.262                   109161578.975 8
  85061058.452 8        51.000          49.400
 14  1  9  1 35 30.0000000  0  7G02G12G14G29G21G31G25
  23070873.250                                    23070877.012   121238303.347 7
  94471411.12545        44.200          30.200
  23495316.273                    23495322.559    23495322.672   123468688.000 6
  96209439.014 6        40.900          41.000
  24486392.602                                                   128676851.662 5
                        33.400
  20210300.648                    20210307.520    20210307.691   106205828.800 8
  82757841.447 8        51.900          50.500
  25146570.047                                                   132146017.827 5
                        33.700
  20847227.648                    20847233.406    20847233.285   109553140.022 8
  85365944.961 8        51.400          49.100
  20782608.594                    20782617.574                   109213316.861 8
  85101373.699 8        50.500          49.400
 14  1  9  1 36  0.0000000  0  7G02G12G14G29G21G31G25
  23077809.617                                    23077813.555   121274755.183 7
  94499815.15545        44.300          30.400
  23513962.906                    23513969.309    23513969.422   123566676.841 6
  96285793.897 6        41.300          41.100
  24506437.234                                                   128782187.964 5
                        32.900
  20207942.250                    20207948.887    20207948.766   106193434.294 8
  82748183.400 8        52.100          51.000
  25127704.461                                                   132046881.258 5
                        33.800
  20843442.766                    20843448.172    20843448.227   109533250.863 8
  85350446.921 8        51.200          48.800
  20792524.758                    20792534.148                   109265427.662 8
  85141979.523 8        51.100          49.300
 14  1  9  1 36 30.0000000  0  7G02G12G14G29G21G31G25
  23084843.859                                    23084847.738   121311720.095 7
  94528618.98644        45.200          29.200
  23532634.414                    23532640.875    23532640.813   123664797.074 6
  96362251.187 6        40.900          41.000
  24526497.750                                                   128887608.661 5
                        32.900
  20205686.617                    20205692.902    20205692.898   106181580.716 8
  82738946.859 8        51.500          50.700
  25108841.867                                                   131947755.411 5
                        34.600
  20839760.250                    20839766.008    20839765.887   109513900.945 8
  85335369.059 8        51.100          49.300
  20802512.023                    20802520.535                   109317910.723 8
  85182875.424 8        50.900          49.300
 14  1  9  1 37  0.0000000  0  7G02G12G14G29G21G31G25
  23091975.422                                    23091979.008   121349194.747 7
  94557820.00545        44.600          30.500
  23551331.617                    23551337.023    23551337.254   123763045.548 7
  96438808.383 6        42.200          40.700
  24546573.742                                                   128993108.640 5
                        33.000
  20203533.273                    20203539.734    20203539.672   106170265.623 8
  82730129.909 8        51.600          50.800
  25089980.273                                                   131848640.352 5
                        33.700
  20836180.727                    20836186.484    20836186.422   109495089.498 8
  85320710.789 8        51.400          48.500
  20812569.766                    20812578.453                   109370763.072 8
  85224059.085 8        50.900          49.400
 14  1  9  1 37 30.0000000  0  8G02G12G14G29G23G21G31G25
  23099203.555                                    23099207.258   121387178.641 7
  94587417.82745        43.900          30.100
  23570051.563                    23570057.906    23570057.961   123861422.106 6
  96515465.407 6        41.300          40.900
  24566663.969                                                   129098686.108 5
                        32.900
  20201482.750                    20201488.918    20201489.266   106159490.413 8
  82721733.659 8        51.300          51.000
  24963331.781                                                   131183264.576 5
                        30.500
  25071122.766                                                   131749539.071 5
                        34.800
  20832703.914                    20832709.672    20832709.785   109476817.695 8
  85306473.015 8        50.600          49.300
  20822697.477                    20822706.047                   109423984.753 8
  85265530.553 8        50.200          49.100
 14  1  9  1 38  0.0000000  0  8G02G12G14G29G23G21G31G25
  23106528.242                                    23106532.004   121425672.333 7
  94617412.91845        44.200          30.200
  23588795.922                    23588801.973    23588801.910   123959927.108 7
  96592222.540 6        42.700          40.700
  24586768.203                                                   129204339.360 5
                        32.400
  20199535.383                    20199541.844    20199541.898   106149256.061 8
  82713758.852 8        50.800          50.900
  24950373.766                                                   131115168.386 4
                        29.400
  25052267.781                                                   131650455.298 5
                        35.300
  20829330.227                    20829335.750    20829335.688   109459088.032 8
  85292657.685 8        51.100          48.300
  20832895.227                    20832904.383                   109477576.203 8
  85307290.162 8        48.800          49.500
 14  1  9  1 38 30.0000000  0  8G02G12G14G29G23G21G31G25
  23113950.367                                    23113953.836   121464673.016 7
  94647803.04845        44.500          30.400
  23607565.367                    23607571.418    23607571.473   124058557.590 7
  96669077.449 6        42.700          39.600
  24606888.141                                                   129310064.009 5
                        31.500
  20197690.211                    20197696.613    20197696.609   106139560.640 8
  82706203.987 8        51.300          50.100
  24937498.469                                                   131047507.109 5
                        30.500
  25033416.164                                                   131551389.975 5
                        35.600
  20826059.375                    20826064.605    20826064.660   109441900.052 8
  85279264.444 7        50.300          47.600
  20843163.211                    20843172.309                   109531535.129 8
  85349336.111 8        50.700          48.200
 14  1  9  1 39  0.0000000  0  8G02G12G14G29G23G21G31G25
  23121468.344                                    23121471.930   121504181.661 7
  94678589.01345        44.500          30.000
  23626358.672                    23626364.313    23626364.309   124157315.693 7
  96746031.807 6        43.400          40.100
  24627020.867                                                   129415859.691 5
                        32.400
  20195947.883                    20195954.930    20195954.750   106130406.410 8
  82699070.831 8        51.500          50.000
  24924707.648                                                   130980285.600 4
                        28.900
  25014568.281                                                   131452347.905 5
                        35.700
  20822892.328                    20822897.969    20822897.906   109425257.752 8
  85266296.420 8        50.500          48.100
  20853501.648                    20853510.922                   109585863.281 8
  85391669.768 8        49.500          48.700
 14  1  9  1 39 30.0000000  0  8G02G12G14G29G23G21G31G25
  23129083.516                                    23129086.809   121544196.340 7
  94709769.27645        44.600          30.400
  23645175.563                    23645181.027    23645180.848   124256199.020 7
  96823083.704 6        43.000          39.500
  24647164.422                                                   129521722.594 5
                        31.500
  20194309.094                    20194316.023    20194315.785   106121791.693 8
  82692358.061 8        51.000          51.100
  24911998.656                                                   130913504.852 5
                        30.500
  24995726.055                                    24995732.336   131353330.206 6
 102353341.21842        36.700          15.600
  20819829.211                    20819834.793    20819834.613   109409160.583 8
  85253753.161 8        50.900          48.600
  20863909.773                    20863919.164                   109640558.651 8
  85434289.534 8        49.000          49.400
 14  1  9  1 40  0.0000000  0  8G02G12G14G29G23G21G31G25
  23136792.680                                    23136796.500   121584713.010 7
  94741340.69844        45.000          29.700
  23664014.258                    23664020.543    23664020.832   124355203.689 7
  96900230.172 6        43.100          39.900
  24667321.094                                                   129627646.634 5
                        31.200
  20192771.797                    20192778.199    20192778.078   106113714.049 8
  82686063.797 8        52.100          51.000
  24899373.992                                                   130847164.929 4
                        28.600
  24976888.898                                    24976894.594   131254336.129 6
 102276202.97642        36.300          15.600
  20816869.703                    20816874.934    20816874.930   109393606.569 8
  85241633.141 8        51.300          48.600
  20874387.180                    20874396.453                   109695617.625 8
  85477192.640 8        49.100          49.100
 14  1  9  1 40 30.0000000  0  8G02G12G14G29G23G21G31G25
  23144598.148                                    23144602.027   121625731.408 7
  94773303.08545        44.300          30.000
  23682878.539                    23682884.414    23682884.527   124454330.004 7
  96977471.438 6        43.100          40.000
  24687489.438                                                   129733630.253 5
                        31.900
  20191337.000                    20191343.695    20191343.691   106106174.380 8
  82680188.734 8        51.800          50.700
  24886833.883                                                   130781268.361 4
                        28.000
  24958056.188                                    24958063.113   131155369.708 6
 102199086.23642        36.700          14.800
  20814013.328                    20814019.262    20814019.141   109378598.308 8
  85229938.380 8        51.000          48.100
  20884933.578                    20884942.676                   109751040.557 8
  85520379.332 8        49.300          48.900
 14  1  9  1 41  0.0000000  0  8G02G12G14G29G23G21G31G25
  23152499.922                                    23152502.922   121667251.763 7
  94805656.61444        45.000          29.400
  23701764.141                    23701769.488    23701770.129   124553577.932 7
  97054807.465 6        43.000          39.400
  24707670.180                                                   129839672.13815
                        32.600
  20190004.914                    20190011.316    20190011.430   106099173.505 8
  82674733.507 8        51.300          50.800
  24874379.586                                                   130715819.083 4
                        26.800
  24939228.023                                    24939236.121   131056434.380 5
 102121993.83342        34.600          16.300
  20811261.578                    20811266.926    20811266.980   109364137.797 8
  85218670.436 8        50.600          48.100
  20895549.922                    20895559.020                   109806828.082 8
  85563850.109 8        49.800          49.400
 14  1  9  1 41 30.0000000  0  8G02G12G14G29G23G21G31G25
  23160495.547                                    23160499.602   121709271.583 7
  94838399.32244        44.100          29.800
  23720673.469                    23720679.051    23720678.930   124652945.559 7
  97132236.775 6        42.800          39.200
  24727859.227                                                   129945767.817 5
                        32.500
  20188774.883                    20188781.402    20188781.223   106092709.678 8
  82669696.759 8        51.200          50.700
  24862010.492                                                   130650817.420 4
                        29.600
  24920407.938                                    24920415.391   130957531.287 6
 102044926.49842        36.600          16.300
  20808614.000                    20808619.758    20808619.520   109350224.896 8
  85207829.209 8        49.900          48.700
  20906234.258                    20906244.293                   109862978.060 8
  85607603.337 8        49.300          49.500
 14  1  9  1 42  0.0000000  0  8G02G12G14G29G23G21G31G25
  23168587.281                                    23168590.574   121751791.644 7
  94871531.82344        44.500          29.700
  23739605.719                    23739611.594    23739611.473   124752434.075 7
  97209760.264 6        43.000          39.900
  24748058.898                                                   130051916.76315
                        31.200
  20187647.242                    20187654.289    20187654.051   106086784.901 8
  82665080.049 8        51.200          50.700
  24849729.047                                                   130586268.975 4
                        29.900
  24901594.477                                    24901601.813   130858664.887 6
 101967887.70342        36.200          13.900
  20806071.359                    20806077.176    20806077.055   109336862.351 8
  85197416.823 8        51.000          48.100
  20916989.258                    20916998.297                   109919491.603 8
  85651639.845 8        48.800          48.900
 14  1  9  1 42 30.0000000  0  8G02G12G14G29G23G21G31G25
  23176772.477                                    23176776.004   121794808.408 7
  94905051.38144        44.000          28.800
  23758560.172                    23758565.871    23758565.926   124852039.954 7
  97287375.173 6        42.500          39.600
  24768267.859                                                   130158114.018 4
                        29.600
  20186621.867                    20186628.211    20186628.383   106081396.711 8
  82660881.466 8        51.500          51.100
  24837531.063                                                   130522173.116 4
                        29.100
  24882787.922                                    24882794.555   130759835.331 5
 101890877.69942        35.400          15.600
  20803633.063                    20803638.527    20803638.699   109324049.050 8
  85187432.418 8        51.500          48.300
  20927811.914                    20927821.129                   109976365.762 8
  85695957.356 8        48.800          49.400
 14  1  9  1 43  0.0000000  0  8G02G12G14G29G23G21G31G25
  23185053.172                                    23185056.348   121838322.201 7
  94938958.22144        44.800          29.100
  23777536.516                    23777542.098    23777542.445   124951763.855 7
  97365082.047 6        42.800          38.800
  24788485.031                                                   130264358.142 4
                        29.600
  20185699.227                    20185705.395    20185705.391   106076545.932 8
  82657101.652 8        51.200          51.200
  24825420.531                                                   130458534.11915
                        31.600
  24863989.430                                    24863996.180   130661046.270 6
 101813899.19842        36.100          16.300
  20801299.445                    20801305.086    20801304.965   109311787.146 8
  85177877.683 8        51.000          48.200
  20938703.094                    20938712.836                   110033601.246 8
  85740556.412 8        49.200          49.100
 14  1  9  1 43 30.0000000  0  8G02G12G14G29G23G21G31G25
  23193427.375                                    23193431.430   121882330.535 7
  94973250.43544        45.000          29.900
  23796535.859                    23796541.500    23796541.438   125051603.817 7
  97442879.350 6        42.500          38.600
  24808710.602                                                   130370645.178 4
                        26.800
  20184877.969                    20184884.840    20184884.543   106072231.538 8
  82653739.787 8        51.400          50.900
  24813398.227                                                   130395352.033 5
                        32.000
  24845198.094                                    24845205.020   130562299.344 5
 101736953.58642        35.000          16.300
  20799071.320                    20799076.375    20799076.371   109300076.809 8
  85168752.737 8        50.800          48.400
  20949663.469                    20949672.508                   110091196.273 8
  85785435.655 8        49.300          49.000
 14  1  9  1 44  0.0000000  0  8G02G12G14G29G23G21G31G25
  23201895.875                                    23201899.344   121926830.864 7
  95007926.00844        44.500          29.100
  23815557.078                    23815562.367    23815562.305   125151557.703 7
  97520765.436 6        42.700          38.600
  24828942.734                                                   130476970.781 4
                        28.900
  20184158.820                    20184165.047    20184164.926   106068451.402 8
  82650794.223 8        52.200          51.100
  24801461.109                                                   130332627.825 5
                        32.300
  24826415.633                                    24826422.207   130463594.985 5
 101660041.07842        35.700          15.600
  20796947.695                    20796952.867    20796953.039   109288917.146 8
  85160056.884 8        50.900          48.600
  20960691.664                    20960700.996                   110149148.363 8
  85830593.126 8        49.500          49.000
 14  1  9  1 44 30.0000000  0  8G02G12G14G29G23G21G31G25
  23210457.656                                    23210460.949   121971823.039 7
  95042984.84845        44.900          30.000
  23834598.508                    23834604.090    23834604.203   125251625.558 7
  97598740.293 6        42.600          37.800
  24849184.766                                                   130583333.682 5
                        30.100
  20183541.172                    20183547.574    20183547.453   106065207.087 8
  82648266.186 8        50.700          51.000
  24789613.070                                                   130270366.071 5
                        33.200
  24807641.203                                    24807648.305   130364937.073 6
 101583164.82642        36.400          16.900
  20794929.586                    20794935.227    20794935.281   109278310.425 8
  85151791.897 8        50.600          48.300
  20971787.703                    20971796.332                   110207458.173 8
  85876029.328 8        50.200          49.000
 14  1  9  1 45  0.0000000  0  8G02G12G14G29G23G21G31G25
  23219112.188                                    23219115.656   122017304.328 7
  95078424.81244        45.100          29.500
  23853662.500                    23853668.141    23853667.961   125351805.219 7
  97676802.265 6        42.800          37.200
  24869431.789                                                   130689730.065 5
                        31.500
  20183025.570                    20183032.207    20183032.086   106062496.742 8
  82646154.231 8        51.300          51.000
  24777853.336                                                   130208567.633 5
                        32.800
  24788876.641                                    24788883.273   130266327.006 6
 101506325.81342        36.500          16.900
  20793016.117                    20793021.348    20793021.520   109268256.485 8
  85143957.651 8        50.500          48.200
  20982950.961                    20982960.469                   110266123.789 8
  85921742.797 8        49.600          48.800
 14  1  9  1 45 30.0000000  0  8G02G12G14G29G23G21G31G25
  23227860.172                                    23227863.172   122063272.667 7
  95114244.29044        45.400          29.300
  23872747.305                    23872752.711    23872752.531   125452094.990 7
  97754950.094 6        43.200          37.900
  24889681.813                                                   130796156.105 5
                        30.300
  20182610.750                    20182617.445    20182617.383   106060318.969 8
  82644457.272 8        50.900          50.900
  24766183.383                                                   130147232.333 5
                        34.300
  24770121.813                                    24770127.566   130167766.322 6
 101429525.28642        37.400          16.900
  20791208.180                    20791213.996    20791213.758   109258755.148 8
  85136553.998 8        50.800          48.400
  20994182.453                    20994190.672                   110325143.499 8
  85967732.170 8        50.000          48.800
 14  1  9  1 46  0.0000000  0  8G02G12G14G29G23G21G31G25
  23236700.234                                    23236704.055   122109730.349 7
  95150445.08244        45.200          29.300
  23891853.344                    23891859.512    23891858.746   125552497.727 7
  97833185.965 6        42.500          38.100
  24909940.195                                                   130902612.869 5
                        31.200
  20182298.664                    20182305.359    20182305.238   106058677.269 8
  82643178.032 8        51.700          50.900
  24754599.141                                                   130086367.397 5
                        33.000
  24751376.180                                    24751382.754   130069261.222 6
 101352768.09542        37.700          16.300
  20789506.203                    20789511.844    20789511.898   109249811.130 8
  85129584.618 8        51.700          48.300
  21005480.984                    21005490.141                   110384520.085 8
  86013999.627 8        50.300          49.300
 14  1  9  1 46 30.0000000  0  8G02G12G14G29G23G21G31G25
  23245633.063                                    23245636.766   122156673.154 7
  95187023.87844        45.000          28.700
  23910979.523                    23910985.809    23910985.570   125653008.966 7
  97911506.367 6        42.300          37.900
  24930204.289                                                   131009094.122 5
                        30.800
  20182087.375                    20182094.305    20182094.125   106057567.472 8
  82642313.258 8        50.800          51.000
  24743105.523                                                   130025971.857 5
                        33.300
  24732641.391                                    24732648.434   129970810.504 6
 101276053.25842        37.100          17.400
  20787909.789                    20787915.313    20787915.309   109241421.540 8
  85123047.265 8        51.300          48.400
  21016847.203                    21016856.887                   110444249.383 8
  86060541.914 8        50.700          48.700
 14  1  9  1 47  0.0000000  0  8G02G12G14G29G23G21G31G25
  23254659.008                                    23254661.891   122204101.227 7
  95223980.82045        45.500          30.000
  23930126.938                    23930133.340    23930132.867   125753629.543 7
  97989911.942 6        42.200          38.300
  24950470.117                                                   131115598.969 5
                        30.100
  20181977.641                    20181984.453    20181984.508   106056991.648 8
  82641864.574 8        51.200          51.800
  24731703.406                                                   129966048.716 5
                        34.400
  24713917.719                                    24713925.172   129872418.757 6
 101199384.36842        36.800          16.300
  20786419.133                    20786424.949    20786425.004   109233589.399 8
  85116944.293 8        50.800          48.300
  21028280.734                    21028289.363                   110504332.601 8
  86107360.009 8        49.800          48.900
 14  1  9  1 47 30.0000000  0  8G02G12G14G29G23G21G31G25
  23263775.555                                    23263779.434   122252011.292 7
  95261313.33544        46.000          29.800
  23949295.102                    23949301.328    23949300.914   125854357.124 7
  98068400.864 6        42.000          37.500
  24970741.797                                                   131222122.920 4
                        28.600
  20181969.320                    20181975.723    20181975.543   106056947.446 8
  82641830.134 8        51.800          51.400
  24720389.609                                                   129906598.709 5
                        33.000
  24695206.438                                    24695213.480   129774086.543 6
 101122761.87642        36.500          17.400
  20785034.445                    20785040.086    20785040.199   109226313.527 8
  85111274.774 8        50.900          48.700
  21039780.875                    21039790.148                   110564767.072 8
  86154451.804 8        49.800          48.700
 14  1  9  1 48  0.0000000  0  8G02G12G14G29G23G21G31G25
  23272984.508                                    23272987.801   122300402.952 7
  95299021.11345        45.800          30.200
  23968482.695                    23968489.156    23968488.566   125955191.308 6
  98146972.869 6        41.300          37.700
  24991015.203                                                   131328664.041 4
                        28.900
  20182062.172                    20182068.633    20182068.512   106057434.921 8
  82642209.988 8        52.300          51.400
  24709168.313                                                   129847624.372 5
                        34.400
  24676506.242                                    24676513.109   129675816.678 6
 101046187.94742        36.100          15.600
  20783756.492                    20783761.547    20783761.719   109219595.387 8
  85106039.851 8        51.200          48.200
  21051348.188                    21051357.168                   110625552.715 8
  86201817.225 8        49.900          48.400
 14  1  9  1 48 30.0000000  0  8G02G12G14G29G23G21G31G25
  23282284.023                                    23282288.078   122349274.562 7
  95337102.86344        45.500          29.000
  23987691.313                    23987697.539    23987697.242   126056131.252 6
  98225627.297 6        40.700          37.300
  25011293.250                                                   131435219.45114
                        28.000
  20182256.258                    20182262.602    20182262.773   106058453.603 8
  82643003.768 8        51.600          52.000
  24698037.250                                                   129789128.527 5
                        35.500
  24657818.859                                    24657825.258   129577611.871 5
 100969664.76442        35.700          17.800
  20782584.203                    20782589.961    20782589.840   109213435.625 8
  85101240.029 8        51.200          48.300
  21062981.680                    21062991.480                   110686688.536 8
  86249455.501 8        50.100          48.700
 14  1  9  1 49  0.0000000  0  8G02G12G14G29G23G21G31G25
  23291675.633                                    23291678.633   122398625.170 7
  95375557.88944        45.300          29.100
  24006919.734                    24006925.785    24006925.605   126157176.328 6
  98304363.605 6        40.900          37.100
  25031572.211                                                   131541786.677 4
                        29.900
  20182551.008                    20182557.996    20182557.758   106060003.547 8
  82644211.516 8        52.600          51.200
  24686996.602                                                   129731113.464 5
                        34.800
  24639144.594                                    24639150.758   129479474.932 6
 100893194.36143        36.400          18.300
  20781518.555                    20781524.078    20781524.074   109207835.462 8
  85096876.258 8        51.300          48.400
  21074682.313                    21074691.059                   110748174.235 8
  86297366.409 8        50.300          48.600
 14  1  9  1 49 30.0000000  0  8G02G12G14G29G23G21G31G25
  23301156.984                                    23301160.746   122448451.262 7
  95414383.39344        45.500          29.100
  24026167.523                    24026173.398    24026173.102   126258323.893 6
  98383179.802 6        40.800          37.600
  25051850.016                                                   131648361.460 4
                        28.600
  20182946.086                    20182953.074    20182953.129   106062081.814 8
  82645830.948 8        51.900          51.600
  24676048.648                                                   129673579.213 5
                        35.400
  24620481.469                                    24620488.570   129381406.118 6
 100816777.15042        37.800          15.600
  20780559.266                    20780564.262    20780564.258   109202793.846 8
  85092947.715 8        51.500          49.100
  21086449.047                    21086458.027                   110810007.088 8
  86345547.833 8        49.800          49.100
 14  1  9  1 50  0.0000000  0  8G02G12G14G29G23G21G31G25
  23310729.711                                    23310733.473   122498754.712 7
  95453580.87844        44.900          28.800
  24045435.305                    24045440.594    24045441.352   126359575.900 6
  98462077.380 6        40.200          37.200
  25072134.234                                                   131754944.10114
                        28.600
  20183443.086                    20183449.840    20183449.777   106064692.083 8
  82647864.929 8        51.400          51.000
  24665193.141                                                   129616531.125 5
                        35.000
  24601833.836                                    24601840.996   129283410.895 6
 100740417.27142        37.600          16.300
  20779706.836                    20779712.359    20779712.355   109198314.407 8
  85089457.235 8        51.500          48.800
  21098281.688                    21098291.020                   110872189.448 8
  86394001.597 8        48.800          48.400
 14  1  9  1 50 30.0000000  0  8G02G12G14G29G23G21G31G25
  23320391.398                                    23320395.219   122549528.344 7
  95493144.74244        45.300          29.400
  24064721.398                    24064727.859    24064727.973   126460925.648 6
  98541051.138 6        40.200          37.900
  25092415.625                                                   131861526.024 4
                        27.300
  20184039.680                    20184046.316    20184046.313   106067827.618 8
  82650308.210 8        52.300          51.200
  24654430.766                                                   129559965.380 5
                        35.800
  24583199.078                                    24583205.418   129185485.654 6
 100664111.89542        38.000          17.800
  20778960.547                    20778965.660    20778965.715   109194391.998 8
  85086400.804 8        50.600          48.600
  21110179.742                    21110188.840                   110934714.677 8
  86442722.547 8        49.800          48.100
 14  1  9  1 51  0.0000000  0  8G02G12G14G29G23G21G31G25
  23330143.430                                    23330146.957   122600773.891 7
  95533076.33744        45.500          29.100
  24084026.375                    24084033.012    24084032.715   126562376.254 6
  98620103.470 6        39.100          37.300
  25112696.578                                                   131968108.155 3
                        23.800
  20184737.352                    20184744.164    20184743.867   106071491.210 8
  82653162.960 8        52.800          51.800
  24643756.820                                                   129503887.433 5
                        35.200
  24564579.336                                    24564585.559   129087637.175 6
 100587866.35442        38.400          17.400
  20778320.773                    20778326.004    20778325.941   109191030.853 8
  85083781.730 8        51.600          49.200
  21122143.422                    21122152.754                   110997585.395 8
  86491712.709 8        50.200          48.800
 14  1  9  1 51 30.0000000  0  7G02G12G29G23G21G31G25
  23339984.563                                    23339988.090   122652490.634 7
  95573375.09544        45.200          28.600
  24103351.195                    24103358.184    24103357.828   126663927.071 6
  98699233.914 6        39.900          37.200
  20185534.727                    20185541.012    20185541.066   106075682.947 8
  82656429.247 8        52.000          51.400
  24633179.969                                                   129448300.124 5
                        35.300
  24545974.789                                    24545980.953   128989868.171 6
 100511682.72942        38.700          16.900
  20777787.891                    20777793.531    20777793.410   109188231.940 8
  85081600.751 8        50.500          48.400
  21134173.469                    21134182.684                   111060801.301 8
  86540971.838 8        48.300          48.600
 14  1  9  1 52  0.0000000  0  7G02G12G29G23G21G31G25
  23349914.180                                    23349918.469   122704676.735 7
  95614039.57644        44.700          28.600
  24122694.336                    24122701.617    24122701.555   126765576.873 6
  98778441.506 6        39.200          37.900
  20186432.578                    20186438.805    20186438.742   106080401.899 8
  82660106.356 8        51.400          51.200
  24622695.172                                                   129393204.839 5
                        34.800
  24527385.164                                    24527391.914   128892180.932 6
 100435562.78242        39.000          17.800
  20777362.609                    20777368.191    20777368.188   109185995.929 8
  85079858.401 8        50.900          48.000
  21146268.641                    21146277.387                   111124361.459 8
  86590499.215 8        49.100          48.600
 14  1  9  1 52 30.0000000  0  7G02G12G29G23G21G31G25
  23359934.445                                    23359938.266   122757330.309 7
  95655068.32944        44.500          28.300
  24142056.758                    24142063.395    24142063.391   126867324.432 6
  98857725.246 6        40.000          37.800
  20187430.672                    20187437.367    20187437.246   106085647.259 8
  82664193.660 8        51.300          51.300
  24612305.180                                                   129338603.66615
                        34.600
  24508810.648                                    24508817.926   128794576.956 6
 100359507.77942        39.000          16.300
  20777044.023                    20777049.957    20777049.777   109184322.968 8
  85078554.789 8        50.800          48.700
  21158428.875                    21158438.148                   111188264.456 8
  86640293.737 8        48.600          48.500
 14  1  9  1 53  0.0000000  0  7G02G12G29G23G21G31G25
  23370042.508                                    23370045.625   122810447.246 7
  95696458.14044        44.600          28.500
  24161435.797                    24161443.195    24161442.898   126969166.090 6
  98937082.322 6        39.300          38.000
  20188528.609                    20188534.602    20188534.832   106091415.499 8
  82668688.397 8        51.900          51.500
  24602009.023                                                   129284494.642 5
                        35.000
  24490253.500                                    24490260.836   128697056.145 6
 100283517.55642        38.800          16.900
  20776832.563                    20776838.320    20776838.258   109183210.952 8
  85077688.276 8        50.000          48.200
  21170653.570                    21170662.961                   111252506.876 8
  86690352.751 8        48.900          48.200
 14  1  9  1 53 30.0000000  0  7G02G12G29G23G21G31G25
  23380238.406                                    23380242.227   122864027.771 7
  95738209.19144        44.300          29.100
  24180834.008                    24180841.055    24180841.051   127071103.088 6
  99016513.678 6        39.400          37.200
  20189726.055                    20189732.809    20189732.629   106097708.502 8
  82673592.052 8        52.000          51.500
  24591805.875                                                   129230883.349 5
                        33.800
  24471713.711                                    24471719.641   128599623.427 6
 100207595.92843        38.600          18.600
  20776728.344                    20776734.219    20776733.922   109182662.576 8
  85077260.978 8        51.300          49.300
  21182943.320                    21182952.242                   111317089.912 8
  86740677.177 8        48.100          48.300
 14  1  9  1 54  0.0000000  0  7G02G12G29G23G21G31G25
  23390522.555                                    23390526.551   122918070.780 7
  95780320.60944        44.700          28.100
  24200250.883                    24200256.699    24200256.871   127173134.752 6
  99096018.821 6        39.900          37.500
  20191023.320                    20191029.957    20191030.012   106104525.991 8
  82678904.389 8        51.900          51.200
  24581699.445                                                   129177771.546 5
                        34.200
  24453189.711                                    24453195.934   128502280.948 6
 100131744.63742        38.800          16.300
  20776731.063                    20776736.938    20776736.699   109182678.323 8
  85077273.243 8        51.000          49.200
  21195297.828                    21195306.750                   111382012.912 8
  86791266.511 7        48.700          47.900
 14  1  9  1 54 30.0000000  0  7G02G12G29G23G21G31G25
  23400893.805                                    23400897.859   122972572.846 7
  95822789.74844        44.300          27.300
  24219684.859                    24219690.852    24219690.379   127275258.135 6
  99175595.405 6        39.400          37.800
  20192419.875                    20192426.102    20192426.215   106111864.536 8
  82684622.742 8        51.700          51.000
  24571687.391                                                   129125159.028 5
                        34.300
  24434683.031                                    24434689.781   128405029.148 6
 100055963.98642        38.900          17.800
  20776841.031                    20776847.023    20776847.137   109183256.947 8
  85077724.098 8        50.700          48.700
  21207716.703                    21207725.391                   111447273.178 8
  86842118.647 8        48.400          48.500
 14  1  9  1 55  0.0000000  0  7G02G12G29G23G21G31G25
  23411352.867                                    23411356.277   123027534.504 7
  95865616.99844        44.700          27.800
  24239134.844                    24239142.418    24239142.297   127377474.988 6
  99255244.861 6        39.000          37.300
  20193915.930                    20193922.215    20193922.094   106119726.533 8
  82690748.973 8        52.100          51.200
  24561770.742                                                   129073050.028 5
                        35.500
  24416195.586                                    24416201.750   128307873.363 6
  99980258.20442        38.600          16.900
  20777059.086                    20777064.434    20777064.430   109184401.180 8
  85078615.704 8        50.900          48.400
  21220199.055                    21220208.504                   111512872.011 8
  86893234.604 8        48.500          48.500
 14  1  9  1 55 30.0000000  0  7G02G12G29G23G21G31G25
  23421898.211                                    23421901.797   123082951.347 7
  95908798.95044        44.700          27.700
  24258603.469                    24258610.457    24258610.219   127479780.964 6
  99334963.766 6        38.500          37.100
  20195510.773                    20195517.469    20195517.348   106128108.207 8
  82697280.154 8        51.200          51.900
  24551952.867                                                   129021443.389 5
                        34.100
  24397725.531                                    24397731.988   128210812.773 6
  99904626.61342        38.700          17.400
  20777383.734                    20777389.551    20777389.547   109186108.354 8
  85079945.951 8        49.900          49.000
  21232745.875                    21232755.500                   111578805.441 7
  86944611.292 7        47.500          47.900
 14  1  9  1 56  0.0000000  0  7G02G12G29G23G21G31G25
  23432530.086                                    23432533.555   123138823.905 7
  95952335.99244        44.700          28.500
  24278088.844                    24278096.242    24278095.945   127582177.684 6
  99414753.354 6        37.500          37.100
  20197204.789                    20197211.484    20197211.422   106137011.347 8
  82704217.664 8        51.800          51.200
  24542228.070                                                   128970343.254 5
                        33.800
  24379274.344                                    24379280.449   128113850.952 6
  99829071.97343        39.000          18.600
  20777816.109                    20777822.629    20777822.332   109188381.676 8
  85081717.367 8        50.200          48.800
  21245357.172                    21245365.801                   111645075.041 8
  86996249.937 8        48.000          48.300
 14  1  9  1 56 30.0000000  0  7G02G12G29G23G21G31G25
  23443249.031                                    23443252.676   123195150.933 7
  95996227.17644        44.200          28.700
  24297592.281                    24297598.684    24297598.738   127684664.844 6
  99494613.431 6        38.500          37.000
  20198998.141                    20199004.895    20199004.773   106146435.054 8
  82711560.819 8        51.700          50.900
  24532601.055                                                   128919752.237 5
                        34.400
  24360842.086                                    24360848.895   128016992.147 6
  99753597.53042        38.700          16.900
  20778357.188                    20778362.301    20778362.355   109191221.690 8
  85083930.354 8        50.800          49.000
  21258031.609                    21258040.766                   111711680.493 8
  87048150.276 7        48.300          47.600
 14  1  9  1 57  0.0000000  0  7G02G12G29G23G21G31G25
  23454054.000                                    23454057.117   123251928.574 7
  96040469.49444        44.100          27.600
  24317111.047                    24317117.391    24317117.855   127787238.906 6
  99574541.211 6        37.800          36.500
  20200889.859                    20200896.496    20200896.316   106156377.203 8
  82719307.963 8        51.600          51.700
  24523070.742                                                   128869669.843 5
                        34.700
  24342431.031                                    24342437.137   127920236.394 6
  99678203.45342        39.800          17.800
  20779004.672                    20779010.371    20779010.426   109194626.669 8
  85086583.578 8        50.200          49.000
  21270769.008                    21270778.281                   111778618.643 7
  87100309.876 8        46.400          48.700
 14  1  9  1 57 30.0000000  0  7G02G12G29G23G21G31G25
  23464944.109                                    23464946.934   123309156.590 7
  96085062.73944        44.300          28.500
  24336647.031                    24336653.785    24336653.605   127889900.561 6
  99654537.294 6        36.700          36.000
  20202881.102                    20202887.738    20202887.617   106166838.264 8
  82727459.445 8        51.400          51.200
  24513636.586                                                   128820098.989 5
                        33.500
  24324038.273                                    24324045.609   127823587.334 6
  99602892.51743        39.900          18.600
  20779760.547                    20779766.129    20779766.242   109198598.265 8
  85089678.310 8        49.200          48.900
  21283571.094                    21283579.723                   111845889.851 7
  87152728.989 7        47.600          47.900
 14  1  9  1 58  0.0000000  0  7G02G12G29G23G21G31G25
  23475919.359                                    23475922.477   123366831.287 7
  96130004.05644        44.200          28.200
  24356199.031                    24356206.137    24356205.898   127992647.296 6
  99734599.650 6        37.900          36.300
  20204969.391                    20204975.969    20204975.848   106177814.985 8
  82736012.747 8        51.700          51.100
  24504301.188                                                   128771039.668 5
                        33.200
  24305668.117                                    24305673.930   127727045.224 6
  99527664.90443        39.500          18.600
  20780623.797                    20780629.379    20780629.434   109203134.933 8
  85093213.359 8        50.900          49.000
  21296434.836                    21296444.109                   111913491.310 7
  87205405.446 8        47.700          48.100
 14  1  9  1 58 30.0000000  0  7G02G12G29G23G21G31G25
  23486978.813                                    23486982.926   123424952.086 7
  96175292.97844        45.300          27.600
  24375767.234                    24375773.871    24375774.043   128095478.846 6
  99814728.074 6        38.000          36.600
  20207157.039                    20207162.738    20207162.734   106189307.971 8
  82744968.329 8        51.700          51.200
  24495060.266                                                   128722494.572 5
                        33.700
  24287316.953                                    24287323.234   127630613.279 6
  99452523.13643        40.400          18.600
  20781594.703                    20781600.988    20781600.809   109208238.010 8
  85097189.774 8        50.700          48.700
  21309361.914                    21309370.953                   111981423.070 8
  87258339.273 8        48.100          48.300
 14  1  9  1 59  0.0000000  0  7G02G12G29G23G21G31G25
  23498123.953                                    23498126.895   123483518.444 7
  96220929.08344        44.700          28.400
  24395351.641                    24395358.453    24395358.801   128198395.318 6
  99894922.650 6        38.300          36.700
  20209441.977                    20209448.320    20209448.258   106201317.708 8
  82754326.573 8        51.700          51.000
  24485924.148                                                   128674466.949 5
                        35.500
  24268988.109                                    24268994.449   127534295.440 6
  99377470.25343        40.600          19.900
  20782674.383                    20782680.023    20782679.844   109213909.311 8
  85101608.962 8        50.200          48.100
  21322351.922                    21322360.727                   112049685.416 8
  87311530.709 8        48.000          48.100
 14  1  9  1 59 30.0000000  0  7G02G12G29G23G21G31G25
  23509352.445                                    23509355.797   123542526.139 7
  96266909.09744        44.500          27.000
  24414952.656                    24414958.473    24414958.527   128301393.551 6
  99975180.931 6        38.400          36.600
  20211824.813                    20211831.625    20211831.680   106213840.637 8
  82764084.705 8        52.100          52.000
  24476883.289                                                   128626955.819 5
                        34.300
  24250682.141                                    24250687.719   127438091.844 6
  99302506.43443        39.900          19.300
  20783861.258                    20783866.957    20783867.012   109220146.184 8
  85106468.857 8        50.400          48.500
  21335403.703                    21335412.977                   112118274.991 7
  87364977.122 7        47.700          47.300
 14  1  9  2  0  0.0000000  4  5
MORP (COGO code)                                            COMMENT
   0.033      (antenna height)                              COMMENT
 +55.21279000 (latitude)                                    COMMENT
  -1.68549700 (longitude)                                   COMMENT
0144.425      (elevation)                                   COMMENT
 14  1  9  2  0  0.0000000  0  7G02G12G29G23G21G31G25
  23520666.047                                    23520668.695   123601975.889 7
  96313233.57744        44.300          27.600
  24434568.141                    24434574.426    24434574.656   128404475.026 6
 100055504.057 5        37.800          35.900
  20214305.906                    20214312.543    20214312.480   106226878.365 8
  82774243.975 8        52.600          51.200
  24467940.719                                                   128579965.168 6
                        36.700
  24232396.398                                    24232403.031   127342006.156 6
  99227634.46843        40.100          18.600
  20785156.242                    20785162.059    20785161.996   109226951.306 8
  85111771.545 8        50.000          48.600
  21348518.672                    21348527.535                   112187193.146 7
  87418679.567 7        47.900          47.900
 14  1  9  2  0 30.0000000  0  7G02G12G29G23G21G31G25
  23532061.859                                    23532065.387   123661863.800 7
  96359899.45544        44.700          26.300
  24454198.570                    24454206.086    24454205.848   128507636.763 6
 100135889.758 6        37.000          36.700
  20216884.695                    20216890.512    20216890.742   106240427.940 8
  82784802.082 8        52.100          51.200
  24459096.977                                                   128533494.689 6
                        37.100
  24214135.078                                    24214140.891   127246039.933 6
  99152855.57143        40.000          20.100
  20786558.789                    20786564.371    20786564.191   109234322.964 8
  85117515.677 8        50.400          48.700
  21361695.031                    21361704.246                   112256437.054 7
  87472635.849 7        47.800          47.800
 14  1  9  2  1  0.0000000  0  7G02G12G29G23G21G31G25
  23543541.766                                    23543544.707   123722187.219 7
  96406904.72644        44.100          27.700
  24473844.563                    24473851.141    24473850.844   128610877.134 6
 100216336.725 5        36.900          35.000
  20219560.039                    20219566.676    20219566.613   106254487.252 8
  82795757.382 8        52.200          50.500
  24450353.313                                                   128487545.305 6
                        37.600
  24195895.281                                    24195902.324   127150194.477 6
  99078170.84643        39.600          19.000
  20788069.477                    20788075.117    20788075.113   109242260.624 8
  85123700.859 8        51.200          48.300
  21374933.922                    21374942.902                   112326004.838 7
  87526844.499 7        47.900          47.800
 14  1  9  2  1 30.0000000  0  7G02G12G29G23G21G31G25
  23555103.094                                    23555106.797   123782948.098 7
  96454250.85444        43.900          27.500
  24493505.602                    24493513.000    24493512.820   128714198.237 6
 100296846.619 5        36.600          35.700
  20222333.008                    20222339.586    20222339.406   106269060.603 8
  82807113.240 8        52.700          50.200
  24441712.250                                                   128442122.307 6
                        37.100
  24177681.891                                    24177688.465   127054475.508 6
  99003584.59643        39.300          19.300
  20789687.977                    20789694.145    20789694.023   109250768.180 8
  85130330.111 8        51.200          48.100
  21388233.672                    21388243.355                   112395899.210 8
  87581307.633 7        48.500          47.400
 14  1  9  2  2  0.0000000  0  7G02G12G29G23G21G31G25
  23566747.992                                    23566751.344   123844140.296 7
  96501933.08644        44.600          28.000
  24513181.602                    24513188.766    24513188.938   128817595.703 6
 100377415.992 6        36.400          36.100
  20225203.398                    20225209.508    20225209.387   106284141.983 8
  82818864.965 8        52.600          50.800
  24433166.203                                                   128397223.112 6
                        36.900
  24159490.195                                    24159496.535   126958881.232 6
  98929095.60143        39.800          19.000
  20791414.477                    20791420.820    20791420.758   109259841.798 8
  85137400.453 8        50.400          48.400
  21401595.914                    21401604.953                   112466114.990 8
  87636021.216 7        48.400          47.300
 14  1  9  2  2 30.0000000  0  7G02G12G29G23G21G31G25
  23578474.648                                    23578478.527   123905763.208 7
  96549950.92744        44.200          26.900
  24532872.664                    24532879.770    24532879.063   128921069.714 5
 100458045.057 6        35.800          36.400
  20228169.813                    20228176.918    20228176.563   106299731.826 8
  82831012.902 8        52.400          51.200
  24424721.891                                                   128352850.409 6
                        36.000
  24141323.945                                    24141330.930   126863415.222 6
  98854706.53243        39.400          19.900
  20793249.617                    20793254.965    20793255.020   109269482.335 8
  85144912.546 7        50.700          47.800
  21415018.898                    21415027.703                   112536652.478 8
  87690985.486 7        48.100          47.600
 14  1  9  2  3  0.0000000  0  7G02G12G29G23G21G31G25
  23590282.820                                    23590286.406   123967815.632 7
  96598303.45944        43.000          26.800
  24552577.305                    24552584.645    24552584.523   129024619.633 5
 100538733.281 5        35.100          35.800
  20231233.133                    20231239.477    20231239.414   106315829.360 8
  82843556.435 8        52.500          50.500
  24416380.516                                    24416383.574   128309006.397 6
  99981009.20342        36.600          15.600
  24123182.406                                    24123188.922   126768080.085 6
  98780419.41543        39.000          19.600
  20795192.102                    20795198.094    20795198.207   109279690.506 8
  85152866.950 8        51.100          48.200
  21428502.516                    21428511.730                   112607511.094 8
  87746199.977 7        48.800          47.100
 14  1  9  2  3 30.0000000  0  7G02G12G29G23G21G31G25
  23602172.445                                    23602176.148   124030295.931 7
  96646989.41244        43.600          26.500
  24572296.445                    24572303.668    24572303.957   129128244.468 5
 100619479.860 6        34.800          36.000
  20234392.531                    20234399.109    20234399.105   106332433.593 8
  82856494.806 8        52.800          51.000
  24408135.875                                    24408142.391   128265692.882 6
  99947258.39142        36.400          15.600
  24105065.609                                    24105072.418   126672878.824 6
  98706236.64043        37.300          18.300
  20797242.914                    20797248.379    20797248.316   109290466.841 8
  85161264.085 8        51.500          48.300
  21442047.664                    21442056.879                   112678690.150 8
  87801664.160 8        48.700          48.000
 14  1  9  2  4  0.0000000  0  7G02G12G29G23G21G31G25
  23614142.773                                    23614146.711   124093201.902 7
  96696007.04044        43.200          25.600
  24592029.742                    24592036.438    24592036.551   129231943.168 5
 100700283.963 6        35.000          36.000
  20237648.898                    20237654.773    20237654.652   106349544.031 8
  82869827.629 8        52.500          50.800
  24399996.563                                    24400000.910   128222910.824 6
  99913921.75042        37.900          16.300
  24086975.258                                    24086982.125   126577813.205 6
  98632159.51143        38.900          19.300
  20799401.406                    20799406.930    20799406.926   109301810.766 8
  85170103.504 8        51.400          48.300
  21455653.289                    21455662.211                   112750188.217 8
  87857376.920 7        49.100          47.900
 14  1  9  2  4 30.0000000  0  7G02G12G29G23G21G31G25
  23626193.758                                    23626197.637   124156532.807 7
  96745355.78444        43.200          25.300
  24611777.297                    24611784.227    24611784.223   129335715.847 5
 100781145.702 5        35.500          35.300
  20241001.148                    20241007.844    20241007.664   106367160.716 8
  82883554.921 8        53.200          51.600
  24391956.516                                    24391961.332   128180662.878 6
  99881001.26542        37.300          16.300
  24068911.055                                    24068918.215   126482886.775 6
  98558190.90743        38.600          19.000
  20801668.539                    20801674.238    20801674.117   109313723.853 8
  85179386.417 8        51.000          48.600
  21469320.102                    21469328.730                   112822005.596 8
  87913338.498 7        49.000          47.600
 14  1  9  2  5  0.0000000  0  7G02G12G29G23G21G31G25
  23638325.883                                    23638329.352   124220285.100 7
  96795032.88744        43.000          24.900
  24631538.422                    24631545.410    24631545.289   129439560.161 6
 100862063.255 5        36.700          34.800
  20244449.336                    20244455.738    20244455.676   106385280.713 8
  82897674.405 8        52.300          51.200
  24384018.781                                    24384023.598   128138949.313 6
  99848497.17642        38.400          15.600
  24050874.641                                    24050880.746   126388100.107 6
  98484331.15943        37.700          19.300
  20804043.672                    20804049.020    20804048.957   109326204.189 8
  85189111.343 8        51.800          48.200
  21483045.898                    21483055.348                   112894139.627 8
  87969546.825 7        49.100          47.700
 14  1  9  2  5 30.0000000  0  7G02G12G29G23G21G31G25
  23650537.680                                    23650541.324   124284456.968 7
  96845036.93244        42.400          25.500
  24651312.648                    24651320.223    24651319.926   129543475.150 6
 100943035.911 5        36.400          34.800
  20247992.813                    20247999.801    20247999.621   106403902.881 8
  82912185.202 8        52.800          51.100
  24376182.781                                    24376186.602   128097771.211 6
  99816410.31542        38.100          15.600
  24032863.930                                    24032870.445   126293455.633 6
  98410582.26343        38.700          19.000
  20806526.648                    20806532.465    20806532.461   109339252.159 8
  85199278.574 8        51.800          48.100
  21496833.086                    21496842.125                   112966589.324 8
  88026001.127 7        48.500          47.100
 14  1  9  2  6  0.0000000  0  7G02G12G29G23G21G31G25
  23662828.219                                    23662832.039   124349046.368 7
  96895366.31844        42.600          24.900
  24671100.703                    24671107.750    24671107.453   129647459.865 6
 101024062.896 5        38.100          35.000
  20251632.055                    20251638.340    20251638.336   106423026.574 8
  82927086.787 8        52.700          51.000
  24368448.750                                    24368453.508   128057130.299 6
  99784742.15142        39.900          16.300
  24014881.719                                    24014887.180   126198955.768 6
  98336946.00843        39.000          18.300
  20809117.547                    20809122.836    20809123.008   109352867.475 8
  85209887.885 8        51.500          48.300
  21510679.414                    21510688.512                   113039353.559 8
  88082700.524 7        48.800          47.800
 14  1  9  2  6 30.0000000  0  7G02G12G29G23G21G31G25
  23675198.086                                    23675202.023   124414052.785 7
  96946020.64143        42.000          23.500
  24690901.695                    24690907.863    24690907.977   129751514.747 6
 101105144.564 5        36.700          34.900
  20255366.273                    20255373.379    20255373.199   106442652.175 8
  82942379.478 8        52.100          51.200
  24360817.594                                    24360822.352   128017028.993 6
  99753494.36242        38.800          16.300
  23996925.648                                    23996933.043   126104603.973 6
  98263425.18243        39.200          18.300
  20811816.766                    20811821.879    20811821.992   109367051.602 8
  85220940.417 7        50.500          47.900
  21524586.016                    21524594.996                   113112432.859 8
  88139645.439 7        48.100          47.400
 14  1  9  2  7  0.0000000  0  7G02G12G29G23G21G31G25
  23687647.148                                    23687651.496   124479470.484 6
  96996995.46643        41.100          23.500
  24710714.672                    24710721.719    24710721.598   129855634.541 6
 101186276.829 5        36.900          34.900
  20259195.656                    20259202.117    20259202.230   106462774.896 8
  82958059.527 8        51.600          50.900
  24353288.484                                    24353293.301   127977464.737 6
  99722665.03642        38.700          16.300
  23979000.086                                    23979006.074   126010398.834 6
  98190018.64143        38.200          19.300
  20814623.000                    20814628.875    20814628.695   109381800.351 8
  85232432.929 7        50.800          47.800
  21538551.500                    21538560.539                   113185822.186 8
  88196831.920 7        48.200          47.300
 14  1  9  2  7 30.0000000  0  7G02G12G29G23G21G31G25
  23700174.258                                    23700177.902   124545301.645 7
  97048292.45644        42.100          24.700
  24730541.258                    24730548.012    24730548.477   129959823.257 6
 101267462.784 5        36.500          35.500
  20263120.195                    20263126.480    20263126.418   106483397.263 8
  82974128.917 8        51.600          51.500
  24345863.695                                    24345867.984   127938443.739 6
  99692259.06342        39.400          15.600
  23961102.898                                    23961109.121   125916346.775 6
  98116731.39543        38.700          19.900
  20817538.414                    20817543.234    20817543.289   109397118.038 8
  85244368.778 8        50.000          48.000
  21552576.742                    21552585.840                   113259524.845 7
  88254262.560 7        47.400          46.900
 14  1  9  2  8  0.0000000  0  7G02G12G29G23G21G31G25
  23712779.477                                    23712783.531   124611542.550 6
  97099908.73744        41.700          25.100
  24750380.750                    24750387.152    24750387.031   130064077.341 5
 101348699.652 5        35.800          35.100
  20267138.461                    20267144.922    20267144.977   106504516.669 8
  82990585.607 8        51.300          51.100
  24338541.328                                    24338545.969   127899964.959 6
  99662275.56942        37.700          15.600
  23943233.664                                    23943240.590   125822448.220 6
  98043563.71643        39.100          18.600
  20820560.938                    20820566.227    20820566.398   109413002.642 8
  85256746.392 8        51.200          48.400
  21566660.461                    21566670.262                   113333537.657 7
  88311934.871 7        47.700          47.300
 14  1  9  2  8 30.0000000  0  7G02G12G29G23G21G31G25
  23725461.977                                    23725465.797   124678190.461 7
  97151842.15543        42.100          22.900
  24770232.297                    24770239.109    24770238.988   130168395.538 5
 101429986.480 5        35.500          35.400
  20271252.063                    20271258.582    20271258.461   106526131.268 8
  83007428.162 8        50.900          51.100
  24331322.750                                    24331327.098   127862029.338 6
  99632715.36842        39.400          15.600
  23925395.867                                    23925401.855   125728705.084 6
  97970517.16643        40.100          19.900
  20823691.219                    20823696.625    20823696.797   109429453.408 8
  85269565.162 8        50.600          48.500
  21580803.281                    21580812.672                   113407859.209 7
  88369847.762 7        47.800          47.200
 14  1  9  2  9  0.0000000  0  7G02G12G29G23G21G31G25
  23738222.336                                    23738226.508   124745245.712 6
  97204092.98043        41.800          22.600
  24790095.516                    24790102.035    24790102.324   130272778.944 6
 101511324.127 5        36.400          34.300
  20275459.352                    20275465.930    20275466.102   106548242.256 8
  83024657.512 8        49.900          50.800
  24324207.922                                    24324211.859   127824639.887 6
  99603580.72442        39.100          15.600
  23907586.984                                    23907593.559   125635121.460 6
  97897594.90943        39.400          19.300
  20826930.078                    20826934.957    20826935.129   109446472.190 8
  85282826.544 8        49.600          48.300
  21595005.781                    21595014.938                   113482490.412 7
  88428001.937 7        47.300          47.100
 14  1  9  2  9 30.0000000  0  7G02G12G29G23G21G31G25
  23751059.430                                    23751063.367   124812701.970 6
  97256656.27743        41.800          22.600
  24809970.508                    24809976.617    24809977.258   130377222.653 6
 101592708.762 5        37.800          34.400
  20279760.609                    20279767.480    20279767.242   106570844.629 8
  83042269.758 8        50.700          51.200
  24317196.148                                    24317200.730   127787794.289 6
  99574869.94242        39.400          16.300
  23889808.773                                    23889814.762   125541695.852 6
  97824795.74743        39.900          20.400
  20830275.891                    20830280.711    20830280.824   109464054.903 8
  85296527.335 8        50.700          48.700
  21609265.578                    21609274.852                   113557426.318 8
  88486393.542 7        48.000          47.200
 14  1  9  2 10  0.0000000  0  7G02G12G29G23G21G31G25
  23763972.328                                    23763976.617   124880562.608 7
  97309534.67243        42.500          22.300
  24829857.672                    24829864.426    24829864.246   130481730.464 6
 101674143.355 5        37.800          35.000
  20284155.664                    20284162.535    20284162.473   106593942.264 8
  83060267.919 8        50.600          51.400
  24310289.641                                    24310294.398   127751499.103 6
  99546587.96742        38.800          17.400
  23872061.695                                    23872068.387   125448435.954 6
  97752125.71943        39.300          19.000
  20833730.156                    20833735.621    20833735.559   109482206.700 8
  85310671.569 7        51.600          47.400
  21623584.055                    21623593.328                   113632671.100 8
  88545025.839 7        48.400          46.600
 14  1  9  2 10 30.0000000  0  7G02G12G29G23G21G31G25
  23776961.484                                    23776965.832   124948820.933 7
  97362722.96543        42.000          22.600
  24849755.711                    24849762.875    24849763.164   130586297.642 6
 101755624.233 5        38.300          34.200
  20288644.273                    20288650.910    20288650.789   106617529.306 8
  83078647.440 8        50.700          51.300
  24303486.203                                    24303490.434   127715750.688 6
  99518732.09842        39.200          16.300
  23854345.906                                    23854352.832   125355339.233 6
  97679582.85043        38.800          20.400
  20837291.547                    20837296.836    20837296.832   109500922.559 8
  85325255.335 8        50.300          48.100
  21637960.320                    21637969.652                   113708219.094 7
  88603894.405 7        47.300          46.600
 14  1  9  2 11  0.0000000  0  7G02G12G29G23G21G31G25
  23790026.227                                    23790030.691   125017478.310 7
  97416222.19643        42.000          23.000
  24869666.570                    24869673.266    24869673.145   130690926.048 6
 101837152.843 5        38.700          33.100
  20293225.969                    20293232.957    20293233.012   106641608.002 8
  83097410.063 8        50.500          51.000
  24296788.680                                    24296793.379   127680553.417 6
  99491305.69742        39.400          17.400
  23836662.055                                    23836668.629   125262410.951 6
  97607171.22343        39.100          20.100
  20840960.641                    20840966.281    20840966.219   109520205.336 8
  85340280.833 7        50.300          47.800
  21652394.484                    21652403.758                   113784072.371 7
  88663000.854 7        46.600          46.300
 14  1  9  2 11 30.0000000  0  7G02G12G29G23G21G31G25
  23803167.195                                    23803171.133   125086530.825 6
  97470029.32843        41.900          22.600
  24889587.547                    24889594.770    24889595.059   130795612.811 6
 101918726.917 5        37.800          33.200
  20297901.523                    20297908.102    20297907.805   106666175.492 8
  83116553.571 8        50.500          51.200
  24290195.914                                    24290199.910   127645906.953 6
  99464308.52142        39.100          17.400
  23819010.516                                    23819017.207   125169651.538 6
  97534891.21643        39.900          20.600
  20844737.797                    20844743.496    20844743.199   109540053.403 8
  85355746.834 8        51.300          48.100
  21666886.914                    21666895.660                   113860228.085 7
  88722342.958 7        47.800          46.200
 14  1  9  2 12  0.0000000  0  7G02G12G29G23G21G31G25
  23816382.945                                    23816385.770   125155977.869 7
  97524143.89743        43.100          22.900
  24909519.680                    24909527.371    24909527.602   130900358.515 6
 102000346.956 5        37.000          33.100
  20302669.680                    20302676.199    20302676.137   106691231.910 8
  83136078.062 8        50.900          50.400
  24283707.719                                    24283712.418   127611813.577 6
  99437742.28142        38.300          16.900
  23801392.008                                    23801398.816   125077065.015 6
  97462745.89243        39.200          21.100
  20848622.203                    20848627.492    20848627.547   109560467.519 8
  85371653.916 7        50.500          47.600
  21681436.242                    21681445.633                   113936686.448 7
  88781920.906 7        47.800          46.600
 14  1  9  2 12 30.0000000  0  7G02G12G29G23G21G31G25
  23829672.891                                    23829676.242   125225816.891 7
  97578563.90644        43.100          25.100
  24929463.313                    24929470.066    24929470.941   131005161.629 6
 102082011.716 5        37.000          33.800
  20307530.430                    20307536.715    20307536.652   106716775.472 8
  83155982.144 8        50.800          51.000
  24277324.898                                    24277330.477   127578274.181 6
  99411607.73742        37.500          17.400
  23783807.313                                    23783812.773   124984653.089 6
  97390736.63043        39.200          20.400
  20852614.719                    20852620.359    20852620.355   109581446.869 8
  85388001.453 7        51.300          47.800
  21696043.313                    21696052.469                   114013446.131 8
  88841733.637 7        48.200          46.700
 14  1  9  2 13  0.0000000  0  7G02G12G29G23G21G31G25
  23843036.609                                    23843039.668   125296044.007 7
  97633286.34543        43.000          22.800
  24949417.531                    24949424.402    24949425.102   131110019.462 6
 102163719.104 5        37.000          32.600
  20312483.055                    20312489.867    20312489.629   106742802.942 8
  83176263.300 8        49.300          50.700
  24271048.898                                    24271053.422   127545288.157 6
  99385904.38142        38.300          15.600
  23766253.891                                    23766260.816   124892416.295 6
  97318863.82343        40.200          19.300
  20856714.203                    20856719.844    20856719.840   109602989.499 8
  85404787.902 8        50.200          48.500
  21710706.469                    21710716.387                   114090504.235 8
  88901778.911 7        49.000          46.900
 14  1  9  2 13 30.0000000  0  7G02G12G29G23G21G31G25
  23856474.211                                    23856477.328   125366657.058 7
  97688309.47743        43.000          23.200
  24969381.008                    24969387.879    24969388.168   131214930.616 6
 102245468.024 5        37.700          33.700
  20317528.086                    20317534.723    20317534.836   106769313.356 8
  83196920.778 8        50.800          51.000
  24264876.172                                    24264881.281   127512856.113 6
  99360632.68442        37.700          14.800
  23748736.461                                    23748742.684   124800356.784 6
  97247129.15343        40.300          20.900
  20860920.500                    20860926.199    20860926.078   109625095.038 8
  85422012.982 8        50.700          48.500
  21725427.023                    21725436.414                   114167859.430 8
  88962055.672 7        48.200          46.600
 14  1  9  2 14  0.0000000  0  7G02G12G29G23G21G31G25
  23869985.148                                    23869987.855   125437657.571 7
  97743634.52743        43.200          23.800
  24989356.219                    24989362.797    24989362.734   131319897.994 6
 102327260.761 5        37.400          33.000
  20322664.570                    20322671.910    20322671.789   106796308.992 8
  83217956.355 8        51.000          50.800
  24258811.422                                    24258816.180   127480983.022 6
  99335796.54042        38.000          14.800
  23731252.711                                    23731259.051   124708480.331 6
  97175537.16343        39.300          21.500
  20865235.008                    20865240.707    20865240.410   109647766.415 8
  85439678.971 8        51.400          48.100
  21740204.164                    21740213.555                   114245514.175 8
  89022565.850 7        48.100          46.400
 14  1  9  2 14 30.0000000  0  7G02G12G29G23G21G31G25
  23883568.625                                    23883571.684   125509041.262 7
  97799258.18043        43.000          22.600
  25009340.445                    25009346.965    25009347.840   131424918.670 6
 102409095.009 5        37.400          32.700
  20327893.828                    20327900.348    20327900.109   106823786.756 8
  83239367.606 8        50.500          51.100
  24252850.273                                    24252857.375   127449667.912 6
  99311395.15942        37.100          16.300
  23713804.133                                    23713809.945   124616786.983 6
  97104087.82843        40.200          20.600
  20869656.414                    20869662.289    20869662.168   109671001.316 8
  85457784.075 8        49.300          48.000
  21755038.070                    21755047.168                   114323465.610 8
  89083307.222 7        48.400          46.300
 14  1  9  2 15  0.0000000  0  7G02G12G29G23G21G31G25
  23897225.445                                    23897227.918   125580805.370 7
  97855178.24943        43.100          22.500
  25029335.688                    25029342.031    25029342.145   131529990.962 6
 102490969.453 5        37.300          32.800
  20333213.922                    20333220.090    20333220.145   106851744.491 8
  83261152.861 8        50.000          50.800
  24246998.898                                    24247004.535   127418911.071 5
  99287428.78742        35.000          16.300
  23696390.422                                    23696397.289   124525278.656 6
  97032782.65543        40.600          21.800
  20874184.789                    20874190.313    20874190.309   109694798.683 8
  85476327.445 7        48.600          47.600
  21769927.602                    21769936.934                   114401711.766 8
  89144278.249 7        48.100          46.700
 14  1  9  2 15 30.0000000  0  7G02G12G29G23G21G31G25
  23910953.344                                    23910955.934   125652948.175 7
  97911393.40943        43.300          22.300
  25049340.031                    25049346.844    25049346.605   131635113.960 6
 102572883.420 5        36.900          32.700
  20338625.305                    20338631.824    20338631.703   106880180.858 8
  83283311.070 8        49.900          50.300
  24241252.609                                    24241257.777   127388713.590 6
  99263898.32842        38.200          16.900
  23679012.367                                    23679018.766   124433957.371 6
  96961623.24043        39.800          20.600
  20878820.328                    20878826.027    20878826.082   109719158.208 8
  85495308.886 8        49.400          48.600
  21784873.719                    21784882.992                   114480251.613 8
  89205478.129 7        48.300          47.000
 14  1  9  2 16  0.0000000  0  7G02G12G29G23G21G31G25
  23924753.430                                    23924756.078   125725467.393 7
  97967901.86943        42.300          23.200
  25069353.586                    25069359.344    25069359.574   131740286.566 6
 102654836.051 5        37.800          33.200
  20344127.633                    20344133.684    20344133.621   106909094.798 8
  83305841.421 8        51.500          50.500
  24235612.781                                    24235617.539   127359076.432 6
  99240804.46642        37.600          16.300
  23661670.898                                    23661677.648   124342825.571 6
  96890611.45443        39.200          20.400
  20883562.867                    20883568.098    20883568.270   109744079.469 8
  85514728.033 8        50.700          48.000
  21799874.656                    21799883.578                   114559084.055 8
  89266905.999 7        48.500          47.200
 14  1  9  2 16 30.0000000  0  7G02G12G29G23G21G31G25
  23938624.375                                    23938628.078   125798361.275 7
  98024702.25843        42.700          22.500
  25089376.141                    25089382.719    25089383.594   131845508.435 6
 102736827.066 5        38.500          33.200
  20349720.406                    20349726.750    20349726.629   106938485.813 8
  83328743.517 8        49.600          50.900
  24230080.297                                    24230084.762   127330000.884 6
  99218148.16142        36.900          15.600
  23644365.328                                    23644371.551   124251885.658 6
  96819749.21143        39.900          20.600
  20888412.055                    20888417.695    20888417.574   109769562.399 8
  85534584.843 8        49.000          48.000
  21814932.063                    21814940.457                   114638208.548 8
  89328561.443 7        48.700          46.600
 14  1  9  2 17  0.0000000  0  7G02G12G29G23G21G31G25
  23952566.734                                    23952569.559   125871628.503 7
  98081793.57443        42.200          21.700
  25109410.219                    25109415.273    25109415.738   131950779.277 6
 102818856.219 5        38.800          31.500
  20355403.992                    20355410.336    20355410.273   106968353.032 8
  83352016.685 8        51.100          50.700
  24224654.711                                    24224659.586   127301488.977 6
  99195931.13942        37.500          14.800
  23627096.914                                    23627103.840   124161140.873 6
  96749039.00743        37.700          21.100
  20893368.180                    20893374.055    20893373.934   109795607.098 8
  85554879.392 8        50.700          48.100
  21830044.289                    21830053.621                   114717624.618 8
  89390444.076 7        48.300          47.000
 14  1  9  2 17 30.0000000  0  8G02G12G10G29G23G21G31G25
  23966579.945                                    23966582.418   125945265.322 6
  98139172.88543        41.900          21.100
  25129450.000                    25129456.168    25129456.984   132056096.316 6
 102900921.380 5        38.500          31.900
  24676211.555                                                   129674344.608 5
                        32.400
  20361177.313                    20361183.949    20361183.945   106998693.092 8
  83375658.294 8        50.700          50.200
  24219336.039                                    24219339.918   127273539.565 6
  99174152.39842        37.900          17.400
  23609866.922                                    23609872.676   124070591.640 6
  96678481.18943        38.900          20.900
  20898430.781                    20898436.480    20898436.477   109822211.313 8
  85575609.942 7        50.900          47.800
  21845211.602                    21845220.289                   114797329.358 8
  89452551.657 7        48.300          46.600
 14  1  9  2 18  0.0000000  0  8G02G12G10G29G23G21G31G25
  23980662.078                                    23980664.785   126019269.863 6
  98196838.74643        41.400          20.100
  25149500.109                    25149506.453    25149507.211   132161459.163 6
 102983022.263 5        38.900          31.300
  24678834.578                                                   129688127.001 5
                        32.800
  20367040.719                    20367047.648    20367047.352   107029505.551 8
  83399668.010 8        50.800          50.300
  24214125.992                                    24214129.402   127246153.978 6
  99152812.97742        37.300          17.400
  23592672.891                                    23592679.699   123980240.653 6
  96608077.82643        38.000          20.900
  20903599.680                    20903605.203    20903605.316   109849375.125 8
  85596776.534 7        50.400          47.900
  21860433.469                    21860442.566                   114877322.251 8
  89514883.774 7        48.100          46.300
 14  1  9  2 18 30.0000000  0  9G02G05G12G10G29G23G21G31G25
  23994813.813                                    23994817.281   126093640.401 6
  98254789.78643        40.900          20.100
  24947706.117                                                   131100995.424 5
                        32.900
  25169557.875                    25169564.395    25169565.797   132266867.553 6
 103065158.613 5        39.000          31.000
  24681571.500                                                   129702512.621 5
                        32.200
  20372993.992                    20373000.453    20373000.332   107060790.010 8
  83424045.522 8        51.100          50.400
  24209021.617                                    24209025.965   127219333.760 6
  99131914.09143        38.100          18.300
  23575517.641                                    23575524.332   123890090.685 6
  96537831.13743        37.900          20.900
  20908875.719                    20908881.418    20908881.238   109877098.620 8
  85618379.238 7        50.500          47.600
  21875710.656                    21875719.461                   114957602.770 7
  89577440.004 7        47.800          46.400
 14  1  9  2 19  0.0000000  0  9G02G05G12G10G29G23G21G31G25
  24009035.344                                    24009039.281   126168375.598 6
  98313024.96743        40.300          19.600
  24935125.992                    24935131.398                   131034886.213 5
 102105191.104 5        34.100          30.200
  25189625.094                    25189631.438    25189632.137   132372320.923 6
 103147330.013 5        37.900          30.900
  24684425.273                                                   129717501.574 5
                        32.200
  20379036.633                    20379042.859    20379042.914   107092545.218 8
  83448789.846 8        50.800          50.600
  24204025.289                                    24204030.633   127193080.536 6
  99111457.05743        37.300          18.600
  23558401.945                                    23558408.461   123800144.563 6
  96467743.28643        39.000          20.600
  20914257.719                    20914263.594    20914263.473   109905381.514 8
  85640417.843 8        50.900          48.000
  21891041.758                    21891050.973                   115038170.090 7
  89640219.712 7        47.400          46.300
 14  1  9  2 19 30.0000000  0 10G02G05G12G10G29G23G21G16G31G25
  24023325.125                                    24023329.648   126243472.254 6
  98371541.81343        40.300          19.600
  24922617.609                    24922623.309                   130969150.555 5
 102053968.549 5        34.000          31.900
  25209702.195                    25209707.016    25209707.598   132477816.812 6
 103229534.519 5        38.300          31.500
  24687390.992                                                   129733092.163 5
                        32.300
  20385168.625                    20385175.320    20385175.141   107124768.522 8
  83473898.933 8        51.200          51.000
  24199137.320                                    24199141.551   127167393.778 6
  99091441.43642        37.600          17.400
  23541324.977                                    23541331.492   123710403.394 6
  96397815.14643        38.600          21.500
  24544729.477                                                   128983419.841 5
                        32.500
  20919745.469                    20919751.871    20919751.750   109934222.102 8
  85662891.020 8        50.800          48.600
  21906427.211                    21906436.250                   115119022.020 8
  89703221.189 7        48.200          46.500
 14  1  9  2 20  0.0000000  0 10G02G05G12G10G29G23G21G16G31G25
  24037685.180                                    24037688.414   126318930.257 6
  98430340.24843        39.200          19.000
  24910179.805                    24910187.145                   130903793.934 5
 102003041.337 5        34.400          32.300
  25229785.125                    25229791.176    25229792.520   132583356.976 6
 103311773.535 5        37.100          30.800
  24690472.352                                                   129749286.500 5
                        30.100
  20391389.820                    20391396.047    20391395.984   107157460.710 8
  83499373.374 8        48.300          50.400
  24194357.180                                    24194361.762   127142276.840 6
  99071869.83342        36.800          16.900
  23524287.586                                    23524293.457   123620871.717 6
  96328050.22643        39.400          22.000
  24524951.086                                                   128879485.783 5
                        34.000
  20925340.242                    20925346.293    20925346.172   109963622.182 7
  85685800.169 7        47.300          47.800
  21921867.266                    21921876.480                   115200160.045 8
  89766445.610 7        48.200          46.400
 14  1  9  2 20 30.0000000  0 10G02G05G12G10G29G23G21G16G31G25
  24052111.781                                    24052115.367   126394743.118 6
  98489415.18443        38.600          19.600
  24897814.352                    24897821.047                   130838814.118 5
 101952407.727 5        33.600          32.300
  25249875.234                    25249882.574    25249883.391   132688936.018 6
 103394042.875 5        37.100          30.400
  24693666.344                                                   129766079.242 4
                        28.900
  20397698.984                    20397705.621    20397705.500   107190616.051 8
  83525208.708 8        50.700          50.500
  24189685.227                                    24189689.926   127117725.552 6
  99052738.92343        38.300          18.300
  23507289.789                                    23507295.895   123531546.830 6
  96258446.45443        38.700          21.800
  24505186.461                                                   128775620.253 5
                        34.300
  20931040.773                    20931046.238    20931046.352   109993576.310 8
  85709141.038 8        50.400          48.000
  21937360.805                    21937370.195                   115281578.159 7
  89829888.292 7        47.200          46.100
 14  1  9  2 21  0.0000000  0 10G02G05G12G10G29G23G21G16G31G25
  24066605.742                                    24066610.383   126470913.314 6
  98548768.51943        39.200          18.300
  24885522.766                    24885528.992                   130774218.707 5
 101902073.665 5        35.100          32.300
  25269974.859                    25269982.375                   132794557.624 6
 103476345.370 4        36.400          29.200
  24696977.523                                                   129783475.190 4
                        28.900
  20404096.922                    20404103.676    20404103.730   107224238.951 8
  83551408.375 8        51.100          50.800
  24185122.469                                    24185126.875   127093745.867 6
  99034053.43942        37.300          17.800
  23490332.430                                    23490338.418   123442436.163 6
  96189009.61443        39.100          21.800
  24485436.594                                                   128671829.671 5
                        33.900
  20936846.953                    20936852.770    20936852.707   110024089.023 8
  85732917.166 7        50.100          47.900
  21952908.359                    21952917.633                   115363280.259 7
  89893552.263 7        47.700          46.100
 14  1  9  2 21 30.0000000  0 10G02G05G12G10G29G23G21G16G31G25
  24081167.211                                    24081172.496   126547436.174 6
  98608396.65943        38.200          19.000
  24873303.039                    24873310.789                   130710007.911 5
 101852039.289 5        34.300          33.900
  25290081.852                    25290087.492                   132900218.318 5
 103558678.323 4        35.500          29.600
  24700402.781                                                   129801471.17314
                        28.300
  20410583.617                    20410590.430    20410590.484   107258324.757 8
  83577968.750 8        50.700          50.800
  24180667.688                                    24180671.918   127070336.064 6
  99015812.01242        36.500          17.800
  23473415.727                                    23473421.832   123353539.527 6
  96119739.51143        39.400          22.900
  24465699.398                                                   128568112.946 5
                        34.000
  20942759.063                    20942764.703    20942764.582   110055157.175 8
  85757126.096 8        50.300          48.100
  21968509.039                    21968518.488                   115445262.660 8
  89957434.659 7        48.100          45.800
 14  1  9  2 22  0.0000000  0 10G02G05G12G10G29G23G21G16G31G25
  24095797.016                                    24095801.422   126624309.715 6
  98668298.05542        37.800          17.400
  24861157.719                    24861165.176                   130646184.420 5
 101802306.698 5        34.000          34.300
  25310196.031                    25310201.613                   133005917.680 5
 103641041.410 4        35.200          29.600
  24703939.445                                                   129820066.141 4
                        28.600
  20417157.617                    20417164.254    20417164.367   107292872.359 8
  83604888.962 8        51.400          50.200
  24176322.000                                    24176326.406   127047496.818 6
  98998015.18642        38.300          17.400
  23456540.922                                    23456546.441   123264859.059 6
  96050637.89543        40.400          21.500
  24445975.508                                                   128464470.951 5
                        34.900
  20948776.617                    20948782.727    20948782.488   110086780.250 8
  85781767.438 8        50.000          48.200
  21984162.641                    21984171.680                   115527524.551 7
  90021534.824 7        47.900          46.100
 14  1  9  2 22 30.0000000  0 10G02G05G12G10G29G23G21G16G31G25
  24110491.859                                    24110496.324   126701531.463 6
  98728470.82743        37.800          18.300
  24849086.102                    24849094.496                   130582751.004 5
 101752878.071 5        33.300          33.600
  25330316.961                    25330323.539                   133111654.095 5
 103723433.359 4        34.500          28.900
  24707594.078                                                   129839259.916 4
                        29.400
  20423819.547                    20423825.832    20423825.828   107327879.690 8
  83632167.408 8        50.000          50.800
  24172083.703                                    24172089.281   127025228.597 6
  98980663.37742        37.200          17.800
  23439706.305                                    23439712.527   123176396.434 6
  95981706.01043        40.200          21.700
  24426267.523                                                   128360904.810 5
                        34.600
  20954900.016                    20954905.891    20954905.711   110118956.938 7
  85806840.173 7        47.900          47.900
  21999869.563                    21999879.188                   115610064.203 7
  90085851.428 7        47.600          46.000
 14  1  9  2 23  0.0000000  0 10G02G05G12G10G29G23G21G16G31G25
  24125252.477                                    24125256.707   126779099.170 6
  98788913.14443        37.500          18.300
  24837088.602                    24837097.816                   130519709.959 5
 101703755.187 5        32.000          33.800
  25350445.313                    25350450.836                   133217426.511 5
 103805853.382 4        33.900          28.100
  24711359.445                                                   129859052.28814
                        27.300
  20430568.328                    20430574.906    20430574.902   107363345.513 8
  83659803.121 8        51.100          50.600
  24167955.063                                    24167959.469   127003531.907 6
  98963756.84943        37.900          18.600
  23422915.063                                    23422920.934   123088154.155 6
  95912945.81943        40.500          22.800
  24406575.234                                                   128257415.783 5
                        35.000
  20961128.008                    20961133.824    20961133.762   110151686.591 8
  85832343.778 7        50.200          47.800
  22015629.242                    22015638.105                   115692880.593 8
  90150383.662 7        48.100          46.500
 14  1  9  2 23 30.0000000  0 10G02G05G12G10G29G23G21G16G31G25
  24140078.453                                    24140083.621   126857012.291 6
  98849624.61942        37.400          17.400
  24825168.266                    24825177.363                   130457065.781 5
 101654941.529 5        31.600          34.700
  25370579.094                    25370585.496                   133323235.882 5
 103888302.194 4        33.000          28.300
  24715241.219                                                   129879442.563 4
                        28.300
  20437404.633                    20437411.094    20437411.090   107399270.658 8
  83687796.746 8        51.300          50.000
  24163935.930                                    24163940.336   126982409.200 6
  98947297.57243        39.000          18.600
  23406165.641                                    23406171.395   123000136.268 6
  95844360.48443        40.400          21.800
  24386899.125                                                   128154007.038 6
                        36.800
  20967461.836                    20967467.184    20967467.121   110184970.420 8
  85858279.218 7        49.600          47.500
  22031441.344                    22031450.148                   115775974.327 7
  90215132.004 7        47.900          45.600
 14  1  9  2 24  0.0000000  0 10G02G05G12G10G29G23G21G16G31G25
  24154971.070                                    24154974.363   126935266.632 6
  98910601.97042        38.000          17.400
  24813322.281                    24813331.379                   130394818.935 5
 101606437.508 5        30.700          33.100
  25390722.609                    25390727.840                   133429079.193 5
 103970777.395 4        32.800          26.700
  24719234.063                                                   129900429.838 4
                        28.600
  20444327.961                    20444334.305    20444334.184   107435651.240 8
  83716145.252 8        51.300          48.800
  24160026.117                                    24160029.938   126961859.145 6
  98931284.56442        39.800          17.800
  23389458.977                                    23389464.262   122912342.764 6
  95775949.98543        40.800          22.500
  24367233.930                                                   128050677.581 6
                        36.600
  20973900.453                    20973906.094    20973906.148   110218805.305 8
  85884644.053 7        49.500          47.400
  22047305.844                    22047315.000                   115859342.081 7
  90280093.868 7        47.800          45.100
 14  1  9  2 24 30.0000000  0 10G02G05G12G10G29G23G21G16G31G25
  24169926.367                                    24169930.188   127013860.555 6
  98971843.95543        37.500          18.600
  24801553.180                    24801562.336                   130332972.415 5
 101558245.400 5        30.700          33.100
  25410868.633                    25410874.508                   133534955.876 5
 104053278.650 4        31.600          26.700
  24723341.398                                                   129922013.585 4
                        28.000
  20451337.242                    20451343.586    20451343.523   107472486.113 8
  83744847.756 8        51.900          49.500
  24156224.094                                    24156228.031   126941882.675 6
  98915718.49643        38.600          18.300
  23372794.992                                    23372800.922   122824776.026 6
  95707716.21843        41.400          23.000
  24347585.680                                                   127947429.373 6
                        36.900
  20980443.781                    20980449.422    20980449.301   110253190.806 8
  85911437.938 7        49.900          47.300
  22063221.672                    22063231.238                   115942983.281 7
  90345268.817 7        47.300          45.800
 14  1  9  2 25  0.0000000  0 10G02G05G12G10G29G23G21G16G31G25
  24184946.266                                    24184950.730   127092792.507 6
  99033349.31942        37.300          17.400
  24789860.234                    24789870.328                   130271530.098 5
 101510368.257 5        30.500          32.500
  25431022.578                    25431029.098                   133640866.200 5
 104135806.204 4        31.000          26.000
  24727561.992                                                   129944193.643 5
                        30.500
  20458433.297                    20458439.699    20458439.461   107509774.990 8
  83773904.034 8        51.800          49.700
  24152531.813                                    24152536.453   126922481.440 6
  98900600.64043        38.100          18.300
  23356176.125                                    23356181.645   122737439.136 7
  95639661.54543        42.100          22.500
  24327955.930                                                   127844264.725 6
                        37.300
  20987091.547                    20987097.598    20987097.652   110288127.231 8
  85938661.107 7        48.600          47.100
  22079190.016                    22079199.875                   116026897.699 8
  90410656.666 7        48.100          45.600
 14  1  9  2 25 30.0000000  0 10G02G05G12G10G29G23G21G16G31G25
  24200030.313                                    24200035.129   127172061.082 6
  99095117.03643        37.800          18.600
  24778246.859                    24778256.074                   130210494.824 5
 101462808.290 5        30.100          33.200
  25451183.984                    25451188.980                   133746809.523 5
 104218359.397 4        30.500          25.600
  24731896.164                                                   129966968.523 4
                        29.400
  20465615.039                    20465621.617    20465621.730   107547517.121 8
  83803313.487 8        50.300          49.500
  24148949.617                                    24148953.789   126903656.135 6
  98885931.60642        38.900          17.800
  23339600.398                                    23339606.211   122650334.954 6
  95571788.20143        40.900          23.000
  24308340.164                                    24308345.508   127741185.221 6
  99538606.25742        37.100          16.300
  20993844.867                    20993850.625    20993850.621   110323614.194 8
  85966313.275 7        48.400          47.300
  22095211.219                    22095219.965                   116111084.576 7
  90476256.815 7        47.300          45.800
 14  1  9  2 26  0.0000000  0 10G02G05G12G10G29G23G21G16G31G25
  24215178.281                                    24215182.922   127251660.692 6
  99157142.62243        38.400          18.300
  24766709.602                    24766718.465                   130149865.861 5
 101415564.935 5        30.500          33.000
  25471348.867                    25471354.801                   133852781.614 5
 104300935.026 3        30.300          23.200
  24736342.516                                                   129990335.742 4
                        29.100
  20472882.438                    20472889.016    20472888.895   107585707.665 8
  83833072.355 8        51.800          50.400
  24145475.430                                    24145480.656   126885404.721 6
  98871709.74443        37.800          18.300
  23323068.555                                    23323075.773   122563462.605 6
  95504095.49143        41.800          22.900
  24288740.570                                    24288746.559   127638188.712 6
  99458349.28142        37.500          17.400
  21000701.711                    21000707.293    21000707.289   110359647.680 8
  85994391.301 7        49.000          47.300
  22111281.969                    22111291.066                   116195539.604 7
  90542065.910 7        47.500          45.200
 14  1  9  2 26 30.0000000  0 10G02G05G12G10G29G23G21G16G31G25
  24230388.508                                    24230392.973   127331591.212 6
  99219426.04642        38.700          17.800
  24755250.992                    24755259.211                   130089648.616 4
 101368642.410 5        29.900          33.700
  25491519.992                    25491527.039                   133958783.970 5
 104383534.235 4        30.700          25.700
  24740903.984                                                   130014296.542 4
                        27.600
  20480235.773                    20480241.766    20480241.820   107624347.612 8
  83863181.406 8        52.000          49.500
  24142113.633                                    24142117.922   126867729.814 6
  98857937.09143        39.200          18.600
  23306582.438                                    23306589.070   122476826.260 6
  95436586.68443        41.500          21.800
  24269157.227                                    24269163.625   127535279.253 6
  99378160.15242        38.400          16.300
  21007663.086                    21007668.668    21007668.547   110396229.183 8
  86022896.349 7        49.900          46.600
  22127404.805                    22127413.727                   116280263.993 7
  90608084.902 7        47.500          45.700
 14  1  9  2 27  0.0000000  0 10G02G05G12G10G29G23G21G16G31G25
  24245661.406                                    24245666.105   127411850.387 6
  99281965.65443        37.600          19.000
  24743870.742                    24743878.668                   130029844.920 5
 101322042.139 5        30.100          32.900
  25511697.641                    25511705.039                   134064815.519 5
 104466156.135 4        30.800          26.800
  24745575.742                                                   130038850.053 4
                        28.600
  20487674.109                    20487679.926    20487679.980   107663435.000 8
  83893639.107 8        52.100          49.900
  24138858.297                                    24138863.816   126850631.316 6
  98844613.64542        39.500          17.400
  23290141.805                                    23290147.793   122390428.288 6
  95369263.62343        41.800          23.600
  24249591.211                                    24249596.730   127432457.897 6
  99298039.56842        37.800          16.300
  21014728.359                    21014734.352    21014734.113   110433357.557 8
  86051827.525 7        48.500          47.600
  22143578.445                    22143587.543                   116365256.390 7
  90674312.725 7        47.800          44.500
 14  1  9  2 27 30.0000000  0  9G02G05G12G29G23G21G16G31G25
  24260997.453                                    24261000.277   127492436.758 6
  99344760.19442        37.600          17.400
  24732570.766                    24732577.168                   129970458.113 5
 101275766.723 5        31.000          33.200
  25531880.234                    25531886.578                   134170876.270 5
 104548800.834 4        31.000          26.500
  20495196.734                    20495203.313    20495203.250   107702969.147 8
  83924444.941 8        49.300          50.000
  24135715.625                                    24135720.148   126834110.840 6
  98831740.52742        38.900          17.800
  23273746.477                                    23273752.758   122304271.149 7
  95302128.22944        42.300          24.000
  24230042.047                                    24230047.566   127329726.570 6
  99217989.22642        37.300          16.300
  21021897.500                    21021903.668    21021903.488   110471032.412 7
  86081184.533 7        47.300          47.900
  22159802.938                    22159811.859                   116450516.289 7
  90740748.989 7        47.300          44.800
