     2.11           OBSERVATION DATA    G (GPS)             RINEX VERSION / TYPE
teqc  2013Mar15                         20140107 01:02:40UTCPGM / RUN BY / DATE
Linux 2.4.20-8|Pentium IV|gcc -static|Linux|486/DX+         COMMENT
   0.033      (antenna height)                              COMMENT
 +55.21279000 (latitude)                                    COMMENT
  -1.68549700 (longitude)                                   COMMENT
0144.425      (elevation)                                   COMMENT
BIT 2 OF LLI FLAGS DATA COLLECTED UNDER A/S CONDITION       COMMENT
MORP (COGO code)                                            COMMENT
MORP                                                        MARKER NAME
13299S001                                                   MARKER NUMBER
Matt King           NCL                                     OBSERVER / AGENCY
4843K3347           TRIMBLE NETR8       4.19                REC # / TYPE / VERS
221                 AMAD/M_T        NONE                    ANT # / TYPE
  3645667.8584  -107277.2886  5215053.4919                  APPROX POSITION XYZ
        0.0330        0.0000        0.0000                  ANTENNA: DELTA H/E/N
     1     1                                                WAVELENGTH FACT L1/2
     8    C1    P1    C2    P2    L1    L2    S1    S2      # / TYPES OF OBSERV
    30.0000                                                 INTERVAL
    16                                                      LEAP SECONDS
Forced Modulo Decimation to 30 seconds                      COMMENT
 SNR is mapped to RINEX snr flag value [0-9]                COMMENT
  L1 & L2: min(max(int(snr_dBHz/6), 0), 9)                  COMMENT
  2014     1     6    11    18   39.0000000     GPS         TIME OF FIRST OBS
                                                            END OF HEADER
 14  1  6 11 18 39.0000000  0  5G17G20G23G01G32
  21689805.359                    21689812.582    21689812.695   113980711.15917
  88816172.82317        47.300          46.300
  20086347.797                                    20086355.074   105554483.09318
  82250276.17356        49.200          40.500
  23149824.141                                    23149830.363   121653174.72617
  94794706.14154        46.200          26.200
  20844897.297                    20844908.621                   109540675.20118
  85356417.66118        50.700          50.700
  21162238.664                                    21162246.879   111208314.73218
  86655864.44756        50.500          38.900
 14  1  6 11 19  9.0000000  0  7G31G17G20G23G01G32G11
  23965095.383                    23965104.949    23965104.770   125937379.968 6
  98133013.779 6        40.200          39.300
  21684524.203                    21684531.660    21684531.773   113952940.546 7
  88794533.368 7        46.800          46.400
  20082570.195                                    20082577.355   105534616.099 8
  82234795.38946        49.900          40.800
  23130554.766                                    23130561.398   121551882.396 7
  94715777.10044        46.300          28.500
  20855649.094                    20855660.359                   109597173.252 8
  85400442.087 8        50.700          50.700
  21173637.820                                    21173646.504   111268217.169 8
  86702541.63946        49.300          39.000
  22736228.688                                    22736236.961   119479572.893 7
  93101062.44144        44.500          26.700
 14  1  6 11 19 39.0000000  0  7G31G17G20G23G01G32G11
  23954055.406                    23954065.559    23954065.320   125879367.657 6
  98087809.503 6        39.200          39.200
  21679349.266                    21679356.957    21679357.188   113925746.087 7
  88773342.872 7        46.800          45.300
  20078881.703                                    20078889.039   105515230.976 8
  82219690.09146        49.100          41.800
  23111322.547                                    23111329.414   121450814.913 7
  94637023.24944        46.300          28.500
  20866478.016                    20866489.457                   109654079.233 8
  85444784.373 8        50.800          50.400
  21185105.930                                    21185114.262   111328479.543 8
  86749499.30246        50.000          38.600
  22756026.656                                    22756034.637   119583614.063 7
  93182133.42044        44.500          27.900
 14  1  6 11 20  9.0000000  0  7G31G17G20G23G01G32G11
  23943101.680                    23943111.773    23943112.297   125821807.422 6
  98042957.486 6        40.600          40.200
  21674284.633                    21674292.148    21674292.145   113899131.493 7
  88752604.217 7        47.800          46.000
  20075285.250                                    20075292.645   105496330.597 8
  82204962.51446        48.900          41.500
  23092133.328                                    23092140.371   121349977.250 7
  94558448.48144        45.500          28.700
  20877385.148                    20877396.180                   109711394.939 8
  85489445.928 8        48.000          50.500
  21196642.039                                    21196650.195   111389102.770 7
  86796738.15046        47.800          38.600
  22775870.750                                    22775878.848   119687892.751 7
  93263389.45744        44.300          27.200
 14  1  6 11 20 39.0000000  0  7G31G17G20G23G01G32G11
  23932234.922                    23932244.547    23932244.777   125764698.924 6
  97998457.483 6        40.100          39.500
  21669330.492                    21669338.008    21669338.180   113873095.462 7
  88732316.393 7        47.500          46.300
  20071780.289                                    20071787.273   105477912.062 8
  82190610.40546        49.600          41.600
  23072987.734                                    23072995.129   121249368.765 7
  94480052.29944        46.000          28.500
  20888368.961                    20888380.461                   109769116.701 8
  85534423.898 8        50.700          50.500
  21208246.148                                    21208254.422   111450082.257 8
  86844254.60946        49.800          38.400
  22795758.664                                    22795766.762   119792403.875 7
  93344826.61744        43.900          26.900
 14  1  6 11 21  9.0000000  0  7G31G17G20G23G01G32G11
  23921453.273                    23921463.367    23921463.188   125708044.102 6
  97954310.987 6        39.500          39.500
  21664486.344                    21664493.449    21664493.680   113847638.565 7
  88712479.847 7        47.800          46.700
  20068366.891                                    20068373.875   105459975.004 8
  82176633.46446        49.500          40.800
  23053887.047                                    23053893.563   121148991.223 7
  94401836.08344        46.300          27.500
  20899429.938                    20899441.613                   109827243.133 8
  85579717.186 8        51.300          50.300
  21219917.422                                    21219926.164   111511415.627 8
  86892046.81546        49.300          38.600
  22815690.281                                    22815698.613   119897145.171 7
  93426443.13744        44.300          25.800
 14  1  6 11 21 39.0000000  0  7G31G17G20G23G01G32G11
  23910759.297                    23910770.094    23910770.148   125651848.968 6
  97910522.696 6        39.900          39.200
  21659752.953                    21659760.645    21659760.816   113822765.206 8
  88693097.999 7        48.100          45.800
  20065045.758                                    20065053.035   105442523.111 8
  82163034.58346        50.100          41.500
  23034830.125                                    23034837.227   121048850.592 7
  94323804.50044        46.200          27.600
  20910568.523                    20910580.434                   109885776.719 8
  85625327.741 8        51.100          50.500
  21231656.125                                    21231664.809   111573104.635 8
  86940116.14046        50.300          38.100
  22835666.367                                    22835674.230   120002118.233 7
  93508240.25144        44.600          26.300
 14  1  6 11 22  9.0000000  0  7G31G17G20G23G01G32G11
  23900153.180                    23900164.152    23900164.031   125596116.515 6
  97867094.939 6        40.900          39.900
  21655130.789                    21655138.891    21655138.770   113798476.944 8
  88674172.076 7        48.300          46.600
  20061817.727                                    20061824.418   105425556.808 8
  82149814.08447        49.900          42.000
  23015820.031                                    23015826.781   120948949.570 7
  94245959.62344        46.200          27.500
  20921784.719                    20921796.043                   109944717.009 8
  85671255.214 8        49.100          50.700
  21243463.016                                    21243471.172   111635147.734 8
  86988461.38846        49.200          38.500
  22855685.336                                    22855693.668   120107321.483 7
  93590216.72744        44.100          27.300
 14  1  6 11 22 39.0000000  0  8G31G17G20G23G04G01G32G11
  23889635.953                    23889646.281    23889646.102   125540845.779 6
  97824026.972 6        40.600          39.700
  21650620.297                    21650627.871    21650627.926   113774772.137 7
  88655700.793 7        47.900          46.800
  20058680.648                                    20058687.691   105409073.211 8
  82136969.71147        50.000          42.200
  22996855.461                                    22996862.328   120849287.603 7
  94168301.01744        46.000          28.300
  24102901.508                                                   126661581.717 5
                        31.800
  20933077.383                    20933088.824                   110004060.025 8
  85717496.496 8        50.900          50.200
  21255335.625                                    21255344.133   111697540.337 8
  87037078.95946        50.100          38.100
  22875748.008                                    22875756.457   120212750.157 7
  93672368.87644        44.100          24.800
 14  1  6 11 23  9.0000000  0  8G31G17G20G23G04G01G32G11
  23879206.102                    23879216.488    23879216.367   125486038.821 6
  97781320.395 6        41.500          40.200
  21646220.367                    21646228.176    21646228.055   113751650.879 8
  88637684.223 7        48.700          46.500
  20055635.508                                    20055642.668   105393071.892 8
  82124501.15046        49.500          41.400
  22977935.547                                    22977942.473   120749866.550 7
  94090830.16444        45.800          27.100
  24082171.508                                                   126552644.400 5
                        32.900
  20944445.914                    20944457.648                   110063804.424 8
  85764050.539 8        48.500          50.500
  21267275.039                                    21267282.961   111760279.944 8
  87085966.93846        48.900          38.600
  22895853.180                                    22895861.336   120318401.724 7
  93754694.68644        43.800          26.200
 14  1  6 11 23 39.0000000  0  8G31G17G20G23G04G01G32G11
  23868866.734                    23868876.184    23868876.004   125431698.645 6
  97738977.551 6        40.400          39.700
  21641931.852                    21641939.777    21641939.949   113729115.505 8
  88620124.190 7        49.100          46.600
  20052682.625                                    20052689.668   105377553.359 8
  82112408.78046        49.800          41.600
  22959062.227                                    22959069.855   120650689.233 7
  94013549.22344        46.100          27.500
  24061461.594                                                   126443817.296 5
                        32.000
  20955891.578                    20955902.902                   110123949.975 8
  85810917.171 8        50.900          50.500
  21279279.117                                    21279288.152   111823365.606 8
  87135124.56646        50.500          37.900
  22916000.445                                    22916008.426   120424274.780 7
  93837193.08744        44.000          25.800
 14  1  6 11 24  9.0000000  0  8G31G17G20G23G04G01G32G11
  23858614.469                    23858625.324    23858625.379   125377828.073 6
  97697000.635 6        40.700          40.400
  21637755.500                    21637763.250    21637763.129   113707167.102 8
  88603021.528 7        48.200          46.100
  20049821.383                                    20049828.660   105362518.310 8
  82100693.15546        49.800          41.100
  22940236.523                                    22940243.859   120551758.585 7
  93936460.51044        46.400          27.900
  24040773.516                                                   126335102.611 5
                        33.100
  20967413.453                    20967425.012                   110184496.094 8
  85858095.937 8        51.100          50.000
  21291349.969                                    21291358.477   111886795.777 8
  87184550.64746        50.500          38.300
  22936189.141                                    22936197.590   120530367.652 7
  93919862.78244        44.400          24.800
 14  1  6 11 24 39.0000000  0  8G31G17G20G23G04G01G32G11
  23848452.570                    23848464.129    23848464.008   125324430.103 6
  97655391.971 6        41.100          40.800
  21633690.578                    21633698.270    21633698.383   113685807.090 8
  88586377.362 7        48.700          46.000
  20047052.297                                    20047059.516   105347967.226 8
  82089354.64046        49.300          40.800
  22921458.383                                    22921464.957   120453077.478 7
  93859566.24344        45.900          28.200
  24020107.719                                                   126226502.631 5
                        33.300
  20979010.984                    20979022.191                   110245442.310 7
  85905586.461 8        46.700          49.900
  21303485.633                                    21303494.141   111950569.302 7
  87234244.26546        46.800          37.900
  22956419.406                                    22956427.797   120636679.215 7
  94002702.88944        44.700          24.600
 14  1  6 11 25  9.0000000  0  8G31G17G20G23G04G01G32G11
  23838381.266                    23838392.238    23838392.527   125271505.290 6
  97614151.988 6        40.900          41.300
  21629737.867                    21629745.500    21629745.730   113665034.816 8
  88570191.168 7        49.200          46.600
  20044375.391                                    20044382.199   105333898.229 8
  82078391.78046        49.900          41.300
  22902727.305                                    22902734.055   120354646.305 7
  93782866.72844        45.600          28.100
  23999465.156                                                   126118017.646 5
                        33.500
  20990684.227                    20990695.551                   110306786.118 8
  85953386.801 8        50.800          50.200
  21315686.078                                    21315694.469   112014682.706 8
  87284202.72846        51.100          38.100
  22976691.195                                    22976699.234   120743205.786 7
  94085710.51344        44.700          26.900
 14  1  6 11 25 39.0000000  0  8G31G17G20G23G04G01G32G11
  23828400.789                    23828411.527    23828411.523   125219056.928 6
  97573283.266 6        40.000          40.700
  21625897.406                    21625905.039    21625905.094   113644852.529 8
  88554464.698 7        48.500          46.400
  20041790.055                                    20041796.922   105320312.563 8
  82067805.54046        50.200          40.800
  22884044.656                                    22884051.348   120256468.928 7
  93706364.97544        46.000          28.000
  23978843.375                                                   126009650.697 5
                        34.600
  21002433.750                    21002445.074                   110368527.657 8
  86001497.062 8        50.600          50.100
  21327950.688                                    21327959.371   112079135.304 8
  87334425.49346        51.300          37.300
  22997002.859                                    22997011.367   120849946.283 7
  94168884.84444        44.700          25.800
 14  1  6 11 26  9.0000000  0  8G31G17G20G23G04G01G32G11
  23818510.375                    23818521.816    23818521.930   125167085.989 6
  97532786.547 6        41.200          41.200
  21622169.000                    21622176.867    21622176.746   113625259.462 8
  88539197.355 7        48.100          46.500
  20039297.008                                    20039303.699   105307209.175 8
  82057595.09546        49.600          41.200
  22865410.609                                    22865417.008   120158545.899 7
  93630061.42644        47.000          28.500
  23958243.695                                                   125901402.016 5
                        35.400
  21014257.680                    21014268.828                   110430664.463 8
  86049915.323 8        51.000          49.500
  21340280.008                                    21340288.281   112143923.839 8
  87384910.02846        50.700          38.000
  23017354.922                                    23017363.430   120956897.305 7
  94252223.24544        45.200          24.200
 14  1  6 11 26 39.0000000  0  8G31G17G20G23G04G01G32G11
  23808712.797                    23808723.652    23808723.883   125115597.843 6
  97492666.030 6        41.400          41.000
  21618553.445                    21618560.961    21618561.133   113606259.646 8
  88524392.288 7        48.800          46.300
  20036895.453                                    20036902.379   105294590.842 8
  82047762.62146        49.900          41.100
  22846825.250                                    22846832.117   120060882.669 7
  93553960.30844        46.600          29.100
  23937668.477                                                   125793276.739 5
                        35.700
  21026157.664                    21026168.930                   110493198.853 7
  86098643.390 8        46.200          50.200
  21352672.883                                    21352681.332   112209049.706 7
  87435657.42246        46.800          37.100
  23037747.336                                    23037756.078   121064060.182 7
  94335726.70544        44.100          25.400
 14  1  6 11 27  9.0000000  0  8G31G17G20G23G04G01G32G11
  23799006.813                    23799017.316    23799017.781   125064593.423 6
  97452922.427 6        41.700          41.600
  21615050.516                    21615058.324    21615058.613   113587852.750 8
  88510049.240 7        49.300          46.800
  20034585.961                                    20034593.004   105282456.197 8
  82038307.04146        49.500          40.900
  22828291.109                                    22828297.273   119963480.154 7
  93478062.33644        46.600          28.800
  23917115.977                                                   125685274.936 5
                        35.700
  21038132.570                    21038144.129                   110556128.072 7
  86147679.115 8        47.300          50.000
  21365129.531                                    21365137.805   112274509.449 7
  87486664.97146        47.500          38.000
  23058179.430                                    23058188.289   121171431.592 7
  94419392.63544        44.500          25.600
 14  1  6 11 27 39.0000000  0  8G31G17G20G23G04G01G32G11
  23789393.531                    23789404.445    23789404.148   125014074.392 6
  97413557.055 6        41.400          41.500
  21611660.625                    21611668.375    21611668.488   113570039.121 8
  88496168.483 7        48.600          46.700
  20032369.148                                    20032376.016   105270804.453 8
  82029227.74846        49.600          41.400
  22809805.555                                    22809811.953   119866340.153 7
  93402368.93144        46.600          28.000
  23896588.266                                                   125577398.193 6
                        36.100
  21050182.750                    21050194.602                   110619450.795 8
  86197021.470 8        50.900          49.800
  21377649.375                                    21377657.941   112340300.901 8
  87537931.00246        50.800          37.700
  23078650.898                                    23078659.758   121279008.921 7
  94503219.05144        43.500          25.300
 14  1  6 11 28  9.0000000  0  8G31G17G20G23G04G01G32G11
  23779872.883                    23779883.328    23779883.441   124964042.350 7
  97374571.152 6        42.400          41.400
  21608383.523                    21608391.684    21608391.797   113552818.893 8
  88482750.108 7        49.100          46.400
  20030243.438                                    20030250.422   105259635.126 8
  82020524.36446        49.400          41.200
  22791370.469                                    22791377.219   119769464.503 7
  93326881.49144        46.300          29.700
  23876084.477                                                   125469647.735 5
                        35.700
  21062307.164                    21062317.609                   110683165.411 8
  86246669.188 8        50.100          49.900
  21390232.016                                    21390239.938   112406421.779 8
  87589453.73146        51.000          37.500
  23099160.859                                    23099169.426   121386789.853 7
  94587204.12044        43.600          25.300
 14  1  6 11 28 39.0000000  0  8G31G17G20G23G04G01G32G11
  23770445.031                    23770455.008    23770455.297   124914499.962 7
  97335966.802 6        42.800          40.700
  21605220.039                    21605228.199    21605228.313   113536193.535 8
  88469795.271 7        48.400          46.600
  20028210.000                                    20028217.219   105248948.823 8
  82012197.36746        48.800          41.600
  22772986.484                                    22772993.645   119672855.887 7
  93251602.13544        46.300          29.200
  23855603.938                                                   125362026.103 6
                        36.200
  21074506.234                    21074517.793                   110747271.433 8
  86296621.904 8        50.600          49.800
  21402876.570                                    21402885.020   112472870.661 8
  87641232.04646        50.900          37.500
  23119709.750                                    23119717.965   121494772.694 7
  94671346.52544        43.300          24.300
 14  1  6 11 29  9.0000000  0  8G31G17G20G23G04G01G32G11
  23761111.469                    23761121.387    23761121.617   124865450.600 7
  97297746.632 6        42.600          40.700
  21602169.820                    21602177.512    21602177.859   113520164.721 8
  88457305.277 7        48.000          46.800
  20026268.547                                    20026275.531   105238746.453 8
  82004247.45446        49.000          41.600
  22754653.906                                    22754660.598   119576517.695 7
  93176533.47444        46.700          29.700
  23835149.742                                                   125254535.914 5
                        35.400
  21086779.883                    21086790.797                   110811768.813 8
  86346879.568 8        50.700          49.500
  21415583.609                                    21415592.645   112539646.818 8
  87693265.38246        50.600          37.700
  23140297.133                                    23140305.406   121602956.481 7
  94755645.49144        43.600          25.300
 14  1  6 11 29 39.0000000  0  8G31G17G20G23G04G01G32G11
  23751871.570                    23751881.430    23751881.367   124816895.187 7
  97259911.372 6        44.300          40.900
  21599232.656                    21599240.816    21599240.871   113504731.849 8
  88445279.656 7        48.500          46.500
  20024418.906                                    20024425.832   105229026.706 8
  81996673.62146        48.400          41.000
  22736372.586                                    22736379.395   119480450.991 7
  93101676.37144        46.600          29.800
  23814718.867                                                   125147177.815 5
                        35.800
  21099127.313                    21099138.930                   110876655.408 7
  86397440.519 8        47.300          50.200
  21428352.367                                    21428360.699   112606747.260 7
  87745551.40846        47.500          37.200
  23160920.992                                    23160929.207   121711337.997 7
  94840098.54244        42.700          25.900
 14  1  6 11 30  9.0000000  0  8G31G17G20G23G04G01G32G11
  23742727.188                    23742736.227    23742736.340   124768837.640 7
  97222464.075 6        44.700          40.400
  21596410.594                    21596418.637    21596418.457   113489897.814 8
  88433720.655 7        48.000          46.600
  20022661.930                                    20022668.738   105219791.481 8
  81989477.33846        49.100          41.300
  22718145.039                                    22718151.086   119384659.721 7
  93027033.89544        46.600          29.900
  23794315.336                                                   125039955.601 5
                        35.200
  21111548.805                    21111560.012                   110941931.867 8
  86448305.260 8        50.300          50.200
  21441182.805                                    21441191.195   112674171.961 8
  87798090.10646        51.000          37.800
  23181582.227                                    23181590.910   121819917.245 7
  94924705.66544        43.000          24.200
 14  1  6 11 30 39.0000000  0  8G31G17G20G23G04G01G32G11
  23733676.227                    23733685.734    23733685.320   124721277.058 7
  97185404.023 6        44.200          40.400
  21593700.727                    21593708.945    21593709.117   113475660.173 8
  88422626.387 7        48.500          46.700
  20020995.680                                    20021002.898   105211036.903 8
  81982655.57946        48.800          41.300
  22699968.148                                    22699974.781   119289143.362 7
  92952605.61345        46.700          30.400
  23773937.211                                    23773946.246   124932868.184 5
  97350334.29642        35.800          17.400
  21124044.109                    21124055.961                   111007594.225 7
  86499470.694 8        45.800          50.100
  21454073.961                                    21454082.527   112741916.016 7
  87850877.64946        46.400          38.100
  23202280.797                                    23202289.891   121928689.013 7
  95009462.80644        42.800          25.100
 14  1  6 11 31  9.0000000  0  8G31G17G20G23G04G01G32G11
  23724720.875                    23724730.266    23724730.320   124674218.169 7
  97148734.888 6        44.600          40.600
  21591105.758                    21591113.625    21591113.621   113462022.154 8
  88411999.357 7        48.300          46.600
  20019421.961                                    20019428.887   105202765.894 8
  81976210.63046        49.200          41.700
  22681845.164                                    22681851.621   119193906.455 7
  92878395.10545        47.200          30.800
  23753586.008                                    23753595.922   124825919.670 6
  97266997.83042        36.500          15.600
  21136612.734                    21136624.352                   111073643.739 8
  86550937.808 8        49.500          50.000
  21467026.469                                    21467035.445   112809980.146 8
  87903914.59746        49.300          37.100
  23223017.273                                    23223025.547   122037654.126 6
  95094370.60544        41.100          24.600
 14  1  6 11 31 39.0000000  0  9G31G17G20G23G04G01G32G11G13
  23715861.383                    23715871.008    23715870.535   124627663.128 7
  97112458.353 6        44.600          40.300
  21588624.602                    21588632.527    21588632.699   113448984.453 8
  88401840.100 7        48.800          46.600
  20017940.094                                    20017946.844   105194978.420 8
  81970142.46446        49.400          41.300
  22663775.891                                    22663782.465   119098951.327 7
  92804404.14444        47.000          29.800
  23733261.398                                    23733270.902   124719112.379 6
  97183771.39142        36.900          16.300
  21149255.172                    21149266.262                   111140079.451 8
  86602705.859 8        49.500          50.200
  21480039.375                                    21480048.117   112878362.596 8
  87957199.59346        49.400          37.100
  23243788.359                                    23243797.629   122146810.303 6
  95179427.27844        41.600          26.100
  25241678.883                                                   132645899.675 5
                        33.800
 14  1  6 11 32  9.0000000  0  9G31G17G20G23G04G01G32G11G13
  23707099.289                    23707107.801    23707107.855   124581614.751 7
  97076576.632 6        43.900          39.900
  21586258.828                    21586265.875    21586265.930   113436548.779 8
  88392149.966 7        49.100          46.500
  20016550.078                                    20016557.180   105187675.141 8
  81964451.59846        48.600          41.300
  22645761.172                                    22645766.984   119004281.341 7
  92730635.37344        46.200          29.700
  23712963.281                                    23712973.840   124612448.869 6
  97100656.98442        37.500          16.900
  21161970.492                    21161981.875                   111206901.366 7
  86654774.844 8        46.000          50.000
  21493112.695                                    21493121.145   112947062.716 7
  88010732.12546        46.900          37.100
  23264596.625                                    23264606.129   122256156.966 7
  95264632.39543        42.500          22.800
  25218753.055                                                   132525427.280 5
                        34.200
 14  1  6 11 32 39.0000000  0  9G31G17G20G23G04G01G32G11G13
  23698432.516                    23698441.848    23698441.844   124536072.016 7
  97041088.902 6        44.900          40.600
  21584005.898                    21584014.059    21584014.230   113424712.759 8
  88382927.095 7        48.600          46.100
  20015251.648                                    20015258.809   105180852.851 8
  81959135.52246        48.600          41.300
  22627799.273                                    22627806.199   118909895.535 7
  92657088.04545        46.800          30.000
  23692693.180                                    23692703.152   124505928.398 6
  97017654.02442        36.600          13.900
  21174759.164                    21174770.957                   111274105.235 8
  86707141.451 8        50.200          49.600
  21506245.086                                    21506253.535   113016075.366 8
  88064508.18746        50.800          37.600
  23285440.063                                    23285449.098   122365688.835 7
  95349981.80244        42.200          24.000
  25195823.461                                                   132404948.147 5
                        34.300
 14  1  6 11 33  9.0000000  0  9G31G17G20G23G04G01G32G11G13
  23689862.328                    23689871.895    23689871.539   124491037.301 7
  97005997.029 6        43.300          39.700
  21581867.891                    21581875.816    21581876.164   113413476.940 8
  88374171.905 7        48.600          47.000
  20014045.102                                    20014052.262   105174511.306 8
  81954194.06346        48.300          40.800
  22609892.984                                    22609899.207   118815796.554 7
  92583764.21645        46.500          30.700
  23672449.938                                    23672460.965   124399552.557 6
  96934763.78342        36.900          16.900
  21187620.492                    21187632.051                   111341690.130 8
  86759804.962 8        50.300          49.400
  21519437.000                                    21519445.684   113085399.024 8
  88118526.59446        50.300          37.700
  23306318.125                                    23306327.043   122475403.992 7
  95435474.02743        42.800          22.500
  25172896.773                                                   132284464.775 5
                        34.600
 14  1  6 11 33 39.0000000  0  9G31G17G20G23G04G01G32G11G13
  23681389.563                    23681399.129    23681398.832   124446515.143 7
  96971304.544 6        43.100          40.200
  21579844.648                    21579851.930    21579851.984   113402844.468 8
  88365886.869 7        48.200          46.800
  20012930.492                                    20012937.066   105168653.382 8
  81949629.44847        48.200          42.000
  22592041.859                                    22592048.492   118721989.272 7
  92510667.68044        47.200          29.600
  23652236.320                                    23652246.820   124293326.146 6
  96851990.00342        37.500          16.300
  21200553.953                    21200565.453                   111409657.643 8
  86812766.610 8        49.900          49.900
  21532688.250                                    21532697.168   113155034.523 8
  88172787.99246        50.500          37.500
  23327231.914                                    23327239.895   122585303.223 7
  95521109.69643        43.400          23.300
  25149969.344                                                   132163981.787 5
                        34.500
 14  1  6 11 34  9.0000000  0  9G31G17G20G23G04G01G32G11G13
  23673015.422                    23673024.227    23673024.340   124402506.022 7
  96937011.832 6        43.500          40.000
  21577935.828                    21577943.285    21577943.574   113392814.529 8
  88358071.326 7        48.800          46.000
  20011907.219                                    20011913.910   105163277.027 8
  81945440.07946        48.600          40.900
  22574246.625                                    22574252.906   118628473.912 7
  92437798.60645        46.900          30.500
  23632050.484                                    23632061.160   124187249.160 6
  96769332.61342        37.500          15.600
  21213560.203                    21213571.586                   111478004.744 8
  86866024.040 8        49.400          49.000
  21545998.500                                    21546006.773   113224978.179 8
  88227289.50846        50.000          37.200
  23348178.680                                    23348187.305   122695382.466 7
  95606885.61943        42.900          22.900
  25127042.641                                                   132043500.069 5
                        35.000
 14  1  6 11 34 39.0000000  0  9G31G17G20G23G04G01G32G11G13
  23664737.797                    23664747.949    23664747.770   124359012.325 7
  96903120.738 6        42.700          40.200
  21576142.727                    21576149.598    21576149.828   113383387.937 8
  88350725.927 7        48.800          46.300
  20010975.977                                    20010982.961   105158382.413 8
  81941626.09246        48.600          40.600
  22556507.609                                    22556513.832   118535253.514 7
  92365159.37945        47.200          30.400
  23611893.797                                    23611904.297   124081324.231 6
  96686793.77142        37.300          16.900
  21226638.633                    21226649.957                   111546731.056 8
  86919576.964 8        48.600          49.300
  21559366.906                                    21559374.828   113295228.989 8
  88282030.36746        49.600          36.800
  23369160.273                                    23369169.250   122805640.823 7
  95692801.10844        42.600          25.000
  25104116.563                                                   131923022.062 5
                        34.600
 14  1  6 11 35  9.0000000  0  9G31G17G20G23G04G01G32G11G13
  23656559.578                    23656570.082    23656570.078   124316034.928 7
  96869631.947 6        42.700          40.400
  21574463.172                    21574471.273    21574471.328   113374564.291 8
  88343850.357 7        49.000          46.700
  20010136.242                                    20010143.109   105153968.453 8
  81938186.65146        48.700          41.600
  22538824.234                                    22538830.867   118442329.109 7
  92292750.79445        47.000          30.400
  23591766.484                                    23591776.281   123975552.234 6
  96604374.06742        38.100          17.400
  21239788.703                    21239800.320                   111615834.324 7
  86973423.617 8        46.300          48.400
  21572792.922                                    21572800.902   113365783.821 7
  88337008.12946        47.200          37.000
  23390175.828                                    23390184.570   122916074.828 7
  95778853.48743        42.400          22.500
  25081191.250                                                   131802549.183 5
                        34.500
 14  1  6 11 35 39.0000000  0  9G31G17G20G23G04G01G32G11G13
  23648479.891                    23648490.219    23648490.215   124273578.796 7
  96836549.327 6        42.000          41.300
  21572899.742                    21572907.434    21572907.254   113366346.671 7
  88337447.014 7        47.900          46.400
  20009387.750                                    20009395.203   105150038.055 8
  81935124.00246        48.900          41.000
  22521198.984                                    22521205.031   118349706.204 7
  92220577.13445        47.200          31.200
  23571668.484                                    23571678.750   123869938.028 6
  96522077.33442        38.000          17.400
  21253010.383                    21253022.293                   111685316.432 7
  87027565.474 8        47.500          48.600
  21586276.938                                    21586285.445   113436644.218 7
  88392223.99546        47.800          36.700
  23411223.719                                    23411232.871   123026685.819 6
  95865043.75443        41.400          23.000
  25058267.867                                                   131682086.955 5
                        34.800
 14  1  6 11 36  9.0000000  0  9G31G17G20G23G04G01G32G11G13
  23640500.469                    23640511.031    23640510.852   124231644.826 7
  96803873.574 6        42.400          41.300
  21571451.234                    21571458.750    21571458.922   113358734.891 8
  88331515.753 7        48.200          46.400
  20008731.719                                    20008738.879   105146589.674 8
  81932436.95046        49.000          41.300
  22503630.898                                    22503637.531   118257385.477 7
  92148638.93245        47.500          30.800
  23551601.609                                    23551610.938   123764482.635 6
  96439904.34143        39.600          18.300
  21266304.125                    21266316.211                   111755175.215 8
  87082000.832 8        50.100          49.800
  21599818.516                                    21599827.316   113507807.062 8
  88447675.53346        50.600          36.300
  23432305.844                                    23432314.586   123137470.679 6
  95951369.52044        41.800          24.300
  25035346.367                                                   131561636.584 5
                        34.500
 14  1  6 11 36 39.0000000  0  9G31G17G20G23G04G01G32G11G13
  23632619.586                    23632630.383    23632630.379   124190231.783 7
  96771603.725 6        42.200          41.600
  21570117.031                    21570124.898    21570124.895   113351726.430 8
  88326054.601 7        48.800          46.400
  20008166.750                                    20008173.676   105143620.213 8
  81930123.07946        49.200          41.400
  22486119.578                                    22486126.445   118165366.190 7
  92076935.61645        47.400          30.700
  23531564.570                                    23531572.961   123659184.848 6
  96357854.12942        39.200          17.800
  21279669.328                    21279680.828                   111825406.396 8
  87136726.376 8        49.900          49.200
  21613417.383                                    21613425.949   113579267.653 8
  88503359.08846        50.300          36.600
  23453419.484                                    23453427.875   123248424.292 6
  96037826.76144        41.700          24.100
  25012427.180                                                   131441197.645 6
                        36.000
 14  1  6 11 37  9.0000000  0  9G31G17G20G23G04G01G32G11G13
  23624839.195                    23624849.113    23624849.109   124149344.169 7
  96739743.291 6        43.000          41.600
  21568898.203                    21568907.008    21568906.945   113345323.960 8
  88321065.644 7        48.700          46.700
  20007693.195                                    20007700.355   105141131.921 8
  81928184.14646        49.400          41.200
  22468667.898                                    22468674.063   118073653.213 7
  92005470.97445        47.300          31.300
  23511557.023                                    23511565.707   123554049.182 6
  96275930.25642        38.700          17.800
  21293104.227                    21293116.371                   111896011.457 8
  87191743.251 8        49.800          49.100
  21627072.500                                    21627081.242   113651026.788 8
  88559275.27146        50.300          36.000
  23474565.633                                    23474574.609   123359547.393 7
  96124416.07943        42.100          22.900
  24989511.555                                                   131320774.489 6
                        36.300
 14  1  6 11 37 39.0000000  0  9G31G17G20G23G04G01G32G11G13
  23617158.602                    23617169.574    23617169.395   124108984.324 7
  96708294.088 7        43.300          42.200
  21567796.242                    21567804.051    21567804.047   113339528.540 8
  88316549.713 7        48.800          46.900
  20007311.242                                    20007318.871   105139124.760 8
  81926620.12646        49.300          41.100
  22451273.617                                    22451280.543   117982249.293 7
  91934247.16145        47.600          30.900
  23491581.820                                    23491590.973   123449077.955 6
  96194134.49843        39.200          18.600
  21306611.477                    21306622.566                   111966989.668 8
  87247050.889 8        50.100          49.700
  21640784.375                                    21640793.059   113723083.045 8
  88615422.98646        50.300          37.300
  23495743.516                                    23495752.668   123470838.195 6
  96211136.06843        41.700          21.800
  24966600.594                                                   131200370.158 6
                        36.300
 14  1  6 11 38  9.0000000  0  9G31G17G20G23G04G01G32G11G13
  23609578.961                    23609589.582    23609589.578   124069151.147 7
  96677255.277 6        43.000          41.600
  21566808.219                    21566816.496    21566816.434   113334337.702 8
  88312504.888 7        49.400          46.300
  20007019.969                                    20007027.070   105137595.458 8
  81925428.46746        48.800          41.400
  22433939.133                                    22433945.121   117891153.457 7
  91863263.40645        47.200          30.800
  23471637.758                                    23471647.027   123344270.456 6
  96112466.33043        40.500          18.300
  21320188.758                    21320200.316                   112038336.849 8
  87302646.036 8        49.400          49.000
  21654551.617                                    21654560.535   113795431.784 8
  88671798.61746        49.600          36.000
  23516952.297                                    23516961.391   123582291.796 6
  96297982.93343        41.800          22.000
  24943690.711                                                   131079983.670 6
                        37.100
 14  1  6 11 38 39.0000000  0  9G31G17G20G23G04G01G32G11G13
  23602100.555                    23602110.941    23602110.879   124029850.357 7
  96646631.299 7        42.600          42.200
  21565936.648                    21565944.691    21565944.746   113329755.335 7
  88308934.187 7        47.600          46.000
  20006820.898                                    20006827.883   105136548.058 8
  81924612.30746        48.600          41.700
  22416664.180                                    22416670.637   117800371.791 7
  91792524.46245        47.400          31.800
  23451725.781                                    23451735.109   123239632.334 6
  96030930.12343        40.200          19.600
  21333835.945                    21333847.914                   112110055.699 8
  87358530.799 8        49.700          48.600
  21668375.289                                    21668384.207   113868074.828 8
  88728403.57246        50.000          36.700
  23538192.688                                    23538201.664   123693910.286 6
  96384958.26043        41.700          23.200
  24920786.961                                                   130959621.574 6
                        39.000
 14  1  6 11 39  9.0000000  0  9G31G17G20G23G04G01G32G11G13
  23594723.500                    23594733.418    23594733.531   123991082.174 7
  96616422.314 7        43.700          42.100
  21565180.195                    21565188.238    21565188.234   113325780.656 7
  88305837.023 7        47.000          46.100
  20006713.156                                    20006719.789   105135980.733 8
  81924170.23046        48.100          41.900
  22399448.813                                    22399455.328   117709905.107 7
  91722030.95445        47.300          31.600
  23431846.031                                    23431854.715   123135164.228 6
  95949526.40943        39.200          19.600
  21347553.992                    21347565.844                   112182143.737 8
  87414703.247 8        49.400          49.300
  21682254.266                                    21682263.066   113941009.260 8
  88785235.58645        49.800          35.700
  23559463.578                                    23559472.438   123805690.036 7
  96472059.26743        42.100          21.700
  24897887.570                                                   130839284.989 6
                        38.500
 14  1  6 11 39 39.0000000  0  9G31G17G20G23G04G01G32G11G13
  23587447.398                    23587457.141    23587456.844   123952847.350 7
  96586628.952 6        43.500          41.700
  21564539.172                    21564547.566    21564547.621   113322412.771 8
  88303212.669 7        48.300          46.400
  20006696.227                                    20006703.094   105135892.110 8
  81924101.17346        49.400          41.800
  22382293.477                                    22382300.227   117619755.115 7
  91651784.22045        47.700          31.700
  23411999.133                                    23412008.168   123030867.180 6
  95868256.00243        40.300          19.900
  21361341.984                    21361353.543                   112254598.694 8
  87471161.601 8        49.400          49.100
  21696187.938                                    21696196.504   114014232.172 8
  88842292.39645        49.500          35.200
  23580765.180                                    23580774.684   123917628.225 7
  96559283.70843        42.600          22.600
  24874993.172                                                   130718975.016 6
                        37.900
 14  1  6 11 40  9.0000000  0  9G31G17G20G23G04G01G32G11G13
  23580273.227                    23580283.613    23580283.961   123915148.484 7
  96557253.215 6        43.600          41.400
  21564013.805                    21564021.496    21564021.668   113319652.517 7
  88301061.797 7        47.800          46.300
  20006770.125                                    20006777.754   105136282.062 8
  81924405.02846        49.100          41.000
  22365199.203                                    22365205.660   117529924.075 7
  91581786.01645        47.400          31.400
  23392184.414                                    23392193.801   122926743.609 6
  95787120.73043        39.500          19.900
  21375199.602                    21375210.750                   112327419.926 8
  87527905.368 8        49.400          48.600
  21710176.758                                    21710185.617   114087742.434 8
  88899573.11345        49.800          35.700
  23602096.781                                    23602105.875   124029723.612 7
  96646630.67843        43.000          22.900
  24852104.477                                                   130598694.193 6
                        37.200
 14  1  6 11 40 39.0000000  0  9G31G17G20G23G04G01G32G11G13
  23573201.992                    23573211.383    23573211.262   123877987.086 7
  96528296.289 6        43.400          41.100
  21563603.805                    21563612.199    21563612.078   113317500.033 8
  88299384.524 7        48.300          46.300
  20006935.859                                    20006942.844   105137150.611 8
  81925081.81446        49.500          41.100
  22348165.891                                    22348172.465   117440413.852 8
  91512037.79945        48.000          32.200
  23372403.664                                    23372413.344   122822795.314 6
  95706122.09143        40.600          19.900
  21389125.703                    21389137.965                   112400606.080 8
  87584933.495 8        49.400          48.800
  21724219.789                                    21724228.473   114161537.960 8
  88957076.12145        49.200          35.500
  23623456.945                                    23623465.805   124141973.962 7
  96734098.35243        42.400          23.000
  24829221.961                                                   130478445.138 6
                        37.300
 14  1  6 11 41  9.0000000  0  9G31G17G20G23G04G01G32G11G13
  23566233.766                    23566242.453    23566242.625   123841365.044 7
  96499759.631 6        43.400          41.300
  21563310.375                    21563318.242    21563318.590   113315955.685 8
  88298181.119 7        48.000          46.300
  20007191.844                                    20007198.887   105138497.503 8
  81926131.33746        49.500          41.300
  22331194.766                                    22331200.930   117351226.904 7
  91442541.48345        47.600          32.300
  23352657.109                                    23352666.262   122719024.611 6
  95625261.80543        40.200          20.100
  21403122.148                    21403133.531                   112474156.096 8
  87642245.143 8        48.500          48.400
  21738316.422                                    21738325.340   114235617.186 8
  89014800.18546        49.100          36.000
  23644846.555                                    23644855.297   124254377.193 7
  96821685.16443        42.800          22.500
  24806345.758                                    24806357.020   130358230.315 6
 101577882.65142        38.700          14.800
 14  1  6 11 41 39.0000000  0  9G31G17G20G23G04G01G32G11G13
  23559367.055                    23559376.152    23559375.914   123805284.231 7
  96471644.715 6        43.600          41.900
  21563132.625                    21563140.082    21563140.313   113315020.088 8
  88297452.075 7        48.500          46.300
  20007539.180                                    20007546.164   105140322.577 8
  81927553.46646        49.200          40.900
  22314284.914                                    22314290.961   117262365.647 8
  91373298.96245        48.100          32.600
  23332944.016                                    23332954.164   122615433.773 6
  95544541.72343        40.400          20.400
  21417187.641                    21417198.848                   112548069.083 8
  87699839.621 8        48.600          49.100
  21752467.391                                    21752475.957   114309978.810 8
  89072744.29145        49.100          35.500
  23666265.695                                    23666274.613   124366931.621 7
  96909389.81744        42.700          24.500
  24783476.422                                    24783487.918   130238052.376 6
 101484237.60642        37.900          16.300
 14  1  6 11 42  9.0000000  0  9G31G17G20G23G04G01G32G11G13
  23552604.391                    23552614.074    23552614.129   123769746.782 7
  96443953.207 6        43.300          41.100
  21563070.078                    21563078.297    21563078.469   113314693.655 7
  88297197.697 7        46.200          46.400
  20007977.453                                    20007984.555   105142625.928 7
  81929348.28746        46.700          41.700
  22297437.336                                    22297443.617   117173832.848 7
  91304312.38245        47.600          32.800
  23313266.250                                    23313276.164   122512025.247 6
  95463963.66343        40.600          20.400
  21431321.758                    21431333.258                   112622344.217 8
  87757716.297 8        48.700          48.200
  21766670.578                                    21766680.375   114384621.323 8
  89130907.27745        49.500          35.600
  23687712.445                                    23687721.715   124479635.974 7
  96997211.26643        43.100          23.300
  24760615.586                                    24760626.672   130117913.992 6
 101390623.33242        38.000          15.600
 14  1  6 11 42 39.0000000  0  9G31G17G20G23G04G01G32G11G13
  23545945.773                    23545955.105    23545954.926   123734754.594 7
  96416686.580 6        43.300          41.100
  21563124.063                    21563131.988    21563132.043   113314976.591 8
  88297418.163 7        48.100          46.800
  20008506.680                                    20008513.723   105145407.244 8
  81931515.54646        48.800          40.900
  22280652.672                                    22280659.480   117085630.256 7
  91235583.10645        47.800          32.900
  23293623.023                                    23293632.703   122408800.822 6
  95383529.08343        40.200          19.900
  21445524.539                    21445536.391                   112696980.127 8
  87815874.091 8        48.500          48.900
  21780927.969                                    21780936.359   114459542.772 8
  89189287.60345        49.900          35.600
  23709187.555                                    23709196.941   124592488.128 7
  97085147.89644        43.000          24.500
  24737761.023                                    24737772.578   129997817.455 6
 101297041.67342        37.800          16.300
 14  1  6 11 43  9.0000000  0  9G31G17G20G23G04G01G32G11G13
  23539391.125                    23539400.223    23539399.750   123700308.199 7
  96389845.263 6        43.300          40.100
  21563293.672                    21563301.773    21563302.004   113315868.222 7
  88298112.935 7        46.500          46.500
  20009126.648                                    20009133.984   105148665.273 7
  81934054.26846        46.900          40.900
  22263932.172                                    22263938.629   116997759.457 8
  91167112.36245        48.000          33.300
  23274015.555                                    23274025.410   122305761.831 6
  95303238.96643        39.600          20.600
  21459795.727                    21459807.109                   112771974.916 8
  87874311.527 8        49.000          48.400
  21795238.195                                    21795247.172   114534740.867 8
  89247883.50745        50.100          35.800
  23730690.117                                    23730699.152   124705485.231 7
  97173197.47843        43.000          22.300
  24714916.508                                    24714927.242   129877764.410 6
 101203493.90742        37.900          16.300
 14  1  6 11 43 39.0000000  0  9G31G17G20G23G04G01G32G11G13
  23532940.266                    23532949.246    23532949.359   123666409.838 7
  96363430.999 6        42.700          41.000
  21563579.445                    21563587.430    21563587.543   113317369.631 7
  88299282.862 7        47.600          46.500
  20009837.789                                    20009844.129   105152400.255 8
  81936964.63746        48.700          40.900
  22247274.422                                    22247280.762   116910222.913 8
  91098902.08145        48.300          34.100
  23254444.016                                    23254453.461   122202910.919 6
  95223095.42743        39.900          20.400
  21474134.789                    21474145.703                   112847327.821 8
  87933028.026 8        49.100          48.900
  21809600.000                                    21809609.094   114610214.311 8
  89306693.95745        49.700          35.500
  23752220.102                                    23752229.313   124818625.958 7
  97261358.94343        43.200          23.500
  24692078.688                                    24692090.125   129757757.893 6
 101109982.43442        38.000          15.600
 14  1  6 11 44  9.0000000  0  9G31G17G20G23G04G01G32G11G13
  23526594.141                    23526603.414    23526603.000   123633061.366 7
  96337445.239 6        42.900          40.400
  21563981.086                    21563989.012    21563989.125   113319480.671 7
  88300927.830 7        45.000          46.900
  20010638.898                                    20010646.176   105156611.988 7
  81940246.50946        45.600          41.100
  22230680.742                                    22230686.672   116823023.227 8
  91030954.29945        48.500          33.000
  23234907.609                                    23234917.348   122100250.263 6
  95143100.14843        40.600          21.100
  21488541.664                    21488553.398                   112923037.803 8
  87992022.762 8        49.100          48.400
  21824014.430                                    21824023.172   114685961.506 8
  89365717.72445        50.200          35.500
  23773777.078                                    23773786.172   124931908.548 7
  97349630.97543        43.100          22.800
  24669252.227                                    24669263.020   129637800.320 6
 101016509.10742        36.500          15.600
 14  1  6 11 44 39.0000000  0  9G31G17G20G23G04G01G32G11G13
  23520353.141                    23520362.004    23520361.941   123600264.556 7
  96311889.370 6        42.500          39.400
  21564499.031                    21564506.840    21564506.895   113322201.670 7
  88303048.094 7        47.500          46.100
  20011530.992                                    20011538.035   105161300.122 7
  81943899.60046        47.800          41.900
  22214151.953                                    22214158.469   116736162.574 8
  90963270.69345        48.200          33.700
  23215409.305                                    23215418.516   121997782.245 6
  95063254.92243        40.900          20.900
  21503016.523                    21503028.199                   112999103.860 8
  88051294.965 8        49.100          48.600
  21838480.203                                    21838488.945   114761980.911 8
  89424953.58845        49.800          35.200
  23795361.070                                    23795370.457   125045331.326 7
  97438012.23743        43.000          23.400
  24646434.625                                    24646445.770   129517894.394 6
 100923075.97742        37.600          17.400
 14  1  6 11 45  9.0000000  0  9G31G17G20G23G04G01G32G11G13
  23514216.789                    23514226.531    23514226.410   123568021.053 7
  96286764.645 6        43.100          41.300
  21565133.148                    21565140.664    21565140.543   113325532.509 8
  88305643.553 7        49.000          46.300
  20012513.797                                    20012520.898   105166464.172 8
  81947923.53646        49.300          41.300
  22197687.203                                    22197694.070   116649642.900 8
  90895852.78945        48.100          33.200
  23195947.047                                    23195956.668   121895508.441 6
  94983561.07443        40.500          22.500
  21517559.633                    21517571.309                   113075524.460 8
  88110843.424 8        48.800          48.200
  21852997.914                                    21853006.480   114838270.604 8
  89484400.07845        50.500          35.600
  23816971.445                                    23816980.715   125158891.899 7
  97526500.87743        43.400          22.200
  24623627.516                                    24623638.660   129398041.834 6
 100829684.40242        38.700          17.400
 14  1  6 11 45 39.0000000  0  9G31G17G20G23G04G01G32G11G13
  23508186.328                    23508195.836    23508195.949   123536330.591 7
  96262070.879 6        43.200          41.300
  21565882.703                    21565890.746    21565890.684   113329471.669 8
  88308713.028 7        49.400          46.800
  20013586.688                                    20013593.906   105172102.263 8
  81952316.85246        48.500          41.900
  22181287.969                                    22181294.426   116563464.840 8
  90828701.08145        48.200          33.100
  23176522.313                                    23176531.523   121793429.899 6
  94904019.36043        41.100          20.400
  21532168.352                    21532180.203                   113152296.979 8
  88170666.112 8        48.500          48.000
  21867566.219                                    21867574.434   114914827.450 8
  89544054.73345        49.500          35.400
  23838606.961                                    23838615.762   125272587.020 7
  97615094.35643        43.000          22.900
  24600830.805                                    24600841.891   129278244.165 6
 100736335.72042        38.900          17.800
 14  1  6 11 46  9.0000000  0  9G31G17G20G23G04G01G32G11G13
  23502261.867                    23502271.082    23502271.137   123505195.911 7
  96237810.196 6        43.500          40.900
  21566747.695                    21566755.563    21566755.793   113334020.248 8
  88312257.382 7        49.400          46.700
  20014749.797                                    20014757.074   105178215.002 8
  81957080.03446        49.100          41.400
  22164954.469                                    22164961.102   116477631.757 7
  90761818.19245        47.700          33.100
  23157135.391                                    23157144.602   121691549.425 6
  94824632.00043        41.100          22.800
  21546844.875                    21546857.078                   113229421.228 8
  88230762.878 8        49.300          48.500
  21882185.125                                    21882193.457   114991650.889 8
  89603917.12345        49.900          35.200
  23860266.938                                    23860276.852   125386415.676 7
  97703791.87143        43.700          22.200
  24578045.367                                    24578055.926   129158504.941 6
 100643032.47542        39.900          17.800
 14  1  6 11 46 39.0000000  0  9G31G17G20G23G04G01G32G11G13
  23496442.422                    23496451.754    23496451.750   123474618.358 7
  96213983.638 6        43.800          40.600
  21567729.133                    21567737.000    21567737.348   113339178.419 8
  88316276.738 7        48.800          46.400
  20016003.484                                    20016010.293   105184802.149 8
  81962212.87946        49.500          41.500
  22148686.891                                    22148693.582   116392145.313 8
  90695205.40745        48.600          34.300
  23137785.563                                    23137794.891   121589869.316 6
  94745400.77843        41.100          21.300
  21561587.484                    21561599.980                   113306895.912 8
  88291132.712 8        49.100          48.700
  21896854.789                                    21896863.297   115068739.088 8
  89663985.82145        48.800          35.100
  23881954.031                                    23881962.891   125500375.983 7
  97792591.99543        43.100          22.500
  24555271.227                                    24555281.727   129038825.997 6
 100549776.24542        39.600          17.400
 14  1  6 11 47  9.0000000  0  9G31G17G20G23G04G01G32G11G13
  23490730.227                    23490740.145    23490739.848   123444599.208 7
  96190592.217 6        44.000          41.400
  21568827.063                    21568835.047    21568834.984   113344945.792 8
  88320770.797 7        49.200          46.600
  20017347.164                                    20017353.973   105191863.035 8
  81967714.87246        48.500          41.800
  22132485.914                                    22132492.840   116307007.696 7
  90628864.44745        47.400          33.100
  23118474.258                                    23118484.406   121488391.383 7
  94666327.11243        42.200          21.800
  21576397.211                    21576408.828                   113384719.466 8
  88351774.388 7        48.700          47.900
  21911574.039                                    21911582.957   115146089.997 8
  89724259.22845        49.400          34.700
  23903664.523                                    23903673.910   125614465.508 7
  97881492.80843        43.500          22.600
  24532508.547                                    24532519.691   128919210.017 6
 100456569.04642        39.600          16.900
 14  1  6 11 47 39.0000000  0  9G31G17G20G23G04G01G32G11G13
  23485124.859                    23485133.664    23485133.719   123415141.675 7
  96167638.412 7        43.800          42.200
  21570040.594                    21570048.344    21570048.926   113351324.068 7
  88325740.882 7        47.900          46.400
  20018780.977                                    20018787.785   105199398.835 8
  81973586.92946        48.400          41.400
  22116352.430                                    22116358.535   116222222.806 7
  90562798.34145        47.600          33.600
  23099204.273                                    23099213.367   121387119.215 6
  94587413.76343        41.600          22.500
  21591273.047                    21591284.957                   113462892.407 8
  88412688.320 8        49.300          48.700
  21926343.383                                    21926352.008   115223703.703 8
  89784737.41145        49.200          34.700
  23925398.539                                    23925409.273   125728684.363 7
  97970494.38444        44.200          24.400
  24509758.867                                    24509770.480   128799660.977 6
 100363414.07142        40.200          17.400
 14  1  6 11 48  9.0000000  0  9G31G17G20G23G04G01G32G11G13
  23479625.703                    23479635.504    23479635.266   123386245.056 7
  96145121.678 7        44.600          42.000
  21571370.570                    21571377.852    21571377.906   113358310.713 7
  88331185.019 7        45.600          46.100
  20020304.719                                    20020311.879   105207406.849 7
  81979826.93546        46.900          41.600
  22100284.930                                    22100291.445   116137790.350 7
  90497006.84845        47.300          33.200
  23079970.570                                    23079981.129   121286052.848 6
  94508660.80743        41.700          22.800
  21606214.742                    21606226.359                   113541411.137 8
  88473871.699 8        49.600          48.100
  21941161.953                                    21941170.988   115301576.216 8
  89845417.26645        49.700          34.700
  23947158.609                                    23947167.996   125843028.264 7
  98059593.38343        43.000          22.800
  24487022.633                                    24487033.367   128680178.817 6
 100270311.20542        40.100          17.400
 14  1  6 11 48 39.0000000  0  9G31G17G20G23G04G01G32G11G13
  23474233.461                    23474243.262    23474242.965   123357909.987 7
  96123042.523 6        43.700          41.800
  21572815.555                    21572823.480    21572823.652   113365905.103 8
  88337102.715 7        48.500          47.000
  20021918.203                                    20021925.363   105215886.008 8
  81986434.07946        48.800          41.300
  22084285.320                                    22084291.484   116053711.976 8
  90431491.26745        48.400          32.800
  23060778.063                                    23060787.273   121185193.892 7
  94430069.50243        42.100          22.000
  21621222.133                    21621233.867                   113620273.875 8
  88535323.149 8        48.900          48.200
  21956029.555                                    21956037.945   115379705.333 8
  89906297.07045        48.800          34.400
  23968941.008                                    23968950.102   125957494.889 7
  98148788.02943        43.100          22.500
  24464299.117                                    24464309.793   128560765.637 6
 100177262.11842        39.800          17.800
 14  1  6 11 49  9.0000000  0  9G31G17G20G23G04G01G32G11G13
  23468949.531                    23468958.629    23468958.918   123330140.734 7
  96101404.266 7        44.100          42.200
  21574377.141                    21574385.184    21574385.297   113374110.131 7
  88343496.235 7        47.900          46.800
  20023622.180                                    20023628.813   105224838.984 8
  81993410.42146        48.800          41.100
  22068354.234                                    22068359.988   115969992.236 7
  90366255.14645        47.900          33.300
  23041625.961                                    23041635.113   121084547.180 7
  94351643.54243        42.600          22.200
  21636294.422                    21636306.625                   113699482.124 8
  88597043.820 8        48.800          48.700
  21970945.977                                    21970954.895   115458092.186 8
  89967377.71445        49.500          34.800
  23990746.484                                    23990756.398   126072085.022 7
  98238078.92443        42.900          22.900
  24441589.211                                    24441600.180   128441426.720 6
 100084270.90442        39.400          16.900
 14  1  6 11 49 39.0000000  0  9G31G17G20G23G04G01G32G11G13
  23463772.805                    23463782.605    23463782.484   123302937.256 7
  96080206.868 6        43.900          41.900
  21576054.453                    21576062.496    21576062.551   113382923.929 7
  88350364.117 7        47.600          46.600
  20025415.102                                    20025422.555   105234263.494 7
  82000754.19146        47.600          41.300
  22052491.109                                    22052497.449   115886631.879 8
  90301299.05845        48.200          33.200
  23022514.305                                    23022523.633   120984113.429 7
  94273383.55343        42.100          22.900
  21651432.594                    21651444.445                   113779033.028 8
  88659031.500 8        48.700          48.000
  21985910.805                                    21985920.191   115536733.452 8
  90028656.60345        48.700          34.300
  24012575.266                                    24012584.887   126186794.902 7
  98327463.12043        42.600          22.500
  24418893.195                                    24418904.340   128322162.605 6
  99991337.97842        39.800          17.800
 14  1  6 11 50  9.0000000  0  9G31G17G20G23G04G01G32G11G13
  23458704.273                    23458712.785    23458713.016   123276300.888 7
  96059451.354 7        43.400          42.000
  21577847.398                    21577855.793    21577855.730   113392346.378 7
  88357706.270 7        46.500          46.400
  20027298.195                                    20027305.590   105244158.937 7
  82008464.92546        46.800          41.300
  22036696.789                                    22036703.422   115803633.014 8
  90236624.65145        48.000          33.600
  23003443.414                                    23003452.156   120883894.558 7
  94195291.01144        43.100          24.300
  21666635.563                    21666647.180                   113858925.311 8
  88721285.181 8        48.600          48.400
  22000924.086                                    22000932.770   115615627.605 8
  90090132.53945        48.700          34.800
  24034426.406                                    24034436.262   126301622.703 7
  98416939.19043        43.000          22.500
  24396213.656                                    24396223.805   128202975.976 6
  99898465.44243        40.100          18.600
 14  1  6 11 50 39.0000000  0  9G31G17G20G23G04G01G32G11G13
  23453744.078                    23453753.176    23453753.055   123250234.028 7
  96039139.608 6        44.100          41.400
  21579756.602                    21579764.176    21579764.523   113402378.203 7
  88365523.260 7        47.300          46.300
  20029271.258                                    20029278.242   105254525.994 7
  82016543.15146        47.500          41.300
  22020971.906                                    22020978.246   115720998.471 8
  90172234.14145        48.600          34.000
  22984412.875                                    22984422.848   120783893.648 7
  94117368.28343        43.300          23.000
  21681903.336                    21681915.891                   113939158.628 8
  88783804.605 8        48.500          48.300
  22015985.141                                    22015993.707   115694773.787 8
  90151804.86345        49.000          34.900
  24056299.930                                    24056309.727   126416567.740 7
  98506506.63443        42.900          22.200
  24373548.164                                    24373558.430   128083870.172 6
  99805655.90543        40.300          18.300
 14  1  6 11 51  9.0000000  0  9G31G17G20G23G04G01G32G11G13
  23448890.914                    23448900.773    23448900.594   123224736.571 7
  96019271.535 7        43.400          42.100
  21581780.930                    21581789.207    21581788.910   113413017.890 7
  88373813.910 7        46.900          46.900
  20031332.891                                    20031340.109   105265362.854 8
  82024987.45546        48.400          40.400
  22005316.195                                    22005323.121   115638728.975 8
  90108128.08345        48.400          33.400
  22965425.125                                    22965435.156   120684111.641 7
  94039616.14844        42.900          26.200
  21697236.047                    21697247.781                   114019730.262 8
  88846587.656 8        48.200          48.300
  22031093.891                                    22031102.340   115774168.920 8
  90213671.18145        49.100          34.200
  24078194.813                                    24078204.785   126531626.335 7
  98596162.54943        43.000          22.800
  24350897.828                                    24350909.441   127964846.082 6
  99712910.02243        40.300          19.000
 14  1  6 11 51 39.0000000  0  9G31G17G20G23G04G01G32G11G13
  23444148.508                    23444157.195    23444157.250   123199809.585 7
  95999847.963 7        43.800          42.400
  21583920.930                    21583929.031    21583929.262   113424265.331 7
  88382578.130 7        47.200          46.300
  20033484.625                                    20033491.727   105276668.756 8
  82033797.24346        48.400          40.900
  21989731.477                                    21989737.523   115556826.747 8
  90044308.19945        48.700          34.000
  22946479.477                                    22946488.336   120584550.576 7
  93962036.16943        43.100          22.900
  21712632.547                    21712644.164                   114100638.895 8
  88909633.294 8        48.000          49.000
  22046249.125                                    22046258.043   115853811.319 8
  90275730.16445        48.600          35.000
  24100109.914                                    24100121.176   126646796.672 7
  98685905.52343        42.500          22.300
  24328264.883                                    24328274.797   127845906.569 6
  99620230.03043        41.300          18.600
 14  1  6 11 52  9.0000000  0  9G31G17G20G23G04G01G32G11G13
  23439513.375                    23439522.238    23439522.176   123175455.315 7
  95980870.660 6        43.400          41.800
  21586177.422                    21586185.113    21586185.168   113436120.959 7
  88391816.263 7        47.600          46.700
  20035725.922                                    20035732.379   105288444.127 7
  82042972.85246        47.200          41.700
  21974215.969                                    21974222.484   115475294.450 7
  89980776.58445        47.900          34.100
  22927575.773                                    22927585.688   120485213.403 7
  93884630.63543        42.900          22.200
  21728092.680                    21728104.941                   114181884.098 7
  88972941.210 8        47.200          48.400
  22061451.555                                    22061460.121   115933700.182 8
  90337981.20845        48.600          34.700
  24122048.492                                    24122058.523   126762077.755 7
  98775734.80643        42.500          22.900
  24305647.711                                    24305658.855   127727054.570 6
  99527618.23943        41.300          18.600
 14  1  6 11 52 39.0000000  0 10G31G17G20G23G04G01G32G11G12G13
  23434988.570                    23434997.492    23434997.371   123151674.802 7
  95962340.420 6        42.500          41.600
  21588549.023                    21588557.242    21588557.004   113448584.152 7
  88401527.815 7        47.000          46.200
  20038055.672                                    20038062.949   105300688.638 7
  82052514.02546        47.800          41.400
  21958771.445                                    21958778.547   115394134.086 8
  89917534.78745        48.400          34.400
  22908715.664                                    22908725.461   120386102.361 7
  93807401.30543        43.100          23.500
  21743616.852                    21743628.586                   114263464.367 7
  89036510.202 8        45.000          48.000
  22076700.391                                    22076709.074   116013833.873 7
  90400423.02145        46.400          34.400
  24144005.961                                    24144016.168   126877467.611 7
  98865648.82843        42.700          21.800
  24652870.461                    24652877.977                   129551774.753 5
 100949408.795 5        30.500          31.400
  24283048.016                                    24283058.633   127608292.489 6
  99435076.50543        40.800          18.600
 14  1  6 11 53  9.0000000  0 10G31G17G20G23G04G01G32G11G12G13
  23430572.383                    23430581.480    23430581.242   123128469.425 7
  95944258.331 6        42.900          41.300
  21591036.117                    21591044.395    21591044.332   113461654.820 7
  88411712.733 7        45.700          47.200
  20040474.906                                    20040481.598   105313401.338 7
  82062420.02746        47.500          41.400
  21943398.539                                    21943404.820   115313347.636 8
  89854584.35445        48.200          33.900
  22889898.922                                    22889908.074   120287219.279 7
  93730349.60343        43.200          23.200
  21759204.406                    21759217.078                   114345378.368 7
  89100339.257 7        46.800          47.800
  22091995.945                                    22092004.160   116094210.542 8
  90463054.17045        48.000          34.200
  24165984.594                                    24165994.449   126992964.145 6
  98955645.98543        41.700          21.500
  24650031.602                    24650039.117                   129536853.838 5
 100937782.088 5        33.500          31.400
  24260466.094                                    24260476.418   127489622.644 6
  99342606.62143        41.400          19.300
 14  1  6 11 53 39.0000000  0 10G31G17G20G23G04G01G32G11G12G13
  23426265.148                    23426275.125    23426274.887   123105838.979 7
  95926624.238 6        42.500          41.900
  21593638.758                    21593646.391    21593646.563   113475331.056 7
  88422369.519 7        47.100          46.300
  20042982.734                                    20042990.305   105326580.673 8
  82072689.62946        48.000          41.500
  21928096.547                                    21928103.063   115232935.932 8
  89791925.93845        49.100          33.700
  22871126.477                                    22871135.102   120188565.256 7
  93653476.37244        43.900          24.500
  21774855.414                    21774867.793                   114427623.393 7
  89164426.248 8        47.000          48.100
  22107336.344                                    22107345.203   116174827.289 8
  90525872.39245        48.700          34.600
  24187983.047                                    24187992.492   127108564.090 6
  99045723.73043        41.400          20.600
  24647301.609                    24647312.641                   129522525.524 5
 100926617.108 5        32.500          31.600
  24237901.086                                    24237911.527   127371046.359 6
  99250209.62643        41.700          20.400
 14  1  6 11 54  9.0000000  0 10G31G17G20G23G04G01G32G11G12G13
  23422068.484                    23422077.875    23422077.871   123083785.009 7
  95909439.337 6        43.300          41.700
  21596356.789                    21596364.305    21596364.652   113489613.225 8
  88433498.459 7        48.600          46.700
  20045579.859                                    20045586.961   105340226.598 8
  82083322.81546        49.700          41.300
  21912866.625                                    21912872.555   115152901.046 8
  89729561.14845        49.300          34.100
  22852396.336                                    22852405.723   120090142.674 7
  93576783.48944        44.200          24.700
  21790568.969                    21790581.230                   114510198.582 7
  89228770.500 8        46.000          48.100
  22122722.641                                    22122731.793   116255682.771 7
  90588876.63445        47.600          34.700
  24210000.414                                    24210010.738   127224266.055 6
  99135880.97443        41.100          21.500
  24644691.367                    24644700.055                   129508790.219 5
 100915914.274 5        31.800          32.100
  24215355.180                                    24215365.680   127252566.065 7
  99157887.50343        42.400          19.900
 14  1  6 11 54 39.0000000  0 10G31G17G20G23G04G01G32G11G12G13
  23417981.867                    23417991.551    23417991.430   123062309.209 7
  95892704.945 7        43.900          42.100
  21599189.719                    21599197.762    21599198.051   113504501.221 8
  88445099.468 7        48.400          46.100
  20048265.305                                    20048272.113   105354338.579 8
  82094319.16646        49.200          41.700
  21897708.664                                    21897714.711   115073245.650 8
  89667492.06245        49.000          34.800
  22833711.688                                    22833721.133   119991954.220 7
  93500273.03844        43.100          24.700
  21806344.969                    21806357.641                   114593102.833 7
  89293371.174 8        47.500          48.100
  22138154.273                                    22138163.426   116336775.656 8
  90652065.86645        48.700          33.800
  24232036.492                                    24232046.992   127340068.253 6
  99226116.31143        41.100          20.600
  24642188.188                    24642198.223                   129495648.478 5
 100905673.924 5        31.500          31.700
  24192827.594                                    24192838.738   127134184.847 6
  99065642.53043        41.700          19.600
 14  1  6 11 55  9.0000000  0 10G31G17G20G23G04G01G32G11G12G13
  23414006.234                    23414014.746    23414014.918   123041413.107 7
  95876422.290 6        43.200          41.800
  21602138.258                    21602145.656    21602145.887   113519995.174 7
  88457172.651 7        46.300          46.300
  20051039.086                                    20051046.129   105368916.915 7
  82105678.90546        47.500          41.700
  21882622.773                                    21882628.996   114993972.223 8
  89605720.62545        49.500          34.500
  22815072.641                                    22815081.617   119894002.808 7
  93423947.27844        43.800          24.200
  21822183.922                    21822195.656                   114676335.648 7
  89358227.872 8        47.600          48.000
  22153630.719                                    22153639.695   116418105.189 8
  90715439.49545        48.400          34.500
  24254092.563                                    24254102.066   127455969.765 6
  99316429.01143        41.300          21.500
  24639802.375                    24639810.652                   129483102.190 5
 100895897.585 5        30.800          31.500
  24170319.867                                    24170330.309   127015905.925 7
  98973477.30043        42.200          19.600
 14  1  6 11 55 39.0000000  0 10G31G17G20G23G04G01G32G11G12G13
  23410139.516                    23410148.848    23410148.785   123021098.736 7
  95860592.921 6        44.000          41.800
  21605201.633                    21605209.734    21605210.023   113536095.456 7
  88469718.302 7        47.600          46.300
  20053902.016                                    20053908.941   105383961.500 8
  82117401.95946        48.600          41.300
  21867610.906                                    21867617.246   114915083.387 8
  89544248.85845        49.700          34.200
  22796478.477                                    22796487.570   119796291.063 7
  93347808.30744        43.400          25.900
  21838085.320                    21838097.875                   114759896.234 7
  89423339.972 7        44.600          47.700
  22169152.047                                    22169160.848   116499670.220 7
  90778996.62645        45.900          34.100
  24276166.445                                    24276176.828   127571969.211 6
  99406818.02843        41.600          20.400
  24637527.547                    24637536.293                   129471152.271 5
 100886585.927 5        31.200          30.800
  24147832.234                                    24147842.793   126897732.538 6
  98881394.27343        41.800          21.300
 14  1  6 11 56  9.0000000  0 10G31G17G20G23G04G01G32G11G12G13
  23406385.617                    23406394.246    23406394.242   123001365.679 7
  95845216.559 6        44.000          41.900
  21608380.938                    21608388.336    21608388.566   113552799.587 8
  88482734.492 7        49.000          46.800
  20056853.227                                    20056860.328   105399470.093 8
  82129486.57946        50.000          41.300
  21852672.141                                    21852677.719   114836579.132 8
  89483076.77745        49.900          35.300
  22777929.563                                    22777939.652   119698819.646 7
  93271856.59644        43.400          24.800
  21854047.461                    21854059.781                   114843781.329 7
  89488704.936 7        46.100          47.900
  22184717.516                                    22184726.492   116581467.330 7
  90842734.60345        46.900          33.000
  24298257.992                                    24298268.258   127688062.626 6
  99497280.28843        41.500          20.100
  24635367.500                    24635376.188                   129459796.555 5
 100877737.300 5        31.800          30.800
  24125364.672                                    24125375.113   126779664.932 7
  98789393.73843        42.200          20.100
 14  1  6 11 56 39.0000000  0 10G31G17G20G23G04G01G32G11G12G13
  23402741.625                    23402749.902    23402749.898   122982215.694 7
  95830294.536 6        43.900          41.300
  21611674.320                    21611681.895    21611682.125   113570108.620 8
  88496222.030 7        49.000          46.000
  20059893.117                                    20059899.809   105415443.534 8
  82141933.41446        49.400          41.100
  21837806.531                                    21837813.223   114758463.030 8
  89422207.15345        49.700          34.800
  22759428.352                                    22759437.094   119601591.877 7
  93196094.74644        43.300          24.600
  21870072.586                    21870084.965                   114927991.069 7
  89554322.873 7        47.000          47.600
  22200327.172                                    22200336.207   116663496.316 7
  90906653.25445        47.900          33.500
  24320368.242                                    24320377.922   127804249.718 6
  99587815.54243        40.500          20.900
  24633320.023                    24633327.949                   129449037.486 5
 100869353.569 5        30.100          30.600
  24102918.211                                    24102928.594   126661707.057 6
  98697478.61643        41.800          20.400
 14  1  6 11 57  9.0000000  0 10G31G17G20G23G04G01G32G11G12G13
  23399207.906                    23399216.008    23399215.945   122963647.571 7
  95815825.932 6        44.500          40.700
  21615083.094                    21615090.434    21615090.547   113588019.346 8
  88510178.415 7        48.300          45.600
  20063020.219                                    20063027.555   105431878.253 8
  82154739.68646        49.100          40.100
  21823015.805                                    21823022.379   114680734.304 8
  89361639.38345        50.000          34.400
  22740972.523                                    22740981.441   119504607.385 7
  93120522.46044        42.500          25.100
  21886157.977                    21886169.945                   115012521.401 7
  89620190.629 7        45.900          46.400
  22215980.320                                    22215989.063   116745752.983 7
  90970749.32045        46.100          32.400
  24342494.844                                    24342505.520   127920525.888 6
  99678420.19943        41.400          20.600
  24631384.828                    24631394.277                   129438873.000 5
 100861433.168 4        30.300          29.900
  24080491.938                                    24080502.672   126543858.984 6
  98605649.10943        41.700          20.600
 14  1  6 11 57 39.0000000  0 10G31G17G20G23G04G01G32G11G12G13
  23395785.641                    23395794.504    23395794.207   122945665.112 7
  95801813.701 6        44.500          41.500
  21618605.406                    21618613.742    21618613.797   113606534.301 8
  88524605.627 7        48.800          46.000
  20066236.180                                    20066243.047   105448777.234 8
  82167907.72846        49.100          40.600
  21808299.109                                    21808305.566   114603398.196 8
  89301377.53945        49.700          34.800
  22722564.977                                    22722574.012   119407871.645 7
  93045144.02244        43.900          25.600
  21902305.094                    21902317.297                   115097373.966 7
  89686309.462 7        47.200          47.500
  22231676.766                                    22231685.859   116828238.635 7
  91035023.82145        47.600          33.600
  24364638.594                                    24364649.621   128036892.385 6
  99769095.23243        41.100          20.900
  24629564.125                    24629573.984                   129429305.681 5
 100853978.088 5        30.300          30.700
  24058087.234                                    24058098.086   126426125.811 6
  98513909.16443        41.000          19.000
 14  1  6 11 58  9.0000000  0 10G31G17G20G23G04G01G32G11G12G13
  23392475.172                    23392483.684    23392483.973   122928268.103 7
  95788257.682 7        44.300          42.300
  21622243.969                    21622251.953    21622251.773   113625651.609 8
  88539502.204 7        48.500          46.400
  20069539.836                                    20069546.938   105466138.352 8
  82181435.87246        49.300          41.000
  21793657.328                                    21793663.902   114526455.117 8
  89241421.95745        50.000          34.800
  22704203.547                                    22704213.168   119311385.229 7
  92969959.86244        42.700          25.300
  21918512.516                    21918525.012                   115182546.123 7
  89752677.340 7        46.200          46.800
  22247416.648                                    22247425.391   116910950.386 7
  91099474.49845        46.700          33.300
  24386798.789                                    24386809.289   128153346.065 6
  99859838.22043        40.600          19.600
  24627857.727                    24627866.648                   129420334.978 5
 100846987.925 5        31.300          31.000
  24035705.875                                    24035716.375   126308508.930 6
  98422259.76143        41.400          20.400
 14  1  6 11 58 39.0000000  0 10G31G17G20G23G04G01G32G11G12G13
  23389275.578                    23389284.266    23389284.379   122911456.408 7
  95775157.761 7        44.300          42.600
  21625996.094                    21626004.313    21626004.367   113645369.577 7
  88554866.835 7        47.500          46.600
  20072931.109                                    20072938.387   105483959.543 8
  82195322.51846        48.000          40.600
  21779090.492                                    21779096.715   114449905.784 8
  89181773.18745        49.500          35.400
  22685890.141                                    22685899.293   119215149.281 7
  92894970.88244        43.000          24.200
  21934780.898                    21934793.043                   115268035.088 7
  89819292.078 7        46.300          47.000
  22263198.289                                    22263207.676   116993885.239 7
  91164099.02745        47.500          33.000
  24408975.695                                    24408985.785   128269883.436 6
  99950646.38843        41.100          19.900
  24626264.141                    24626272.652                   129411959.992 5
 100840461.936 5        31.600          31.300
  24013346.930                                    24013356.785   126191009.448 7
  98330701.85443        42.200          20.100
 14  1  6 11 59  9.0000000  0 10G31G17G20G23G04G01G32G11G12G13
  23386189.086                    23386197.656    23386197.594   122895234.054 7
  95762517.055 7        44.000          42.300
  21629862.695                    21629871.324    21629871.379   113665690.587 7
  88570701.368 7        44.200          46.000
  20076410.719                                    20076417.703   105502243.675 7
  82209569.89146        46.400          41.300
  21764599.414                                    21764605.227   114373755.265 8
  89122435.17645        49.600          35.300
  22667626.031                                    22667635.125   119119169.131 7
  92820181.20944        43.000          24.900
  21951109.258                    21951121.344                   115353842.820 7
  89886155.210 7        47.200          46.800
  22279022.852                                    22279031.828   117077044.985 7
  91228898.78845        47.000          33.300
  24431168.680                                    24431178.770   128386506.178 6
 100041521.10743        40.900          20.100
  24624784.766                    24624793.102                   129404183.954 5
 100834402.662 5        30.100          31.500
  23991010.500                                    23991020.707   126073633.301 7
  98239240.02643        42.000          19.300
 14  1  6 11 59 39.0000000  0 10G31G17G20G23G04G01G32G11G12G13
  23383213.516                    23383222.320    23383222.609   122879599.436 7
  95750334.327 7        43.800          42.600
  21633844.633                    21633852.383    21633852.555   113686611.598 7
  88587003.429 7        46.900          46.600
  20079977.109                                    20079984.094   105520987.574 8
  82224175.52046        49.100          41.300
  21750184.555                                    21750190.426   114298002.747 8
  89063407.29045        50.100          35.300
  22649410.148                                    22649419.242   119023444.528 7
  92745590.69144        42.800          26.100
  21967498.297                    21967510.207                   115439965.355 7
  89953263.641 7        47.200          47.000
  22294889.797                                    22294898.656   117160425.435 7
  91293870.54445        46.300          33.100
  24453376.445                                    24453386.945   128503209.551 6
 100132458.65843        40.900          20.400
  24623418.063                    24623427.160                   129397004.349 5
 100828808.186 5        31.000          31.400
  23968698.266                                    23968707.184   125956380.004 6
  98147873.93143        41.700          18.600
 14  1  6 12  0  9.0000000  4  5
MORP (COGO code)                                            COMMENT
   0.033      (antenna height)                              COMMENT
 +55.21279000 (latitude)                                    COMMENT
  -1.68549700 (longitude)                                   COMMENT
0144.425      (elevation)                                   COMMENT
 14  1  6 12  0  9.0000000  0 10G31G17G20G23G04G01G32G11G12G13
  23380349.875                    23380358.797    23380358.852   122864552.981 7
  95738609.907 6        43.800          41.800
  21637939.539                    21637947.523    21637947.461   113708131.402 7
  88603772.083 7        47.700          46.200
  20083630.914                                    20083638.660   105540189.859 8
  82239138.34846        49.200          41.100
  21735844.859                                    21735851.023   114222649.705 8
  89004690.68545        50.300          35.900
  22631243.195                                    22631252.230   118927977.122 7
  92671200.56544        43.000          27.000
  21983946.461                    21983958.313                   115526400.698 7
  90020615.817 7        46.000          46.900
  22310798.336                                    22310807.547   117244024.383 7
  91359012.54645        46.400          32.400
  24475599.883                                    24475609.855   128619991.201 6
 100223457.19643        40.200          18.600
  24622164.367                    24622174.051                   129390421.84914
 100823678.57515        28.900          30.700
  23946408.961                                    23946419.461   125839251.734 6
  98056605.25143        41.900          20.600
 14  1  6 12  0 39.0000000  0 10G31G17G20G23G04G01G32G11G12G13
  23377599.164                    23377607.910    23377608.258   122850097.339 7
  95727345.862 7        42.600          42.600
  21642148.719                    21642156.703    21642156.641   113730251.086 8
  88621008.178 7        48.800          46.600
  20087373.117                                    20087379.809   105559851.842 8
  82254459.37046        50.000          41.100
  21721582.570                                    21721588.617   114147699.887 8
  88946288.27445        49.700          35.100
  22613125.969                                    22613135.473   118832771.029 7
  92597014.06844        43.100          26.400
  22000453.797                    22000466.234                   115613149.344 7
  90088212.132 7        45.500          46.700
  22326748.461                                    22326757.145   117327842.218 7
  91424325.11145        46.700          32.600
  24497837.133                                    24497848.219   128736851.195 6
 100314516.78242        40.800          17.800
  24621026.984                    24621035.496                   129384436.759 5
 100819014.918 5        30.500          30.800
  23924144.844                                    23924155.461   125722252.978 7
  97965437.46843        42.100          20.400
 14  1  6 12  1  9.0000000  0 10G31G17G20G23G04G01G32G11G12G13
  23374960.398                    23374969.555    23374969.609   122836232.607 7
  95716542.266 7        42.300          42.600
  21646471.656                    21646480.402    21646480.516   113752969.203 7
  88638710.591 7        44.400          46.500
  20091202.047                                    20091208.973   105579972.139 7
  82270137.52246        47.000          41.700
  21707396.703                                    21707402.867   114073154.548 8
  88888201.04045        50.000          34.700
  22595058.484                                    22595068.047   118737827.836 7
  92523032.41544        43.600          26.300
  22017020.570                    22017033.066                   115700209.017 7
  90156050.801 7        46.600          46.800
  22342739.742                                    22342748.426   117411876.425 7
  91489806.26845        47.500          32.300
  24520089.023                                    24520099.934   128853786.769 6
 100405635.24542        40.500          17.800
  24620000.875                    24620009.914                   129379049.263 5
 100814817.279 5        30.800          31.100
  23901906.281                                    23901915.434   125605384.997 6
  97874371.56943        41.400          19.900
 14  1  6 12  1 39.0000000  0 10G31G17G20G23G04G01G32G11G12G13
  23372434.617                    23372443.773    23372443.945   122822959.610 7
  95706199.748 7        42.300          42.600
  21650908.484                    21650916.527    21650916.641   113776285.152 8
  88656878.850 7        48.100          46.800
  20095117.688                                    20095124.496   105600550.309 8
  82286172.46246        49.600          41.400
  21693288.805                                    21693295.086   113999015.517 8
  88830430.40646        50.300          36.000
  22577042.031                                    22577050.832   118643149.717 7
  92449257.31244        43.200          26.000
  22033647.148                    22033659.352                   115787578.562 7
  90224130.936 7        47.000          46.900
  22358771.836                                    22358780.578   117496125.653 7
  91555454.98745        46.400          31.700
  24542355.789                                    24542365.762   128970796.240 6
 100496811.34643        39.900          18.600
  24619091.172                    24619099.215                   129374259.862 5
 100811085.283 5        31.600          30.200
  23879692.422                                    23879701.984   125488650.692 7
  97783409.84243        42.200          20.100
 14  1  6 12  2  9.0000000  0 10G31G17G20G23G04G01G32G11G12G13
  23370021.359                    23370030.281    23370030.277   122810278.128 6
  95696318.136 7        41.700          42.500
  21655459.125                    21655467.227    21655467.164   113800197.529 8
  88675511.857 7        48.100          46.500
  20099120.570                                    20099127.730   105621584.551 8
  82302562.78046        49.400          41.600
  21679258.031                                    21679263.609   113925283.851 8
  88772977.19845        50.600          34.900
  22559076.219                                    22559085.371   118548737.875 7
  92375689.69344        42.600          27.600
  22050331.523                    22050343.375                   115875255.437 7
  90292450.547 7        45.800          46.600
  22374844.195                                    22374853.113   117580587.365 7
  91621269.27245        45.800          32.400
  24564634.875                                    24564646.137   129087876.576 6
 100588042.61143        39.600          19.900
  24618291.438                    24618300.594                   129370067.394 5
 100807818.429 4        32.800          29.400
  23857503.445                                    23857513.359   125372051.416 6
  97692553.34643        41.800          20.100
 14  1  6 12  2 39.0000000  0 10G31G17G20G23G04G01G32G11G12G13
  23367720.938                    23367730.504    23367730.148   122798189.404 7
  95686898.404 7        42.500          43.000
  21660122.375                    21660131.121    21660131.059   113824705.576 7
  88694609.026 7        47.600          46.300
  20103209.891                                    20103216.582   105643074.395 8
  82319308.11146        49.300          41.300
  21665305.195                                    21665310.773   113851961.212 8
  88715842.69945        50.500          35.100
  22541161.664                                    22541170.348   118454594.927 7
  92302331.62244        43.400          27.700
  22067073.875                    22067086.313                   115963238.501 7
  90361008.739 7        45.800          47.200
  22390957.563                                    22390965.602   117665260.099 7
  91687247.98545        46.500          32.100
  24586928.750                                    24586939.191   129205026.311 6
 100679327.95543        37.300          19.300
  24617609.266                    24617616.898                   129366472.648 5
 100805017.287 4        34.100          29.100
  23835342.211                                    23835351.598   125255589.971 7
  97601804.25843        42.100          20.600
 14  1  6 12  3  9.0000000  0 10G31G17G20G23G04G01G32G11G12G13
  23365533.359                    23365542.809    23365542.863   122786695.288 7
  95677941.998 7        42.200          43.000
  21664899.883                    21664908.395    21664908.449   113849809.798 7
  88714170.755 7        46.200          46.600
  20107386.234                                    20107392.867   105665020.658 8
  82336409.09346        48.400          41.300
  21651431.188                                    21651436.883   113779051.043 8
  88659029.61045        50.200          35.800
  22523298.109                                    22523307.496   118360724.405 7
  92229185.81144        43.700          27.900
  22083875.094                    22083887.590                   116051527.626 7
  90429805.421 7        46.700          46.900
  22407109.867                                    22407118.668   117750143.664 7
  91753390.98945        46.400          32.600
  24609234.281                                    24609245.426   129322244.829 6
 100770666.90142        38.100          17.800
  24617038.602                    24617046.996                   129363476.489 5
 100802682.583 5        34.300          30.500
  23813206.836                                    23813217.277   125139270.132 6
  97511165.54643        41.600          19.300
 14  1  6 12  3 39.0000000  0 10G31G17G20G23G04G01G32G11G12G13
  23363459.313                    23363468.410    23363468.523   122775796.236 7
  95669449.275 7        42.600          43.000
  21669790.547                    21669798.473    21669798.410   113875508.767 7
  88734195.913 7        47.000          46.000
  20111648.914                                    20111655.723   105687422.005 8
  82353864.69146        49.100          41.500
  21637635.266                                    21637640.961   113706554.696 8
  88602538.97845        50.700          35.900
  22505487.445                                    22505497.066   118267127.854 7
  92156253.47744        44.200          28.800
  22100733.797                    22100746.234                   116140120.812 7
  90498839.037 7        45.400          46.400
  22423301.898                                    22423310.992   117835235.906 7
  91819696.59645        46.500          31.600
  24631553.141                                    24631564.109   129439529.643 6
 100862057.55642        38.600          17.800
  24616582.648                    24616590.047                   129361078.456 5
 100800813.967 5        34.300          30.500
  23791099.172                                    23791109.262   125023093.884 7
  97420638.66443        42.100          21.500
 14  1  6 12  4  9.0000000  0 10G31G17G20G23G04G01G32G11G12G13
  23361498.727                    23361508.410    23361508.230   122765493.072 7
  95661420.875 7        43.000          42.600
  21674793.945                    21674801.520    21674801.926   113901802.074 7
  88754684.202 7        47.300          46.800
  20115998.109                                    20116005.387   105710278.078 8
  82371674.61946        48.800          41.600
  21623918.938                                    21623924.340   113634474.228 8
  88546372.41246        50.700          36.000
  22487729.727                                    22487739.113   118173808.202 7
  92083536.91644        44.100          28.600
  22117650.430                    22117662.574                   116229016.999 7
  90568108.751 7        45.100          46.600
  22439533.898                                    22439542.758   117920535.649 7
  91886163.88445        45.900          32.400
  24653884.352                                    24653894.559   129556879.307 6
 100953498.69442        38.400          17.800
  24616239.320                    24616248.184                   129359279.053 5
 100799411.796 5        34.200          30.600
  23769019.148                                    23769029.473   124907063.964 7
  97330225.86343        42.300          20.600
 14  1  6 12  4 39.0000000  0 10G31G17G20G23G04G01G32G11G12G13
  23359650.898                    23359659.938    23359659.934   122755784.499 7
  95653855.795 7        42.700          42.600
  21679909.914                    21679917.723    21679917.719   113928686.488 7
  88775633.084 7        46.900          46.000
  20120433.289                                    20120440.566   105733586.081 7
  82389836.70346        47.700          40.900
  21610281.375                                    21610287.480   113562809.389 8
  88490529.70345        50.400          35.900
  22470024.289                                    22470033.676   118080765.661 7
  92011036.28844        43.600          27.600
  22134623.461                    22134636.074                   116318212.749 7
  90637611.897 7        45.800          46.000
  22455804.586                                    22455814.207   118006039.457 7
  91952790.19645        45.700          31.400
  24676226.898                                    24676237.457   129674289.896 6
 101044987.33643        38.600          18.600
  24616009.789                    24616019.414                   129358075.820 5
 100798474.199 5        32.900          32.700
  23746967.711                                    23746977.508   124791180.867 7
  97239927.46043        42.600          21.300
 14  1  6 12  5  9.0000000  0 10G31G17G20G23G04G01G32G11G12G13
  23357917.695                    23357926.969    23357926.965   122746673.918 6
  95646756.680 7        41.500          42.900
  21685139.078                    21685146.887    21685146.824   113956164.479 7
  88797044.493 7        47.300          46.700
  20124954.742                                    20124962.371   105757348.208 8
  82408352.64646        48.000          40.200
  21596723.625                                    21596729.906   113491564.864 8
  88435014.52246        50.700          36.300
  22452371.945                                    22452381.098   117988005.011 7
  91938755.30544        43.200          28.700
  22151654.219                    22151666.188                   116407709.290 7
  90707349.419 7        45.200          47.200
  22472114.930                                    22472123.438   118091748.440 7
  92019576.38745        45.200          30.800
  24698582.391                                    24698591.660   129791762.177 6
 101136524.04842        38.700          17.800
  24615896.078                    24615904.766                   129357471.982 5
 100798003.679 5        33.200          33.000
  23724943.969                                    23724954.176   124675449.821 7
  97149747.54343        42.700          20.400
 14  1  6 12  5 39.0000000  0 10G31G17G20G23G04G01G32G11G12G13
  23356297.938                    23356305.980    23356305.859   122738159.080 7
  95640121.772 7        43.100          42.900
  21690479.453                    21690488.199    21690488.371   113984231.929 7
  88818915.221 7        47.700          46.600
  20129562.703                                    20129569.453   105781560.456 8
  82427219.33646        48.300          40.600
  21583246.219                                    21583252.324   113420739.201 8
  88379825.71446        50.800          36.900
  22434773.789                                    22434783.117   117895525.575 7
  91866693.45944        43.600          27.900
  22168741.063                    22168753.090                   116497502.124 7
  90777317.819 7        45.200          46.700
  22488462.586                                    22488472.266   118177657.927 7
  92086518.81245        45.200          30.800
  24720947.500                                    24720956.770   129909291.248 6
 101228104.99343        38.800          18.300
  24615894.711                    24615903.457                   129357464.092 5
 100797997.546 5        31.500          34.700
  23702950.289                                    23702960.027   124559870.312 7
  97059685.67843        42.600          20.900
 14  1  6 12  6  9.0000000  0 10G31G17G20G23G04G01G32G11G12G13
  23354791.461                    23354799.914    23354799.793   122730240.883 6
  95633951.783 6        40.100          41.900
  21695932.742                    21695940.902    21695941.074   114012888.374 7
  88841244.900 7        47.800          46.100
  20134255.656                                    20134262.641   105806222.806 7
  82446436.74746        47.200          40.500
  21569849.000                                    21569854.930   113350335.127 8
  88324965.42746        50.300          36.400
  22417229.281                                    22417238.902   117803330.241 7
  91794852.96844        43.900          28.000
  22185884.289                    22185896.961                   116587590.444 7
  90847516.470 7        45.700          46.600
  22504848.828                                    22504857.688   118263767.085 7
  92153616.82745        44.600          31.700
  24743321.852                                    24743332.527   130026876.114 6
 101319729.44942        38.100          16.300
  24616006.492                    24616014.945                   129358052.292 5
 100798455.905 5        31.800          33.900
  23680985.266                                    23680995.121   124444445.246 7
  96969744.15643        42.200          21.500
 14  1  6 12  6 39.0000000  0 11G31G10G17G20G23G04G01G32G11G12G13
  23353398.453                    23353406.906    23353406.668   122722922.591 7
  95628249.241 7        42.300          42.000
  24995725.086                                                   131353361.959 5
                        32.400
  21701498.531                    21701506.223    21701506.570   114042135.205 7
  88864034.617 7        47.500          46.600
  20139034.570                                    20139041.730   105831337.010 8
  82466006.25346        48.500          40.800
  21556532.047                                    21556538.270   113280356.284 8
  88270436.48646        50.500          37.100
  22399740.000                                    22399749.680   117711423.582 7
  91723237.43244        43.000          28.500
  22203083.906                    22203096.168                   116677975.068 7
  90917945.997 7        45.900          46.900
  22521273.406                                    22521282.676   118350076.622 7
  92220870.97345        45.300          31.600
  24765708.891                                    24765719.098   130144516.863 6
 101411397.39042        36.900          16.300
  24616232.461                    24616241.617                   129359239.837 5
 100799381.277 5        31.300          33.400
  23659051.570                                    23659060.488   124329179.410 7
  96879926.72943        42.600          20.600
 14  1  6 12  7  9.0000000  0 11G31G10G17G20G23G04G01G32G11G12G13
  23352119.039                    23352128.078    23352127.723   122716202.231 7
  95623012.612 6        42.000          41.700
  24974211.820                                                   131240301.985 5
                        33.100
  21707175.891                    21707183.348    21707183.461   114071969.297 7
  88887281.933 7        47.900          45.800
  20143898.766                                    20143906.336   105856899.962 8
  82485925.43246        48.100          40.600
  21543296.867                                    21543302.621   113210802.397 8
  88216238.68246        50.900          37.100
  22382306.617                                    22382315.242   117619805.497 7
  91651846.74844        43.200          29.200
  22220339.680                    22220351.766                   116768652.324 7
  90988603.552 7        46.500          46.500
  22537734.828                                    22537743.395   118436582.836 7
  92288278.38045        45.200          30.800
  24788104.078                                    24788115.516   130262209.698 6
 101503105.98342        36.400          16.900
  24616572.289                    24616579.805                   129361023.600 5
 100800771.209 5        33.200          33.600
  23637147.375                                    23637156.293   124214073.302 7
  96790233.74043        42.700          22.000
 14  1  6 12  7 39.0000000  0 11G31G10G17G20G23G04G01G32G11G12G13
  23350954.430                    23350962.707    23350962.879   122710080.649 7
  95618242.561 6        43.900          41.900
  24952708.867                                                   131127305.461 5
                        31.600
  21712964.453                    21712972.730    21712972.551   114102389.659 7
  88910986.092 7        47.900          47.300
  20148849.078                                    20148855.945   105882910.882 8
  82506193.67346        48.800          40.900
  21530141.883                                    21530147.754   113141675.358 8
  88162373.48046        51.500          37.200
  22364926.477                                    22364936.332   117528478.851 7
  91580683.14844        43.400          28.300
  22237650.828                    22237662.211                   116859621.007 7
  91059488.193 7        44.800          46.500
  22554233.391                                    22554242.602   118523284.481 7
  92355838.09245        45.300          31.500
  24810510.555                                    24810521.641   130379952.790 6
 101594853.69442        36.300          14.800
  24617024.742                    24617033.313                   129363403.394 5
 100802625.594 5        33.200          32.800
  23615273.938                                    23615283.559   124099129.623 7
  96700667.31843        42.400          21.700
 14  1  6 12  8  9.0000000  0 11G31G10G17G20G23G04G01G32G11G12G13
  23349903.789                    23349911.598    23349911.828   122704558.351 7
  95613939.478 6        43.200          41.700
  24931218.141                                                   131014373.043 5
                        32.900
  21718864.313                    21718873.234    21718873.113   114133395.347 8
  88935146.344 7        48.400          46.100
  20153883.703                                    20153890.863   105909369.376 8
  82526810.68046        49.000          40.800
  21517068.859                                    21517074.965   113072976.758 8
  88108842.13146        50.300          36.400
  22347603.648                                    22347613.270   117437445.430 7
  91509748.03344        43.200          28.600
  22255015.727                    22255028.281                   116950879.372 7
  91130598.570 7        45.200          46.600
  22570769.086                                    22570778.297   118610179.808 7
  92423548.69445        45.100          31.200
  24832925.852                                    24832936.820   130497744.181 5
 101686639.09142        35.900          16.300
  24617590.594                    24617598.988                   129366379.230 5
 100804944.398 5        31.800          32.000
  23593432.055                                    23593441.266   123984350.486 7
  96611229.09843        42.700          21.800
 14  1  6 12  8 39.0000000  0 11G31G10G17G20G23G04G01G32G11G12G13
  23348966.992                    23348975.914    23348975.969   122699636.930 7
  95610104.613 6        42.900          41.100
  24909738.688                                                   130901507.672 5
                        31.900
  21724876.078                    21724884.414    21724884.469   114164986.485 8
  88959762.785 7        48.000          46.000
  20159004.266                                    20159011.250   105936275.846 8
  82547776.75546        49.200          41.300
  21504078.117                                    21504084.105   113004709.626 8
  88055646.99046        50.900          36.200
  22330337.305                                    22330346.340   117346709.072 7
  91439044.40844        43.000          28.200
  22272436.828                    22272449.207                   117042427.195 7
  91201934.484 7        44.900          46.300
  22587341.242                                    22587350.980   118697268.586 7
  92491410.05345        45.900          30.600
  24855350.375                                    24855361.520   130615583.305 6
 101778461.64042        36.300          15.600
  24618270.602                    24618279.582                   129369952.315 5
 100807728.599 5        30.500          30.900
  23571621.625                                    23571631.773   123869739.849 6
  96521922.17343        41.400          20.600
 14  1  6 12  9  9.0000000  0 11G31G10G17G20G23G04G01G32G11G12G13
  23348145.008                    23348154.281    23348153.984   122695317.404 7
  95606738.763 6        43.100          41.800
  24888275.688                                                   130788711.372 5
                        31.800
  21730999.422                    21731007.582    21731007.578   114197162.649 7
  88984835.097 7        47.800          46.600
  20164209.398                                    20164215.797   105963629.896 8
  82569091.58546        49.100          40.900
  21491169.867                                    21491176.031   112936876.532 8
  88002790.07146        51.000          36.700
  22313128.078                                    22313136.527   117256272.433 7
  91368574.32144        43.400          28.600
  22289913.242                    22289925.563                   117134263.694 7
  91273495.342 7        45.100          46.200
  22603950.227                                    22603959.965   118784549.980 7
  92559421.50445        45.500          30.500
  24877782.594                                    24877793.387   130733469.405 6
 101870320.83442        36.200          16.300
  24619064.227                    24619072.328                   129374122.749 4
 100810978.231 5        28.900          30.000
  23549845.430                                    23549854.992   123755300.578 7
  96432748.74743        42.000          21.700
 14  1  6 12  9 39.0000000  0 11G31G10G17G20G23G04G01G32G11G12G13
  23347437.234                    23347446.684    23347446.680   122691598.825 7
  95603841.182 7        42.000          42.100
  24866824.352                                                   130675983.874 5
                        31.600
  21737233.039                    21737240.730    21737240.727   114229921.454 8
  89010361.417 7        48.100          46.200
  20169499.641                                    20169506.332   105991429.405 8
  82590753.53846        49.100          41.600
  21478344.461                                    21478350.449   112869477.348 8
  87950271.25946        50.900          36.900
  22295975.891                                    22295984.516   117166136.644 7
  91298338.67444        43.500          29.100
  22307443.820                    22307455.730                   117226385.946 7
  91345278.866 7        44.800          46.000
  22620596.148                                    22620604.598   118872021.036 7
  92627580.73645        45.900          31.000
  24900223.906                                    24900235.402   130851398.433 6
 101962213.43442        36.800          16.300
  24619969.867                    24619980.195                   129378888.571 4
 100814691.829 5        29.400          30.800
  23528100.898                                    23528110.344   123641033.664 7
  96343709.64943        42.100          21.300
 14  1  6 12 10  9.0000000  0 11G31G10G17G20G23G04G01G32G11G12G13
  23346843.828                    23346852.926    23346852.922   122688480.350 7
  95601411.215 7        42.800          42.000
  24845385.070                                                   130563325.086 5
                        30.700
  21743577.211                    21743585.840    21743585.660   114263260.322 8
  89036339.732 7        48.500          45.700
  20174873.758                                    20174881.152   106019672.187 8
  82612760.89546        49.200          41.400
  21465601.602                                    21465607.707   112802512.875 8
  87898091.18346        50.800          37.500
  22278880.773                                    22278890.102   117076302.324 7
  91228337.93744        43.000          28.700
  22325027.305                    22325040.445                   117318791.038 7
  91417282.792 7        44.200          46.300
  22637277.070                                    22637285.813   118959678.875 7
  92695885.52945        45.300          30.200
  24922672.609                                                   130969367.271 5
                        35.300
  24620987.539                    24620999.977                   129384248.730 4
 100818868.554 5        27.300          30.200
  23506389.625                                    23506399.246   123526940.467 7
  96254805.88043        42.400          21.700
 14  1  6 12 10 39.0000000  0 10G31G10G17G20G23G04G01G32G11G13
  23346364.914                    23346373.660    23346373.656   122685963.413 7
  95599449.991 6        43.900          41.800
  24823959.992                                                   130450737.701 5
                        31.000
  21750031.500                    21750039.367    21750039.480   114297179.201 7
  89062770.002 7        47.800          46.200
  20180332.836                                    20180339.820   106048358.944 8
  82635114.21046        49.900          41.000
  21452941.523                                    21452947.512   112735985.352 8
  87846251.59046        50.800          36.800
  22261844.039                                    22261852.957   116986773.141 7
  91158574.98744        44.100          29.300
  22342665.422                    22342677.801                   117411478.690 7
  91489506.882 7        44.100          46.000
  22653992.828                                    22654002.273   119047523.155 7
  92764335.58644        45.400          29.700
  24945128.516                                                   131087375.562 5
                        35.900
  23484712.227                                    23484721.555   123413024.681 7
  96166040.35243        42.300          21.800
 14  1  6 12 11  9.0000000  0 10G31G10G17G20G23G04G01G32G11G13
  23346000.461                    23346009.441    23346009.320   122684049.175 7
  95597958.399 7        43.000          42.200
  24802549.656                                                   130338223.677 5
                        31.500
  21756596.594                    21756604.402    21756604.516   114331677.735 8
  89089651.952 7        48.100          46.500
  20185876.328                                    20185883.547   106077489.196 8
  82657813.10346        49.100          41.200
  21440365.383                                    21440371.547   112669897.483 8
  87794754.58146        50.900          36.700
  22244865.852                                    22244874.652   116897552.060 7
  91089052.11044        43.600          28.600
  22360357.281                    22360369.191                   117504448.117 7
  91561950.534 7        44.100          45.900
  22670744.813                                    22670753.965   119135553.160 7
  92832930.35745        45.200          30.400
  24967593.055                                                   131205422.289 5
                        34.600
  23463069.461                                    23463078.379   123299289.444 7
  96077415.55843        42.400          22.600
 14  1  6 12 11 39.0000000  0 10G31G10G17G20G23G04G01G32G11G13
  23345750.727                    23345759.766    23345759.938   122682736.741 7
  95596935.762 7        42.700          42.500
  24781152.555                                                   130225782.791 5
                        31.000
  21763271.508                    21763279.668    21763279.605   114366753.696 8
  89116983.855 7        48.200          46.000
  20191503.305                                    20191510.641   106107061.054 8
  82680856.10646        48.800          40.500
  21427872.992                                    21427879.039   112604249.536 8
  87743600.37346        50.800          36.600
  22227946.117                                    22227955.211   116808640.087 7
  91019770.10344        43.200          28.000
  22378101.398                    22378113.543                   117597696.467 7
  91634611.539 7        43.800          46.000
  22687530.875                                    22687540.203   119223766.103 7
  92901667.69444        44.700          29.700
  24990063.156                                                   131323503.956 5
                        34.800
  23441460.727                                    23441469.996   123185735.901 7
  95988932.31643        43.200          22.300
 14  1  6 12 12  9.0000000  0 10G31G10G17G20G23G04G01G32G11G13
  23345615.555                    23345624.652    23345624.707   122682026.983 7
  95596382.733 7        43.200          42.800
  24759769.914                                                   130113416.956 5
                        31.600
  21770055.555                    21770063.598    21770063.945   114402406.469 8
  89144765.211 7        48.500          45.900
  20197214.453                                    20197222.141   106137074.457 8
  82704243.17446        49.000          41.000
  21415464.695                                    21415470.977   112539043.946 8
  87692790.85246        50.500          36.400
  22211085.906                                    22211094.883   116720040.145 7
  90950731.24544        43.800          28.400
  22395899.492                    22395911.461                   117691222.953 7
  91707489.260 7        44.300          46.100
  22704352.141                                    22704361.176   119312161.149 7
  92970546.93445        44.900          30.200
  25012540.148                                                   131441619.566 5
                        34.100
  23419887.680                                    23419896.129   123072367.198 7
  95900593.11143        42.600          22.200
 14  1  6 12 12 39.0000000  0 11G31G10G17G20G23G04G01G32G11G12G13
  23345595.281                    23345604.555    23345604.668   122681920.404 7
  95596299.717 7        43.500          42.300
  24738401.781                                                   130001127.998 5
                        31.500
  21776949.844                    21776958.004    21776958.176   114438634.895 8
  89172995.132 7        48.400          45.800
  20203009.961                                    20203017.355   106167528.741 8
  82727973.78446        49.100          41.000
  21403140.977                                    21403146.906   112474282.511 8
  87642327.43146        50.400          36.900
  22194286.047                                    22194294.848   116631755.031 7
  90881937.70444        44.000          29.900
  22413749.219                    22413761.832                   117785026.257 7
  91780582.693 7        43.500          45.900
  22721207.484                                    22721217.281   119400737.172 7
  93039567.18245        43.100          30.200
  25035023.078                                                   131559767.467 5
                        34.800
  24627788.852                                                   129419957.184 5
                        31.900
  23398349.609                                    23398358.879   122959186.317 7
  95812400.29243        43.100          22.800
 14  1  6 12 13  9.0000000  0 11G31G10G17G20G23G04G01G32G11G12G13
  23345689.609                    23345698.473    23345698.527   122682416.264 7
  95596686.149 7        43.500          42.800
  24717050.344                                                   129888916.322 5
                        32.900
  21783953.328                    21783961.195    21783961.367   114475436.441 8
  89201671.635 7        48.600          46.100
  20208888.906                                    20208896.359   106198422.095 8
  82752046.52746        48.800          40.600
  21390901.539                                    21390908.113   112409965.566 8
  87592210.37646        50.200          37.200
  22177545.969                                    22177554.477   116543785.724 7
  90813390.23644        44.400          28.600
  22431651.352                    22431664.844                   117879103.790 7
  91853889.807 7        43.800          46.300
  22738096.750                                    22738106.488   119489491.569 7
  93108726.41444        42.400          29.400
  25057510.695                                                   131677944.891 5
                        33.800
  24629486.297                    24629494.633                   129428880.227 5
 100853664.088 5        31.800          30.200
  23376847.539                                    23376857.160   122846194.173 7
  95724354.53343        42.600          22.600
 14  1  6 12 13 39.0000000  0 11G31G10G17G20G23G04G01G32G11G12G13
  23345898.961                    23345907.531    23345907.586   122683515.846 7
  95597543.015 7        44.400          42.400
  24695712.375                                                   129776784.254 5
                        33.200
  21791065.156                    21791073.492    21791073.547   114512811.379 8
  89230794.940 7        48.300          46.200
  20214851.352                                    20214858.863   106229754.800 8
  82776461.61946        48.800          41.000
  21378747.805                                    21378753.559   112346096.257 8
  87542442.11746        50.200          36.800
  22160866.578                                    22160875.496   116456135.903 7
  90745091.72144        44.300          28.600
  22449605.930                    22449618.660                   117973455.349 7
  91927410.441 7        43.400          46.000
  22755020.422                                    22755029.223   119578424.086 7
  93178024.45344        43.000          29.700
  25080005.367                                                   131796151.015 5
                        34.600
  24631297.656                    24631305.641                   129438396.139 5
 100861079.084 4        32.900          29.400
  23355383.164                                    23355392.023   122733394.909 7
  95636459.05643        42.800          23.200
 14  1  6 12 14  9.0000000  0 11G31G10G17G20G23G04G01G32G11G12G13
  23346223.195                    23346232.117    23346231.703   122685218.951 7
  95598870.144 7        44.900          42.700
  24674388.703                                                   129664732.829 5
                        33.300
  21798286.094                    21798294.547    21798294.660   114550757.913 8
  89260363.633 7        49.000          46.200
  20220897.023                                    20220904.125   106261525.599 8
  82801218.08546        48.900          40.600
  21366679.500                                    21366685.430   112282675.677 8
  87493023.52346        50.200          37.400
  22144248.352                                    22144257.328   116368807.070 7
  90677043.30944        43.900          28.600
  22467612.688                    22467624.773                   118068078.789 7
  92001142.940 7        43.000          46.000
  22771977.039                                    22771985.781   119667532.845 7
  93247459.82844        43.600          28.900
  25102504.734                                                   131914383.697 5
                        34.700
  24633219.648                    24633229.098                   129448504.246 5
 100868955.510 4        31.900          28.400
  23333954.773                                    23333964.688   122620790.492 7
  95548715.45943        42.800          22.500
 14  1  6 12 14 39.0000000  0 11G31G10G17G20G23G04G01G32G11G12G13
  23346661.609                    23346670.414    23346670.352   122687526.290 7
  95600668.110 7        44.500          42.700
  24653080.523                                                   129552763.720 5
                        32.600
  21805615.766                    21805624.453    21805624.391   114589275.285 8
  89290377.139 7        48.500          45.800
  20227026.070                                    20227033.113   106293734.089 8
  82826315.60246        49.300          41.100
  21354696.648                                    21354702.871   112219705.931 8
  87443956.22446        50.500          37.700
  22127691.711                                    22127700.805   116281802.451 7
  90609247.52744        44.800          28.400
  22485670.625                    22485683.473                   118162973.259 7
  92075086.619 7        43.400          45.300
  22788966.578                                    22788976.961   119756816.950 7
  93317031.83344        43.600          29.500
  25125008.031                                                   132032641.786 5
                        34.000
  24635257.086                    24635264.953                   129459204.173 5
 100877293.090 4        31.600          26.400
  23312564.430                                    23312573.641   122508383.756 7
  95461125.88743        42.100          22.300
 14  1  6 12 15  9.0000000  0 11G31G10G17G20G23G04G01G32G11G12G13
  23347215.969                    23347224.305    23347224.359   122690435.563 7
  95602935.112 7        43.900          42.400
  24631789.164                                                   129440875.473 5
                        32.000
  21813053.508                    21813062.020    21813061.957   114628359.203 8
  89320832.110 7        48.500          45.800
  20233237.766                                    20233245.277   106326376.626 8
  82851751.34346        49.300          41.100
  21342799.102                                    21342804.855   112157185.457 8
  87395239.01346        50.600          37.200
  22111197.352                                    22111205.859   116195121.320 7
  90541703.82244        45.200          29.000
  22503779.008                    22503791.211                   118258134.119 7
  92149237.879 7        43.700          46.200
  22805990.133                                    22805999.344   119846271.902 7
  93386736.96544        42.600          29.300
  25147517.609                                                   132150920.377 5
                        34.600
  24637403.719                    24637414.281                   129470492.369 5
 100886089.056 4        32.300          28.400
  23291212.156                                    23291221.133   122396174.320 7
  95373690.05343        42.100          22.800
 14  1  6 12 15 39.0000000  0 11G31G10G17G20G23G04G01G32G11G12G13
  23347883.961                    23347892.648    23347892.820   122693947.809 7
  95605671.972 7        44.500          43.000
  24610513.672                                                   129329070.855 5
                        31.300
  21820598.469                    21820607.156    21820607.211   114668009.997 8
  89351728.804 7        48.500          46.000
  20239532.195                                    20239538.887   106359453.942 8
  82877525.87246        50.100          40.800
  21330988.109                                    21330993.980   112095117.503 8
  87346874.40646        50.900          36.900
  22094764.570                                    22094773.078   116108767.516 7
  90474415.15644        45.400          29.300
  22521937.992                    22521950.547                   118353561.456 7
  92223596.777 7        43.700          45.900
  22823045.078                                    22823055.109   119935897.860 7
  93456575.34944        43.800          29.600
  25170028.156                                                   132269219.139 5
                        34.200
  24639664.750                    24639673.672                   129482370.007 4
 100895344.374 4        29.400          27.300
  23269896.289                                    23269906.730   122284166.331 6
  95286411.19843        41.400          22.000
 14  1  6 12 16  9.0000000  0 11G31G10G17G20G23G04G01G32G11G12G13
  23348667.664                    23348675.883    23348676.055   122698065.422 7
  95608880.541 7        44.700          42.800
  24589254.852                                                   129217353.348 5
                        30.100
  21828251.813                    21828260.207    21828260.262   114708228.263 8
  89383067.682 7        48.500          45.800
  20245909.508                                    20245916.492   106392967.303 8
  82903640.17946        49.500          41.300
  21319263.680                                    21319269.551   112033505.869 8
  87298865.38446        51.100          37.700
  22078395.039                                    22078404.426   116022745.264 7
  90407384.85544        45.700          29.200
  22540148.469                    22540161.082                   118449255.963 7
  92298163.862 7        43.000          45.600
  22840132.781                                    22840142.871   120025695.658 7
  93526547.60345        43.700          30.000
  25192544.047                                                   132387538.489 5
                        34.300
  24642037.594                    24642045.871                   129494838.355 5
 100905059.965 4        32.400          27.000
  23248621.680                                    23248630.715   122172364.235 6
  95199292.78243        41.700          22.500
 14  1  6 12 16 39.0000000  0 11G31G10G17G20G23G04G01G32G11G12G13
  23349566.375                    23349574.828    23349574.824   122702787.046 7
  95612559.765 7        44.900          42.500
  24568011.109                                                   129105722.674 4
                        29.400
  21836012.742                    21836021.020    21836020.957   114749010.991 8
  89414846.398 7        48.400          45.800
  20252369.453                                    20252376.789   106426914.027 8
  82930092.16946        50.200          40.700
  21307626.148                                    21307632.605   111972350.303 8
  87251211.72546        50.900          37.700
  22062088.875                                    22062097.793   115937055.632 7
  90340613.72744        45.300          28.800
  22558408.828                    22558421.676                   118545214.363 7
  92372936.579 7        44.100          45.800
  22857252.906                                    22857262.820   120115662.169 7
  93596651.34444        44.900          29.000
  25215062.047                                                   132505874.802 5
                        33.700
  24644522.773                    24644530.582                   129507895.250 5
 100915234.142 4        31.800          27.200
  23227385.469                                    23227395.090   122060768.914 6
  95112335.51843        41.800          22.300
 14  1  6 12 17  9.0000000  0 11G31G10G17G20G23G04G01G32G11G12G13
  23350579.586                    23350587.746    23350587.566   122708111.675 7
  95616708.859 7        43.800          42.600
  24546785.414                                                   128994179.256 5
                        30.500
  21843880.789                    21843888.949    21843888.770   114790356.011 8
  89447063.264 7        49.000          45.900
  20258911.406                                    20258918.215   106461292.534 8
  82956880.61346        50.200          41.000
  21296076.055                                    21296081.398   111911651.344 8
  87203913.87546        51.200          37.700
  22045845.656                                    22045854.516   115851699.918 7
  90274102.81044        44.900          29.900
  22576719.086                    22576731.055                   118641434.324 7
  92447913.103 7        43.900          45.300
  22874404.922                                    22874413.781   120205795.084 7
  93666884.75744        44.700          29.700
  25237583.430                                                   132624225.559 5
                        33.800
  24647118.539                    24647128.633                   129521539.736 5
 100925866.217 4        33.900          28.300
  23206189.289                                    23206198.793   121949382.009 6
  95025540.65543        41.900          22.300
 14  1  6 12 17 39.0000000  0 11G31G10G17G20G23G04G01G32G11G12G13
  23351708.172                    23351716.391    23351716.328   122714041.058 7
  95621329.185 7        44.400          43.000
  24525576.672                                                   128882726.204 5
                        30.300
  21851855.031                    21851862.957    21851863.246   114832263.314 8
  89479718.276 7        49.000          45.800
  20265535.773                                    20265542.875   106496103.494 8
  82984006.03446        50.200          41.000
  21284612.664                                    21284618.535   111851412.121 8
  87156974.24946        50.900          37.400
  22029667.555                                    22029676.297   115766681.919 7
  90207855.05344        45.200          29.300
  22595078.555                    22595091.051                   118737915.669 7
  92523093.308 7        43.000          45.200
  22891588.203                                    22891597.883   120296094.533 7
  93737247.92245        45.100          30.700
  25260107.500                                                   132742590.417 5
                        33.000
  24649828.055                    24649835.629                   129535772.037 5
 100936956.302 5        34.200          30.200
  23185033.398                                    23185042.961   121838207.501 6
  94938911.27043        41.700          22.600
 14  1  6 12 18  9.0000000  0 11G31G10G17G20G23G04G01G32G11G12G13
  23352950.805                    23352959.551    23352959.605   122720574.833 7
  95626420.464 7        43.400          42.400
  24504385.711                                                   128771364.619 5
                        30.300
  21859936.883                    21859944.105    21859944.395   114874731.147 8
  89512810.052 7        48.700          45.800
  20272242.422                                    20272249.113   106531345.895 8
  83011467.64346        49.400          41.000
  21273237.141                                    21273242.543   111791634.045 8
  87110393.96746        51.300          37.000
  22013553.836                                    22013562.813   115682003.762 7
  90141872.10344        44.600          29.100
  22613488.000                    22613500.555                   118834656.763 7
  92598475.902 7        43.700          45.100
  22908803.625                                    22908813.188   120386558.928 7
  93807739.60944        44.600          29.900
  25282635.297                                                   132860967.388 5
                        32.900
  24652648.125                    24652656.695                   129550591.518 5
 100948503.945 5        34.100          30.200
  23163918.430                                    23163927.758   121727247.695 6
  94852449.19643        41.300          23.000
 14  1  6 12 18 39.0000000  0 11G31G10G17G20G23G04G01G32G11G12G13
  23354308.297                    23354317.277    23354317.391   122727711.260 7
  95631981.342 7        42.800          42.500
  24483210.680                                                   128660094.186 5
                        30.500
  21868123.578                    21868132.148    21868132.379   114917756.577 8
  89546336.339 7        48.900          45.600
  20279030.305                                    20279037.523   106567017.150 8
  83039263.43146        49.500          41.100
  21261949.242                                    21261955.172   111732316.735 8
  87064172.72046        50.900          37.600
  21997504.813                                    21997513.848   115597666.020 7
  90076154.43944        45.200          29.100
  22631945.719                    22631958.391                   118931654.353 7
  92674058.362 7        44.100          44.700
  22926048.914                                    22926058.477   120477185.111 7
  93878357.36444        44.900          29.800
  25305163.055                                                   132979353.344 5
                        32.400
  24655579.125                    24655588.340                   129565995.558 5
 100960507.071 5        33.800          31.700
  23142845.609                                    23142853.707   121616503.181 7
  94766154.90543        42.200          22.600
 14  1  6 12 19  9.0000000  0 11G31G10G17G20G23G04G01G32G11G12G13
  23355781.359                    23355790.164    23355790.453   122735450.143 7
  95638011.664 7        43.300          42.600
  24462054.883                                                   128548915.869 5
                        31.000
  21876417.219                    21876425.672    21876425.785   114961337.689 8
  89580295.617 7        48.100          45.200
  20285899.289                                    20285906.566   106603115.996 8
  83067392.40246        49.700          40.500
  21250749.508                                    21250755.438   111673461.438 8
  87018311.47146        50.500          37.400
  21981521.148                                    21981530.184   115513670.834 7
  90010703.69744        44.900          29.600
  22650452.578                    22650465.074                   119028906.481 7
  92749839.170 7        43.900          45.200
  22943325.570                                    22943335.016   120567971.417 7
  93949099.89145        45.000          30.200
  25327691.867                                                   133097745.845 5
                        31.600
  24658621.047                    24658629.500                   129581983.162 5
 100972964.924 5        34.300          32.400
  23121811.797                                    23121821.359   121505976.516 7
  94680030.34643        42.500          22.500
 14  1  6 12 19 39.0000000  0 11G31G10G17G20G23G04G01G32G11G12G13
  23357368.719                    23357378.227    23357378.164   122743794.499 7
  95644513.778 7        43.600          42.600
  24440914.852                                                   128437833.950 5
                        31.600
  21884816.602                    21884825.172    21884825.109   115005475.733 8
  89614688.868 7        49.000          44.600
  20292850.742                                    20292857.668   106639644.419 8
  83095856.09846        49.500          39.800
  21239638.750                                    21239644.270   111615072.459 8
  86972813.59846        50.800          36.900
  21965603.531                                    21965612.508   115430023.404 7
  89945523.93544        44.800          29.600
  22669007.422                    22669020.680                   119126414.537 7
  92825819.402 7        43.600          43.900
  22960632.594                                    22960641.512   120658919.280 7
  94019968.30145        45.000          30.200
  25350225.039                                                   133216146.333 5
                        32.500
  24661774.086                    24661783.770                   129598556.627 5
 100985879.309 5        33.000          31.100
  23100821.633                                    23100830.141   121395672.839 7
  94594079.56043        42.100          22.300
 14  1  6 12 20  9.0000000  0 11G31G10G17G20G23G04G01G32G11G12G13
  23359072.078                    23359080.824    23359080.762   122752742.423 7
  95651486.202 7        44.000          43.400
  24419795.297                                                   128326848.205 5
                        31.800
  21893321.258                    21893329.301    21893329.238   115050168.077 8
  89649514.045 7        49.100          44.100
  20299883.078                                    20299890.414   106676600.401 8
  83124652.96646        48.700          40.600
  21228615.844                                    21228621.949   111557149.668 8
  86927678.98646        51.500          37.000
  21949752.789                                    21949761.414   115346724.492 7
  89880615.74344        45.100          29.600
  22687611.039                    22687623.828                   119224175.502 7
  92901996.705 7        43.700          44.600
  22977969.438                                    22977978.473   120750026.063 7
  94090960.54045        44.500          30.500
  25372755.477                                                   133334550.901 5
                        32.300
  24665038.508                    24665048.836                   129615713.442 5
 100999248.231 5        30.500          31.800
  23079873.688                                    23079883.484   121285593.174 7
  94508303.30543        43.000          22.800
 14  1  6 12 20 39.0000000  0 11G31G10G17G20G23G04G01G32G11G12G13
  23360889.000                    23360898.039    23360898.094   122762292.515 7
  95658927.839 7        43.100          43.400
  24398694.805                                                   128215958.776 5
                        33.000
  21901930.492                    21901938.770    21901938.941   115095411.492 8
  89684768.626 7        48.500          45.200
  20306996.430                                    20307003.355   106713980.981 8
  83153780.68846        48.500          40.800
  21217682.336                                    21217687.973   111499693.364 8
  86882907.86646        50.900          37.500
  21933967.352                                    21933976.621   115263775.209 7
  89815979.99544        45.200          29.300
  22706261.859                    22706274.648                   119322186.460 7
  92978368.805 7        43.300          44.500
  22995336.781                                    22995345.348   120841288.904 7
  94162074.37745        44.800          30.000
  25395287.195                                                   133452956.871 5
                        33.000
  24668414.867                    24668423.496                   129633451.465 5
 101013070.033 5        30.500          31.100
  23058968.867                                    23058978.547   121175738.568 7
  94422702.43343        43.100          22.800
 14  1  6 12 21  9.0000000  0 11G31G10G17G20G23G04G01G32G11G12G13
  23362821.430                    23362830.293    23362830.348   122772446.154 7
  95666839.769 7        42.600          43.500
  24377611.234                                                   128105168.276 5
                        31.900
  21910644.938                    21910653.039    21910653.152   115141206.047 8
  89720452.673 7        48.600          45.600
  20314191.188                                    20314198.289   106751787.024 8
  83183239.94546        48.000          40.600
  21206838.234                                    21206843.930   111442706.438 8
  86838502.49246        50.700          37.600
  21918249.953                                    21918258.871   115181179.357 7
  89751619.64644        44.600          29.500
  22724960.453                    22724973.125                   119420447.181 7
  93054935.527 7        43.500          44.700
  23012732.867                                    23012742.254   120932707.820 7
  94233309.83645        44.300          30.400
  25417819.313                                                   133571363.754 5
                        32.500
  24671901.531                    24671908.578                   129651771.754 4
 101027345.549 5        29.600          30.600
  23038108.391                                    23038117.895   121066113.008 7
  94337280.02844        42.400          24.400
 14  1  6 12 21 39.0000000  0 11G31G10G17G20G23G04G01G32G11G12G13
  23364868.523                    23364877.211    23364877.207   122783203.700 7
  95675222.279 7        44.200          43.600
  24356547.492                                                   127994478.948 5
                        33.000
  21919464.063                    21919472.516    21919472.336   115187550.399 8
  89756565.127 7        48.500          45.300
  20321465.977                                    20321472.785   106790018.154 8
  83213030.43046        49.200          40.900
  21196083.813                                    21196089.215   111386190.624 8
  86794464.21746        51.300          37.200
  21902599.367                                    21902609.164   115098939.471 7
  89687536.67244        45.000          29.700
  22743706.313                    22743718.750                   119518956.704 7
  93131696.114 7        43.200          44.600
  23030158.539                                    23030167.281   121024281.999 7
  94304666.28644        44.000          29.300
  25440352.406                                                   133689770.263 5
                        33.100
  24675497.938                    24675505.688                   129670673.594 5
 101042074.200 4        31.500          29.600
  23017291.383                                    23017300.008   120956719.524 7
  94252038.46144        42.800          25.600
 14  1  6 12 22  9.0000000  0 11G31G10G17G20G23G04G01G32G11G12G13
  23367030.469                    23367038.805    23367038.684   122794562.128 7
  95684073.017 7        43.900          43.800
  24335501.969                                                   127883889.035 5
                        31.900
  21928387.789                    21928395.305    21928395.359   115234440.306 8
  89793102.694 7        48.600          45.600
  20328821.211                                    20328828.664   106828670.565 8
  83243149.19546        49.000          41.000
  21185418.109                                    21185424.273   111330144.623 8
  86750792.03346        50.900          37.300
  21887017.867                                    21887026.844   115017055.117 7
  89623730.73644        45.700          29.700
  22762498.664                    22762511.453                   119617710.405 7
  93208646.982 7        42.700          44.100
  23047613.492                                    23047622.762   121116007.171 7
  94376140.40544        44.100          28.700
  25462882.789                                                   133808171.943 5
                        32.400
  24679205.203                    24679213.539                   129690152.822 5
 101057252.783 5        31.300          32.800
  22996517.977                                    22996527.480   120847557.389 7
  94166977.18144        42.900          24.100
 14  1  6 12 22 39.0000000  0 11G31G10G17G20G23G04G01G32G11G12G13
  23369305.984                    23369314.906    23369314.844   122806522.251 7
  95693392.616 7        44.900          43.500
  24314476.961                                                   127773401.015 5
                        33.700
  21937413.344                    21937421.621    21937421.793   115281875.004 8
  89830064.775 7        48.500          45.300
  20336256.742                                    20336263.727   106867744.568 8
  83273596.46346        49.300          40.900
  21174842.938                                    21174848.164   111274570.781 8
  86707487.76346        51.200          37.500
  21871504.086                                    21871513.297   114935529.811 7
  89560204.55345        45.800          30.400
  22781337.188                    22781349.977                   119716707.940 7
  93285787.831 7        42.500          44.500
  23065096.602                                    23065106.516   121207883.081 7
  94447731.96144        44.200          27.900
  25485413.703                                                   133926568.104 5
                        33.700
  24683021.711                    24683029.988                   129710210.057 5
 101072881.756 5        31.300          32.100
  22975790.695                                    22975798.617   120738630.342 7
  94082099.07944        42.900          25.800
 14  1  6 12 23  9.0000000  0 11G31G10G17G20G23G04G01G32G11G12G13
  23371696.852                    23371705.832    23371705.477   122819085.537 7
  95703182.198 7        43.600          42.500
  24293472.344                                                   127663018.384 5
                        34.300
  21946544.055                    21946552.449    21946552.445   115329854.879 8
  89867451.663 7        48.400          44.600
  20343772.539                                    20343779.875   106907241.020 8
  83304372.91346        48.500          41.000
  21164357.906                                    21164364.188   111219472.162 8
  86664553.79846        51.000          37.800
  21856060.203                                    21856068.477   114854367.708 7
  89496961.39945        45.100          31.700
  22800222.438                    22800235.168                   119815949.607 7
  93363118.918 7        42.600          44.600
  23082608.719                                    23082618.691   121299910.325 7
  94519441.44044        44.400          29.400
  25507943.539                                                   134044958.749 5
                        33.100
  24686947.719                    24686957.051                   129730846.544 5
 101088962.099 5        31.000          32.300
  22955107.727                                    22955116.586   120629942.841 7
  93997407.63944        43.600          25.200
 14  1  6 12 23 39.0000000  0 11G31G10G17G20G23G04G01G32G11G12G13
  23374202.016                    23374210.586    23374210.582   122832249.420 7
  95713439.786 7        45.000          43.400
  24272487.742                                                   127552739.767 5
                        34.800
  21955777.406                    21955785.742    21955785.738   115378375.528 8
  89905259.932 7        48.300          45.200
  20351368.000                                    20351375.160   106947156.290 8
  83335475.71546        50.000          40.800
  21153963.078                                    21153969.008   111164847.877 8
  86621989.45046        50.600          38.200
  21840684.055                                    21840692.797   114773568.614 7
  89434001.10345        45.700          31.200
  22819153.500                    22819165.762                   119915431.222 7
  93440636.984 7        42.800          44.100
  23100149.727                                    23100158.820   121392085.004 7
  94591265.80844        43.700          29.500
  25530470.891                                                   134163339.466 5
                        32.900
  24690985.930                    24690993.738                   129752058.122 5
 101105490.563 5        32.000          33.400
  22934470.969                                    22934479.945   120521494.898 7
  93912902.85544        43.800          25.800
 14  1  6 12 24  9.0000000  0 11G31G10G17G20G23G04G01G32G11G12G13
  23376820.789                    23376829.477    23376829.648   122846014.656 7
  95724165.944 7        44.500          43.200
  24251521.750                                                   127442567.532 5
                        33.900
  21965112.852                    21965121.305    21965121.477   115427436.531 8
  89943489.261 7        48.300          45.100
  20359043.750                                    20359050.910   106987490.747 8
  83366905.15846        49.500          40.700
  21143659.531                                    21143665.520   111110700.142 8
  86579796.43646        51.100          37.700
  21825378.242                                    21825386.926   114693135.837 7
  89371326.23145        45.300          30.400
  22838129.484                    22838142.684                   120015152.319 7
  93518341.651 7        42.600          44.900
  23117717.461                                    23117727.141   121484406.886 7
  94663204.89144        44.200          27.200
  25552995.633                                                   134281709.792 5
                        33.000
  24695131.281                    24695139.793                   129773845.352 5
 101122467.585 5        31.300          34.000
  22913879.336                                    22913888.723   120413289.878 7
  93828587.34444        42.800          24.600
 14  1  6 12 24 39.0000000  0 11G31G10G17G20G23G04G01G32G11G12G13
  23379558.117                    23379566.688    23379566.566   122860398.346 7
  95735374.019 7        44.500          43.500
  24230580.336                                                   127332520.813 5
                        33.200
  21974555.273                    21974563.258    21974563.254   115477053.868 8
  89982152.085 7        48.100          44.700
  20366802.539                                    20366809.289   107028260.954 8
  83398674.14046        49.300          40.300
  21133449.828                                    21133455.582   111057047.829 8
  86537989.46446        50.700          38.500
  21810146.063                                    21810154.395   114613089.641 7
  89308952.60145        45.500          30.600
  22857154.789                    22857166.758                   120115128.776 7
  93596245.308 7        42.800          44.500
  23135316.500                                    23135325.887   121576892.079 7
  94735271.23644        43.800          27.600
  25575521.531                                                   134400085.513 5
                        33.500
  24699388.336                    24699398.840                   129796224.988 4
 101139906.229 5        28.300          34.000
  22893338.188                                    22893347.867   120305347.740 7
  93744476.69144        43.000          25.800
 14  1  6 12 25  9.0000000  0 11G31G10G17G20G23G04G01G32G11G12G13
  23382419.250                    23382427.059    23382426.996   122875430.682 7
  95747087.528 7        45.200          43.100
  24209669.359                                                   127222631.488 5
                        32.900
  21984108.531                    21984116.340    21984116.336   115527255.899 8
  90021270.509 7        49.000          44.700
  20374648.719                                    20374655.938   107069496.282 8
  83430805.56146        50.200          40.600
  21123340.422                                    21123346.000   111003922.782 8
  86496593.34646        50.600          37.900
  21794993.086                                    21795002.004   114533461.839 7
  89246904.99245        45.800          30.600
  22876233.602                    22876246.801                   120215389.431 6
  93674370.406 7        41.100          44.500
  23152952.711                                    23152962.566   121669569.749 7
  94807487.57044        44.500          28.100
  25598054.570                                                   134518495.402 5
                        33.000
  24703765.828                    24703777.211                   129819225.438 4
 101157828.643 5        28.300          35.200
  22872853.734                                    22872862.945   120197701.431 7
  93660596.54344        43.100          25.300
 14  1  6 12 25 39.0000000  0 11G31G10G17G20G23G04G01G32G11G12G13
  23385391.977                    23385400.664    23385400.719   122891054.014 7
  95759261.543 7        45.200          42.900
  24188777.883                                                   127112843.070 5
                        33.500
  21993761.406                    21993770.035    21993770.031   115577983.477 8
  90060798.464 7        48.600          44.800
  20382573.195                                    20382580.121   107111138.120 8
  83463253.74146        50.100          40.400
  21113320.586                                    21113326.340   110951268.621 8
  86455564.15446        50.000          38.600
  21779909.820                                    21779918.973   114454197.836 7
  89185140.85745        45.300          30.900
  22895355.219                    22895368.008                   120315875.232 6
  93752670.948 7        41.200          44.700
  23170614.758                                    23170623.969   121762380.985 7
  94879807.96344        45.100          28.500
  25620582.406                                                   134636879.923 5
                        33.300
  24708251.469                    24708260.508                   129842789.126 5
 101176189.940 5        31.300          35.600
  22852415.820                                    22852424.328   120090295.593 7
  93576903.76844        43.800          25.600
 14  1  6 12 26  9.0000000  0 11G31G10G17G20G23G04G01G32G11G12G13
  23388463.820                    23388472.098    23388472.211   122907195.795 7
  95771839.552 7        45.000          43.100
  24167890.523                                                   127003085.401 5
                        33.000
  22003500.719                    22003508.996    22003508.992   115629163.069 8
  90100678.637 7        48.700          44.500
  20390560.914                                    20390567.957   107153113.804 8
  83495962.05846        49.300          40.500
  21103376.914                                    21103382.727   110899015.152 8
  86414847.19446        51.000          38.400
  21764882.406                                    21764891.148   114375228.539 7
  89123606.36245        45.800          31.900
  22914505.695                    22914518.719                   120416512.730 6
  93831089.690 7        41.500          43.900
  23188287.430                                    23188297.168   121855252.847 7
  94952175.59944        44.700          28.500
  25643090.617                                                   134755165.848 5
                        32.600
  24712826.945                    24712837.273                   129866842.694 5
 101194932.960 5        32.000          34.400
  22832009.664                                    22832018.348   119983061.461 7
  93493344.77744        44.100          24.300
 14  1  6 12 26 39.0000000  0 11G31G10G17G20G23G04G01G32G11G12G13
  23391663.656                    23391672.051    23391672.105   122924014.218 7
  95784944.824 6        45.200          41.900
  24147039.898                                                   126893518.319 5
                        32.200
  22013355.828                    22013363.695    22013363.867   115680951.141 8
  90141032.939 7        48.700          45.200
  20398641.961                                    20398649.121   107195580.962 8
  83529053.35146        49.800          40.400
  21093540.273                                    21093545.793   110847321.755 8
  86374566.65346        50.200          39.000
  21749942.063                                    21749950.629   114296714.201 7
  89062426.37945        45.300          31.500
  22933715.664                    22933729.391                   120517458.727 6
  93909748.825 7        41.100          44.100
  23206001.664                                    23206010.934   121948342.226 7
  95024712.72844        44.600          28.500
  25665610.500                                                   134873509.686 5
                        32.200
  24717529.773                    24717537.816                   129891543.495 5
 101214180.303 5        33.200          33.400
  22811667.000                                    22811675.391   119876159.644 7
  93410044.70944        43.700          26.000
 14  1  6 12 27  9.0000000  0 11G31G10G17G20G23G04G01G32G11G12G13
  23394963.727                    23394972.648    23394972.293   122941356.924 7
  95798458.621 7        45.300          43.100
  24126198.453                                                   126783991.037 5
                        32.900
  22023296.781                    22023304.941    22023305.289   115733193.869 8
  90181741.521 7        48.400          44.900
  20406787.664                                    20406794.766   107238386.652 8
  83562408.42046        49.500          40.400
  21083781.203                                    21083786.605   110796037.752 8
  86334605.11846        51.600          38.800
  21735058.344                                    21735067.086   114218504.793 7
  89001484.01745        47.100          31.400
  22952954.211                    22952967.762                   120618559.470 6
  93988528.541 7        40.600          44.300
  23223728.180                                    23223737.859   122041495.777 7
  95097299.87244        44.600          26.300
  25688111.789                                                   134991757.618 5
                        30.700
  24722324.242                    24722331.816                   129916738.946 5
 101233813.084 5        34.800          33.200
  22791358.219                                    22791367.547   119769440.400 7
  93326886.91144        43.000          25.800
 14  1  6 12 27 39.0000000  0 11G31G10G17G20G23G04G01G32G11G12G13
  23398377.703                    23398385.980    23398386.094   122959295.428 7
  95812436.679 7        45.000          42.500
  24105376.750                                                   126674577.252 5
                        33.300
  22033338.883                    22033346.691    22033347.039   115785961.874 8
  90222859.406 7        48.800          44.600
  20415011.039                                    20415018.199   107281601.651 8
  83596082.43646        49.800          39.800
  21074113.859                                    21074119.730   110745236.427 8
  86295019.69446        50.100          38.400
  21720248.500                                    21720257.184   114140675.355 7
  88940837.73545        44.900          31.200
  22972235.758                    22972249.309                   120719885.669 6
  94067483.940 7        40.500          44.500
  23241480.688                                    23241489.547   122134784.572 7
  95169992.41544        44.600          27.800
  25710609.102                                                   135109979.973 5
                        31.800
  24727224.930                    24727234.203                   129942499.550 5
 101253886.243 5        34.800          33.500
  22771099.930                                    22771108.555   119662978.493 7
  93243929.63144        43.400          24.600
 14  1  6 12 28  9.0000000  0 11G31G10G17G20G23G04G01G32G11G12G13
  23401904.547                    23401913.000    23401912.762   122977830.555 7
  95826879.621 7        45.500          42.900
  24084578.688                                                   126565279.428 5
                        33.400
  22043480.039                    22043488.141    22043487.785   115839254.529 8
  90264386.110 7        48.500          44.600
  20423312.773                                    20423319.348   107325226.553 8
  83630075.85746        48.900          39.900
  21064539.273                                    21064544.441   110694920.397 8
  86255812.42246        50.500          38.800
  21705510.555                                    21705519.414   114063229.410 7
  88880490.27545        46.000          30.700
  22991560.609                    22991573.809                   120821436.957 6
  94146614.721 7        40.600          44.100
  23259258.633                                    23259267.844   122228208.534 7
  95242790.26844        44.700          28.100
  25733102.047                                                   135228176.445 4
                        29.600
  24732235.039                    24732243.727                   129968825.400 5
 101274399.846 5        35.000          32.800
  22750890.500                                    22750899.125   119556777.564 7
  93161175.68644        44.200          25.800
 14  1  6 12 28 39.0000000  0 11G31G10G17G20G23G04G01G32G11G12G13
  23405561.758                    23405569.742    23405569.680   122997045.131 7
  95841851.999 7        45.800          42.800
  24063816.992                                                   126456182.358 5
                        33.100
  22053736.758                    22053744.273    22053744.445   115893152.946 8
  90306384.843 7        48.500          44.500
  20431707.625                                    20431714.902   107369343.654 8
  83664452.80646        49.100          39.900
  21055072.680                                    21055078.609   110645174.099 8
  86217049.10346        50.500          39.300
  21690862.609                                    21690871.234   113986252.108 7
  88820508.00145        46.000          31.400
  23010943.977                    23010956.473                   120923294.987 6
  94225984.530 7        40.600          43.800
  23277077.703                                    23277087.324   122321849.530 7
  95315757.23744        44.600          28.600
  25755606.195                                                   135346428.62414
                        28.300
  24737367.133                    24737377.109                   129995798.677 5
 101295417.933 5        34.600          32.100
  22730746.500                                    22730755.652   119450923.472 7
  93078692.01844        43.600          24.700
 14  1  6 12 29  9.0000000  0 10G31G10G17G20G23G04G01G32G12G13
  23409315.586                    23409324.508    23409324.504   123016774.935 7
  95857225.852 7        46.000          43.100
  24043065.266                                                   126347124.065 5
                        33.900
  22064076.602                    22064084.703    22064084.875   115947491.964 8
  90348726.899 7        48.000          44.800
  20440165.281                                    20440172.441   107413788.409 8
  83699085.06746        49.100          40.300
  21045683.992                                    21045689.570   110595835.048 8
  86178603.11646        50.300          38.600
  21676272.773                                    21676281.574   113909582.432 7
  88760765.43045        45.100          31.400
  23030353.672                    23030366.344                   121025294.355 6
  94305464.462 7        40.000          44.300
  23294907.211                                    23294916.891   122415542.673 7
  95388764.83344        44.800          27.700
  24742592.344                    24742601.617                   130023254.699 5
 101316812.186 5        33.800          32.600
  22710638.781                                    22710647.348   119345254.729 7
  92996352.77044        44.900          24.100
 14  1  6 12 29 39.0000000  0 10G31G10G17G20G23G04G01G32G12G13
  23413183.984                    23413192.906    23413192.551   123037100.512 7
  95873063.939 7        45.900          42.900
  24022333.500                                                   126238186.814 5
                        34.200
  22074515.859                    22074523.727    22074523.840   116002350.626 8
  90391473.873 7        48.300          44.000
  20448700.617                                    20448707.777   107458640.679 8
  83734034.87346        48.600          40.400
  21036387.742                                    21036393.848   110546985.590 8
  86140538.63146        50.000          38.900
  21661757.523                                    21661766.266   113833303.737 7
  88701327.52145        45.600          31.400
  23049805.844                    23049818.340                   121127514.635 6
  94385116.540 7        40.000          44.000
  23312761.094                                    23312770.832   122509367.713 7
  95461875.20344        45.200          27.400
  24747923.563                    24747933.246                   130051272.909 5
 101338644.522 5        31.900          32.600
  22690582.453                                    22690589.848   119239855.116 7
  92914223.23444        44.300          25.800
 14  1  6 12 30  9.0000000  0 10G31G10G17G20G23G04G01G32G12G13
  23417180.758                    23417188.449    23417188.445   123058102.505 7
  95889429.108 7        46.100          43.100
  24001643.688                                                   126129453.002 5
                        33.500
  22085069.461                    22085077.035    22085077.148   116057808.010 8
  90434687.384 7        48.800          44.100
  20457328.422                                    20457335.699   107503980.822 8
  83769364.84146        48.700          40.200
  21027201.070                                    21027206.531   110498708.324 8
  86102920.00746        50.300          39.300
  21647332.172                                    21647340.914   113757499.552 7
  88642259.35345        46.900          33.100
  23069314.977                    23069327.883                   121230035.335 6
  94465002.716 7        39.000          44.100
  23330655.953                                    23330665.516   122603404.641 7
  95535150.69444        44.900          27.700
  24753379.008                    24753387.813                   130079932.988 5
 101360977.030 5        31.300          31.600
  22670591.859                                    22670600.660   119134808.140 7
  92832368.46444        43.300          26.100
 14  1  6 12 30 39.0000000  0 10G31G10G17G20G23G04G01G32G12G13
  23421274.711                    23421282.930    23421283.102   123079620.690 7
  95906196.502 7        46.000          43.100
  23980960.398                                                   126020764.519 5
                        34.600
  22095705.477                    22095713.402    22095713.281   116113702.689 8
  90478241.647 7        48.900          44.400
  20466018.766                                    20466025.867   107549647.885 8
  83804949.55846        48.800          40.300
  21018092.898                                    21018098.184   110450844.294 8
  86065623.38846        50.200          39.100
  21632967.602                                    21632975.934   113682012.430 7
  88583438.24745        46.300          31.700
  23088850.258                    23088863.164                   121332695.172 6
  94544997.300 7        40.800          43.600
  23348560.766                                    23348570.094   122697492.478 7
  95608465.83644        45.000          27.800
  24758922.984                    24758933.488                   130109074.840 5
 101383684.947 5        30.700          32.700
  22650639.633                                    22650648.141   119029956.617 7
  92750666.01544        43.200          26.000
 14  1  6 12 31  9.0000000  0 10G31G10G17G20G23G04G01G32G12G13
  23425482.906                    23425491.301    23425491.238   123101732.883 7
  95923426.764 7        46.100          43.600
  23960300.078                                                   125912201.665 5
                        33.200
  22106440.023                    22106447.832    22106448.004   116170111.215 8
  90522196.312 7        48.800          43.900
  20474785.891                                    20474792.992   107595719.586 8
  83840849.56846        48.800          40.400
  21009078.227                                    21009084.156   110403473.221 8
  86028710.89146        50.900          39.500
  21618678.891                                    21618687.223   113606923.399 7
  88524927.34345        46.200          32.400
  23108426.836                    23108439.977                   121435571.172 6
  94625160.329 7        39.800          44.000
  23366489.328                                    23366498.422   122791708.672 7
  95681881.00344        44.600          27.600
  24764574.672                    24764585.059                   130138775.598 5
 101406828.364 5        30.800          32.100
  22630739.453                                    22630747.961   118925381.631 7
  92669179.04444        43.400          26.800
 14  1  6 12 31 39.0000000  0 10G31G10G17G20G23G04G01G32G12G13
  23429818.672                    23429827.359    23429827.355   123124516.635 7
  95941180.316 7        45.500          43.600
  23939680.563                                                   125803843.708 5
                        32.600
  22117286.563                    22117294.664    22117294.953   116227110.021 8
  90566610.941 7        48.300          44.400
  20483644.703                                    20483652.273   107642273.138 8
  83877125.05446        48.700          40.900
  21000172.672                                    21000178.895   110356674.583 8
  85992244.44346        50.500          38.700
  21604480.727                                    21604489.176   113532312.706 7
  88466789.16445        47.000          32.500
  23128059.672                    23128072.461                   121538739.774 6
  94705551.353 7        41.200          43.800
  23384457.008                                    23384466.395   122886130.020 7
  95755456.02144        44.200          27.100
  24770347.406                    24770356.914                   130169111.780 5
 101430466.906 5        31.000          30.800
  22610907.586                                    22610916.445   118821163.563 7
  92587970.20044        44.400          27.400
 14  1  6 12 32  9.0000000  0 10G31G10G17G20G23G04G01G32G12G13
  23434251.953                    23434260.875    23434260.930   123147816.047 7
  95959335.680 7        45.700          43.200
  23919071.164                                                   125695536.470 5
                        31.900
  22128215.469                    22128223.219    22128223.273   116284541.430 8
  90611362.658 7        48.200          44.200
  20492565.344                                    20492572.797   107689151.900 8
  83913653.94046        48.700          40.300
  20991347.055                                    20991352.867   110310293.962 8
  85956103.72746        50.200          39.200
  21590344.469                                    21590353.094   113458027.155 7
  88408904.34245        46.100          32.900
  23147717.352                    23147730.082                   121642043.723 6
  94786047.851 7        41.100          43.800
  23402434.211                                    23402443.773   122980599.653 7
  95829068.65644        44.500          27.600
  24776212.688                    24776221.141                   130199926.288 5
 101454478.185 4        31.200          29.100
  22591113.906                                    22591122.941   118717149.217 7
  92506920.09644        44.500          27.300
 14  1  6 12 32 39.0000000  0 10G31G10G17G20G23G04G01G32G12G13
  23438797.711                    23438806.750    23438806.629   123171703.783 7
  95977949.479 7        45.400          42.700
  23898484.484                                                   125587355.300 5
                        34.500
  22139240.438                    22139248.129    22139248.301   116342477.150 8
  90656507.345 7        48.100          43.900
  20501561.930                                    20501569.324   107736428.720 8
  83950493.00746        48.400          41.000
  20982614.727                                    20982620.012   110264406.282 8
  85920347.11746        50.400          38.800
  21576284.813                                    21576293.613   113384142.864 7
  88351332.19845        45.600          33.000
  23167415.383                    23167428.230                   121745555.336 6
  94866706.151 7        40.500          43.300
  23420434.539                                    23420443.984   123075190.277 7
  95902775.57344        44.200          27.700
  24782180.617                    24782189.012                   130231291.992 5
 101478918.931 4        31.500          28.800
  22571374.523                                    22571382.387   118613414.893 7
  92426088.19444        43.900          27.900
 14  1  6 12 33  9.0000000  0 10G31G10G17G20G23G04G01G32G12G13
  23443471.281                    23443480.613    23443480.199   123196263.937 7
  95997087.243 7        44.900          43.600
  23877938.367                                                   125479385.677 5
                        33.700
  22150376.617                    22150384.074    22150384.422   116400999.279 8
  90702108.978 7        48.000          43.900
  20510649.883                                    20510657.453   107784186.900 8
  83987707.16546        48.100          40.000
  20973992.906                                    20973998.074   110219096.774 8
  85885041.02746        50.300          39.200
  21562317.891                                    21562326.281   113310746.333 7
  88294140.12345        46.900          33.400
  23187167.633                    23187181.359                   121849357.190 6
  94947590.618 7        40.400          43.100
  23438472.422                                    23438482.395   123169984.984 7
  95976641.52344        44.300          27.700
  24788269.445                    24788278.895                   130263291.518 5
 101503853.592 4        31.300          28.000
  22551704.422                                    22551712.813   118510047.425 7
  92345542.18744        44.400          27.900
 14  1  6 12 33 39.0000000  0 10G31G10G17G20G23G04G01G32G12G13
  23448241.984                    23448250.906    23448250.609   123221333.793 7
  96016622.170 7        44.500          44.100
  23857401.281                                                   125371467.913 5
                        33.900
  22161593.781                    22161601.766    22161602.055   116459944.697 8
  90748040.449 7        48.300          43.800
  20519798.672                                    20519806.008   107832264.076 8
  84025169.88846        48.100          40.400
  20965450.422                                    20965455.531   110174205.007 8
  85850060.45246        49.100          39.400
  21548413.578                                    21548421.969   113237678.646 7
  88237204.30245        45.400          33.000
  23206945.273                    23206958.297                   121953286.248 6
  95028574.202 7        40.300          43.700
  23456519.555                                    23456529.352   123264820.946 7
  96050539.61544        44.400          25.900
  24794448.953                    24794457.055                   130295762.669 5
 101529155.728 4        32.000          24.400
  22532073.477                                    22532081.516   118406887.808 7
  92265158.12444        44.100          27.400
 14  1  6 12 34  9.0000000  0 10G31G10G17G20G23G04G01G32G12G13
  23453124.242                    23453133.164    23453133.160   123246991.100 7
  96036614.854 7        44.700          43.600
  23836891.352                                                   125263681.497 5
                        33.800
  22172905.711                    22172913.578    22172913.691   116519389.538 7
  90794361.079 7        47.900          43.700
  20529022.914                                    20529030.309   107880737.380 7
  84062941.28546        47.600          40.100
  20957002.242                                    20957007.469   110129810.377 8
  85815467.25346        49.200          39.200
  21534587.344                                    21534595.793   113165020.146 7
  88180587.32945        46.400          33.300
  23226761.289                    23226774.254                   122057419.076 6
  95109716.562 7        40.600          43.700
  23474589.266                                    23474598.184   123359775.316 7
  96124529.97144        44.900          27.000
  24800733.734                    24800740.313                   130328781.835 5
 101554884.897 4        32.500          26.000
  22512497.914                                    22512505.895   118304016.695 7
  92184998.88544        44.200          27.900
 14  1  6 12 34 39.0000000  0 10G31G10G17G20G23G04G01G32G12G13
  23458134.766                    23458142.984    23458143.273   123273319.496 7
  96057130.473 7        44.300          42.600
  23816421.516                                                   125156112.275 5
                        34.800
  22184327.914                    22184336.250    22184336.539   116579416.020 7
  90841134.923 7        47.300          43.500
  20538338.469                                    20538346.215   107929690.158 8
  84101086.30446        48.400          39.800
  20948664.844                                    20948670.891   110085998.404 8
  85781328.07646        50.700          39.400
  21520855.430                                    21520863.410   113092857.602 7
  88124356.80945        47.300          33.000
  23246631.953                    23246645.152                   122161838.419 6
  95191082.183 7        40.600          43.800
  23492696.766                                    23492706.914   123454931.135 7
  96198677.30444        44.100          28.100
  24807135.742                    24807144.313                   130362432.130 5
 101581105.814 4        31.000          24.700
  22492993.273                                    22493001.840   118201520.678 7
  92105131.92944        45.000          27.900
 14  1  6 12 35  9.0000000  0 10G31G10G17G20G23G04G01G32G12G13
  23463241.547                    23463250.703    23463250.641   123300156.793 7
  96078042.640 7        44.900          42.900
  23795962.609                                                   125048600.600 5
                        35.900
  22195830.469                    22195838.102    22195838.098   116639860.852 7
  90888234.768 7        47.600          43.600
  20547714.086                                    20547721.188   107978960.095 8
  84139478.45146        48.700          39.700
  20940408.203                                    20940413.371   110042608.703 8
  85747517.93846        51.300          39.200
  21507187.141                                    21507196.000   113021031.757 7
  88068388.65745        47.800          33.600
  23266525.648                    23266538.848                   122266381.256 7
  95272544.037 7        42.000          43.700
  23510811.344                                    23510821.141   123550125.919 7
  96272854.97644        44.100          26.500
  24813629.594                    24813637.988                   130396549.933 5
 101607691.069 4        31.600          25.800
  22473529.820                                    22473538.504   118099240.946 7
  92025433.50744        44.300          27.700
 14  1  6 12 35 39.0000000  0 10G31G10G17G20G23G04G01G32G12G13
  23468460.602                    23468469.348    23468469.109   123327579.907 7
  96099411.286 7        44.500          43.100
  23775529.891                                    23775537.109   124941225.674 6
  97356842.76242        36.000          14.800
  22207426.750                    22207435.027    22207435.082   116700799.590 7
  90935719.474 7        47.200          43.600
  20557165.023                                    20557172.184   108028623.944 8
  84178177.53646        48.000          40.400
  20932246.625                                    20932251.734   109999720.166 8
  85714098.31946        49.700          38.800
  21493598.281                                    21493606.320   112949622.738 7
  88012745.29345        47.800          33.500
  23286457.406                    23286470.313                   122371123.786 6
  95354161.492 7        39.600          43.900
  23528948.523                                    23528958.262   123645436.243 7
  96347122.70444        44.700          26.800
  24820225.930                    24820234.266                   130431212.385 4
 101634700.739 4        29.600          26.600
  22454123.242                                    22454131.926   117997257.853 7
  91945966.23344        44.600          28.500
 14  1  6 12 36  9.0000000  0  9G31G10G17G20G23G04G01G32G13
  23473805.289                    23473813.684    23473813.563   123355668.288 7
  96121298.324 7        44.500          43.000
  23755137.813                                    23755148.547   124834068.917 6
  97273344.08242        36.500          15.600
  22219131.758                    22219140.035    22219140.031   116762310.410 7
  90983649.955 7        47.300          43.400
  20566705.664                                    20566712.824   108078760.536 8
  84217245.00846        48.400          40.200
  20924195.938                                    20924201.516   109957413.912 8
  85681132.42846        50.300          39.200
  21480104.586                                    21480113.152   112878713.143 7
  87957491.10045        46.100          33.800
  23306441.984                    23306455.887                   122476144.547 6
  95435995.744 7        40.200          43.800
  23547122.125                                    23547132.918   123740941.071 7
  96421541.97744        43.500          25.800
  22434788.984                                    22434796.672   117895653.617 7
  91866794.19044        44.900          28.000
 14  1  6 12 36 39.0000000  0  9G31G10G17G20G23G04G01G32G13
  23479247.141                    23479255.125    23479255.121   123384264.316 7
  96143580.930 7        44.900          42.800
  23734758.500                                    23734770.172   124726975.020 6
  97189894.39842        36.900          16.300
  22230915.266                    22230923.895    22230923.832   116824234.488 7
  91031902.457 7        46.900          43.600
  20576306.063                                    20576313.867   108129212.616 7
  84256558.29746        47.700          39.500
  20916226.047                                    20916232.152   109915534.003 8
  85648498.75046        49.600          39.200
  21466676.227                                    21466684.734   112808148.286 7
  87902505.51645        47.300          33.900
  23326450.570                    23326463.184                   122581285.060 7
  95517923.313 7        42.000          43.600
  23565303.500                                    23565313.707   123836482.595 7
  96495989.86144        44.100          26.000
  22415496.922                                    22415505.137   117794274.198 7
  91787797.32244        44.600          29.200
 14  1  6 12 37  9.0000000  0  9G31G10G17G20G23G04G01G32G13
  23484799.602                    23484807.469    23484807.641   123413441.126 7
  96166316.090 7        44.700          42.500
  23714406.602                                    23714417.395   124620019.717 6
  97106552.68542        37.400          16.300
  22242791.859                    22242800.078    22242800.191   116886643.876 7
  91080533.110 7        46.700          43.900
  20585980.930                                    20585987.914   108180052.789 8
  84296174.00846        48.100          39.600
  20908352.313                                    20908358.066   109874155.675 8
  85616255.91946        48.700          39.200
  21453328.703                                    21453337.152   112738004.978 7
  87847848.40445        46.300          34.300
  23346494.203                    23346507.402                   122686617.969 6
  95600000.789 7        40.800          43.400
  23583506.016                                    23583515.109   123932133.753 7
  96570523.16344        43.400          26.600
  22396262.133                                    22396270.992   117693196.095 7
  91709035.23844        44.600          29.000
 14  1  6 12 37 39.0000000  0  9G31G10G17G20G23G04G01G32G13
  23490477.352                    23490485.512    23490485.508   123443280.668 7
  96189567.670 7        44.100          42.300
  23694095.219                                    23694105.953   124513286.842 6
  97023384.33742        37.500          16.900
  22254775.445                    22254783.898    22254784.012   116949618.678 7
  91129604.352 7        47.000          43.500
  20595744.477                                    20595752.223   108231362.688 8
  84336155.73846        48.900          39.400
  20900589.758                                    20900594.867   109833362.394 8
  85584468.96946        50.900          39.700
  21440077.305                                    21440085.461   112668367.734 7
  87793585.62445        47.900          34.000
  23366590.898                    23366603.746                   122792224.138 6
  95682291.202 7        41.000          43.700
  23601743.477                                    23601753.273   124027975.899 7
  96645205.30144        43.400          25.000
  22377100.820                                    22377109.152   117592504.107 7
  91630574.03645        45.500          30.000
 14  1  6 12 38  9.0000000  0  9G31G10G17G20G23G04G01G32G13
  23496252.109                    23496260.621    23496260.676   123473626.891 7
  96213214.067 7        44.500          43.400
  23673797.711                                    23673808.328   124406623.004 6
  96940269.74342        38.600          16.300
  22266837.109                    22266845.211    22266845.266   117013001.981 7
  91178993.905 7        46.700          43.900
  20605568.617                                    20605575.660   108282986.669 7
  84376382.20446        47.800          39.700
  20892909.031                                    20892914.668   109793000.386 8
  85553018.07046        49.800          39.800
  21426892.734                                    21426901.477   112599083.894 8
  87739598.23045        48.300          33.600
  23386708.797                    23386722.055                   122897946.942 6
  95764672.504 7        41.600          43.400
  23619987.875                                    23619997.906   124123852.878 7
  96719914.57344        43.500          24.800
  22357983.828                                    22357992.629   117492045.838 7
  91552294.95144        45.100          28.300
 14  1  6 12 38 39.0000000  0  9G31G10G17G20G23G04G01G32G13
  23502137.523                    23502146.152    23502146.090   123504551.131 7
  96237310.857 7        44.700          43.200
  23653526.891                                    23653538.387   124300102.217 6
  96857266.68942        38.300          17.800
  22278989.602                    22278997.703    22278997.875   117076863.878 7
  91228756.392 7        46.200          43.400
  20615465.227                                    20615472.738   108334995.704 7
  84416908.71746        47.900          39.500
  20885324.445                                    20885329.672   109753142.701 8
  85521960.15746        50.300          39.500
  21413789.648                                    21413798.391   112530227.973 7
  87685944.27245        46.800          33.000
  23406862.500                    23406876.988                   123003857.069 6
  95847199.767 7        41.300          43.400
  23638253.422                                    23638263.805   124219835.866 7
  96794706.43644        43.600          25.900
  22338926.000                                    22338934.801   117391895.985 7
  91474256.18644        44.300          29.600
 14  1  6 12 39  9.0000000  0  9G31G10G17G20G23G04G01G32G13
  23508146.992                    23508154.977    23508155.207   123536133.797 7
  96261920.705 7        45.200          43.100
  23633299.984                                    23633310.777   124193807.011 6
  96774439.31042        38.300          16.900
  22291248.469                    22291256.219    22291256.332   117141283.625 7
  91278953.565 7        46.600          43.600
  20625451.164                                    20625457.855   108387470.159 7
  84457797.89246        47.800          39.500
  20877851.320                                    20877856.781   109713871.702 8
  85491359.39346        50.200          39.600
  21400784.344                                    21400792.910   112461883.792 7
  87632689.05745        47.600          34.000
  23427068.039                    23427081.473                   123110034.188 6
  95929935.082 7        41.600          43.100
  23656554.055                                    23656563.383   124316004.988 7
  96869643.32844        43.900          25.700
  22319943.047                                    22319951.496   117292138.049 7
  91396522.81644        44.900          28.500
 14  1  6 12 39 39.0000000  0  9G31G10G17G20G23G04G01G32G13
  23514252.445                    23514261.543    23514261.656   123568219.163 7
  96286922.270 7        44.400          43.200
  23613086.250                                    23613097.336   124087583.888 6
  96691668.20142        38.400          17.400
  22303583.320                    22303591.305    22303591.418   117206103.961 7
  91329462.881 7        46.600          43.600
  20635495.500                                    20635502.602   108440253.925 8
  84498928.08246        49.000          39.200
  20870460.883                                    20870466.227   109675033.174 8
  85461095.62546        51.700          39.900
  21387846.961                                    21387855.762   112393898.360 8
  87579713.39445        48.100          34.200
  23447294.070                    23447307.094                   123216321.666 7
  96012756.388 7        42.300          43.800
  23674860.273                                    23674869.719   124412204.307 7
  96944603.76944        43.800          24.700
  22301004.930                                    22301013.086   117192619.214 7
  91318975.75244        44.100          29.100
 14  1  6 12 40  9.0000000  0  9G31G10G17G20G23G04G01G32G13
  23520467.445                    23520476.602    23520476.598   123600879.735 7
  96312372.058 7        43.500          43.200
  23592901.898                                    23592911.930   123981508.487 6
  96609012.15343        38.900          18.600
  22316007.797                    22316016.719    22316016.598   117271396.584 7
  91380340.225 7        46.100          43.600
  20645612.797                                    20645620.250   108493420.106 8
  84540356.26246        48.600          39.400
  20863166.313                                    20863171.539   109636702.216 8
  85431227.36746        51.200          40.300
  21374993.039                                    21375001.313   112326348.183 7
  87527076.89445        47.400          34.800
  23467554.969                    23467567.816                   123322791.992 6
  96095720.172 7        41.800          43.900
  23693186.227                                    23693195.672   124508506.608 7
  97019644.43144        43.500          26.000
  22282127.164                                    22282135.965   117093416.590 7
  91241675.10044        44.600          29.300
 14  1  6 12 40 39.0000000  0  9G31G10G17G20G23G04G01G32G13
  23526806.992                    23526816.559    23526816.203   123634195.012 7
  96338331.993 7        43.600          43.100
  23572759.477                                    23572769.508   123875662.195 6
  96526534.66542        39.000          16.900
  22328537.281                    22328545.500    22328545.438   117337239.658 7
  91431646.484 7        47.200          43.300
  20655817.578                                    20655825.031   108547047.940 8
  84582144.17946        48.300          38.900
  20855984.195                                    20855989.480   109598959.497 8
  85401817.47946        50.800          40.000
  21362236.797                                    21362245.949   112259315.256 8
  87474843.45045        48.000          34.500
  23487865.313                    23487877.867                   123429523.407 6
  96178887.391 7        41.900          43.200
  23711546.500                                    23711556.121   124604990.786 7
  97094826.83844        44.100          24.800
  22263325.313                                    22263333.879   116994612.088 7
  91164684.65044        44.400          29.000
 14  1  6 12 41  9.0000000  0  9G31G10G17G20G23G04G01G32G13
  23533241.773                    23533250.813    23533250.984   123668010.581 7
  96364681.762 7        43.000          42.900
  23552632.063                                    23552643.207   123769893.522 6
  96444117.65343        39.400          18.600
  22341141.914                    22341150.660    22341150.539   117403477.414 7
  91483260.287 7        46.100          43.400
  20666081.094                                    20666088.547   108600982.481 8
  84624171.07546        49.300          39.300
  20848885.055                                    20848890.926   109561652.902 8
  85372747.42946        50.700          40.300
  21349550.711                                    21349559.512   112192649.027 7
  87422895.75245        47.700          34.800
  23508195.805                    23508209.063                   123536361.128 7
  96262137.460 7        42.100          43.500
  23729912.328                                    23729921.539   124701502.505 7
  97170030.70543        43.600          23.200
  22244570.336                                    22244578.785   116896055.045 7
  91087887.04844        44.100          28.700
 14  1  6 12 41 39.0000000  0  9G31G10G17G20G23G04G01G32G13
  23539785.680                    23539794.426    23539794.539   123702398.663 7
  96391477.649 7        43.200          43.200
  23532533.914                                    23532544.180   123664277.285 6
  96361819.45242        39.400          17.800
  22353835.414                    22353843.926    22353843.980   117470181.118 7
  91535237.179 7        46.500          43.000
  20676416.805                                    20676424.199   108655296.704 8
  84666493.83446        48.700          39.100
  20841882.758                                    20841888.160   109524856.657 8
  85344075.05346        51.300          40.200
  21336948.430                                    21336957.289   112126424.963 8
  87371292.59945        48.400          34.600
  23528559.516                    23528573.887                   123643376.911 7
  96345526.261 7        42.200          43.000
  23748296.914                                    23748306.594   124798114.070 7
  97245312.37244        43.500          24.300
  22225876.609                                    22225885.586   116797821.152 7
  91011341.23744        43.800          29.200
 14  1  6 12 42  9.0000000  0  9G31G10G17G20G23G04G01G32G13
  23546453.422                    23546462.637    23546462.574   123737437.555 7
  96418780.663 7        43.900          42.900
  23512480.461                                    23512489.906   123558894.083 6
  96279702.81842        40.100          17.400
  22366632.172                    22366640.566    22366640.680   117537427.437 7
  91587636.875 7        46.300          43.000
  20686839.422                                    20686846.406   108710068.460 8
  84709173.11046        48.700          38.900
  20834993.148                                    20834998.609   109488650.844 8
  85315862.75746        51.100          39.900
  21324446.492                                    21324455.117   112060724.467 8
  87320097.42445        48.000          34.300
  23548973.469                    23548987.313                   123750648.254 7
  96429114.212 7        42.500          43.000
  23766714.875                                    23766724.262   124894903.547 7
  97320732.64144        43.300          25.200
  22207261.078                                    22207269.117   116699992.032 7
  90935110.83844        43.900          28.900
 14  1  6 12 42 39.0000000  0  9G31G10G17G20G23G04G01G32G13
  23553215.539                    23553224.578    23553224.574   123772972.453 7
  96446470.172 7        43.400          42.300
  23492442.273                                    23492451.484   123453592.023 6
  96197649.44542        40.200          17.800
  22379502.359                    22379510.344    22379510.398   117605060.962 7
  91640338.297 7        46.400          43.400
  20697319.719                                    20697327.406   108765143.232 8
  84752088.50746        49.300          38.700
  20828186.781                                    20828192.008   109452882.537 8
  85287991.37546        51.900          39.600
  21312014.813                                    21312023.262   111995396.315 8
  87269192.40345        48.700          34.800
  23569405.609                    23569419.512                   123858020.047 7
  96512780.433 7        42.300          42.800
  23785138.367                                    23785148.457   124991716.286 7
  97396171.06944        43.200          24.100
  22188692.719                                    22188700.992   116602416.832 7
  90859078.29444        44.100          28.700
 14  1  6 12 43  9.0000000  0  9G31G10G17G20G23G04G01G32G13
  23560086.148                    23560095.539    23560095.301   123809076.199 7
  96474602.940 7        44.000          42.200
  23472432.906                                    23472442.879   123348446.152 6
  96115717.74643        39.900          18.600
  22392459.711                    22392467.813    22392468.102   117673153.052 7
  91693397.050 7        46.000          43.300
  20707872.055                                    20707879.215   108820594.008 8
  84795296.88446        49.700          39.500
  20821477.672                                    20821483.367   109417626.363 8
  85260519.05746        52.000          40.200
  21299668.156                                    21299676.723   111930516.423 8
  87218636.66845        49.100          35.200
  23589870.602                    23589884.387                   123965564.558 7
  96596581.236 7        42.600          43.200
  23803579.758                                    23803589.086   125088625.164 7
  97471684.38944        43.400          24.700
  22170187.031                                    22170195.363   116505171.081 7
  90783302.46344        45.100          28.900
 14  1  6 12 43 39.0000000  0  9G31G10G17G20G23G04G01G32G13
  23567079.609                    23567088.238    23567088.059   123845827.388 7
  96503240.215 7        44.900          42.300
  23452469.430                                    23452479.227   123243538.068 6
  96033971.32043        40.100          18.600
  22405519.281                    22405527.793    22405527.906   117741781.269 7
  91746873.544 7        45.900          42.900
  20718510.266                                    20718517.602   108876499.286 8
  84838859.42846        49.500          38.900
  20814881.180                                    20814886.758   109382962.908 8
  85233508.59546        51.500          40.000
  21287423.000                                    21287431.801   111866166.866 8
  87168494.19445        48.800          34.600
  23610383.734                    23610396.816                   124073359.800 7
  96680577.418 7        42.500          42.800
  23822053.789                                    23822064.113   125185708.939 7
  97547333.98244        43.200          24.900
  22151760.477                                    22151768.809   116408337.160 7
  90707847.54245        44.200          30.600
 14  1  6 12 44  9.0000000  0  9G31G10G17G20G23G04G01G32G13
  23574167.188                    23574175.934    23574175.637   123883071.912 7
  96532261.915 7        44.500          42.100
  23432523.844                                    23432532.527   123138715.877 6
  95952291.81443        41.200          18.600
  22418651.641                    22418659.039    22418658.977   117810790.204 7
  91800646.707 7        46.300          43.100
  20729206.016                                    20729213.293   108932704.592 8
  84882655.74946        49.500          38.600
  20808368.992                                    20808374.629   109348740.000 8
  85206841.42146        51.900          40.100
  21275249.977                                    21275258.250   111802196.653 8
  87118647.30845        48.100          34.400
  23630914.422                    23630928.090                   124181250.970 7
  96764648.338 7        42.100          43.000
  23840531.805                                    23840542.480   125282813.061 7
  97622999.45444        43.100          25.300
  22133382.828                                    22133391.805   116311764.347 7
  90632596.06545        43.900          30.500
 14  1  6 12 44 39.0000000  0  9G31G10G17G20G23G04G01G32G13
  23581361.883                    23581370.746    23581370.801   123920881.320 7
  96561723.786 7        45.100          42.000
  23412606.141                                    23412615.527   123034054.255 6
  95870737.42443        40.700          19.600
  22431869.203                    22431877.656    22431877.945   117880250.301 7
  91854771.419 7        46.300          43.100
  20739972.461                                    20739979.738   108989282.359 8
  84926742.30646        49.900          39.100
  20801954.711                                    20801960.758   109315031.249 8
  85180574.87746        52.000          40.400
  21263163.148                                    21263171.715   111738681.124 8
  87069154.71445        49.100          34.400
  23651477.375                    23651491.453                   124289309.395 7
  96848849.600 7        42.300          43.300
  23859027.938                                    23859038.438   125380009.649 7
  97698736.98743        42.900          22.000
  22115070.250                                    22115078.758   116215528.003 7
  90557606.77045        44.900          30.200
 14  1  6 12 45  9.0000000  0  9G31G10G17G20G23G04G01G32G13
  23588679.172                    23588687.977    23588687.563   123959333.559 7
  96591686.570 7        44.900          42.200
  23392734.906                                    23392744.703   122929633.779 6
  95789370.91243        40.500          19.300
  22445187.859                    22445196.430    22445196.426   117950238.494 7
  91909307.632 7        45.800          43.200
  20750824.648                                    20750831.809   109046310.308 8
  84971179.65046        50.500          39.000
  20795652.711                                    20795657.938   109281916.633 8
  85154771.31346        51.900          40.000
  21251178.414                                    21251187.449   111675701.429 8
  87020079.66645        49.300          35.200
  23672087.164                    23672100.949                   124397612.598 7
  96933241.586 7        42.500          42.900
  23877556.313                                    23877567.164   125477376.606 6
  97774607.27244        41.800          24.000
  22096836.328                                    22096844.367   116119709.878 7
  90482943.35645        45.400          30.300
 14  1  6 12 45 39.0000000  0  9G31G10G17G20G23G04G01G32G13
  23596089.102                    23596097.555    23596097.668   123998274.739 7
  96622030.336 7        44.100          42.300
  23372882.000                                    23372891.328   122825303.184 6
  95708074.43643        41.300          19.000
  22458576.383                    22458585.070    22458585.535   118020599.716 7
  91964134.525 7        45.300          43.000
  20761732.586                                    20761740.332   109103634.709 8
  85015847.99746        50.200          39.200
  20789435.297                                    20789441.051   109249244.194 8
  85129312.29146        52.000          40.700
  21239267.609                                    21239275.473   111613107.392 7
  86971305.12045        47.800          35.300
  23692714.023                    23692727.164                   124506006.262 7
  97017704.064 7        42.100          43.600
  23896086.945                                    23896098.500   125574760.409 7
  97850490.66043        42.000          23.000
  22078653.766                                    22078662.039   116024159.166 7
  90408488.32345        45.200          30.800
 14  1  6 12 46  9.0000000  0  9G31G10G17G20G23G04G01G32G13
  23603606.781                    23603614.766    23603614.879   124037777.622 7
  96652811.787 6        45.300          41.500
  23353059.547                                    23353069.051   122721137.592 6
  95626906.49543        40.800          19.600
  22472050.914                    22472059.074    22472059.363   118091405.500 7
  92019307.821 7        46.000          43.100
  20772711.227                                    20772718.914   109161328.508 8
  85060804.18746        50.300          39.500
  20783316.594                                    20783321.820   109217088.394 8
  85104255.84446        52.000          40.600
  21227444.055                                    21227452.563   111550974.665 8
  86922890.05345        49.500          35.000
  23713371.586                    23713384.961                   124614562.390 7
  97102293.142 7        42.000          43.300
  23914636.250                                    23914646.867   125672233.560 6
  97926443.68743        41.800          23.000
  22060536.133                                    22060544.699   115928952.040 7
  90334300.99345        46.600          31.200
 14  1  6 12 46 39.0000000  0  9G31G10G17G20G23G04G01G32G13
  23611230.234                    23611238.688    23611238.508   124077839.761 7
  96684029.018 7        44.700          42.000
  23333269.492                                    23333279.289   122617138.086 6
  95545868.02243        40.300          19.000
  22485609.445                    22485616.668    22485616.723   118162652.398 7
  92074824.848 7        46.400          42.800
  20783760.023                                    20783767.535   109219389.651 8
  85106046.61646        50.700          38.600
  20777295.484                                    20777301.355   109185449.158 8
  85079601.91746        52.300          40.800
  21215709.008                                    21215717.164   111489304.529 8
  86874835.44345        48.200          35.100
  23734059.875                    23734073.191                   124723278.646 6
  97187006.992 7        41.400          42.900
  23933201.672                                    23933212.523   125769794.444 6
  98002465.07943        41.600          22.800
  22042484.625                                    22042492.781   115834090.316 7
  90260382.81745        46.100          31.100
 14  1  6 12 47  9.0000000  0  9G31G10G17G20G23G04G01G32G13
  23618976.250                    23618985.230    23618984.992   124118543.939 7
  96715746.522 6        44.000          41.700
  23313526.414                                    23313535.918   122513389.881 6
  95465025.36243        40.500          19.000
  22499265.906                    22499274.359    22499274.473   118234421.890 7
  92130749.089 7        45.900          43.200
  20794894.500                                    20794901.777   109277900.834 8
  85151639.72346        49.700          38.700
  20771389.250                                    20771394.301   109154410.777 8
  85055416.18746        51.700          40.500
  21204077.906                                    21204086.180   111428183.485 8
  86827208.68645        49.100          35.500
  23754794.039                    23754807.238                   124832237.153 6
  97271909.607 7        41.500          42.900
  23951799.141                                    23951809.816   125867525.613 7
  98078619.16444        42.300          24.700
  22024515.016                                    22024523.172   115739659.436 7
  90186800.36445        46.500          31.100
 14  1  6 12 47 39.0000000  0  9G31G10G17G20G23G04G01G32G13
  23626812.352                    23626821.098    23626821.270   124159727.258 7
  96747837.380 6        43.800          41.700
  23293801.289                                    23293810.031   122409733.199 6
  95384254.02543        40.900          20.400
  22512991.094                    22513000.074    22512999.953   118306550.097 7
  92186952.855 7        45.200          43.500
  20806083.750                                    20806090.852   109336699.474 8
  85197456.82046        49.300          38.300
  20765566.375                                    20765572.012   109123812.598 8
  85031573.47946        51.500          40.100
  21192520.492                                    21192528.883   111367451.784 8
  86779885.32645        48.500          35.800
  23775543.156                    23775557.410                   124941274.695 6
  97356873.816 7        41.600          43.000
  23970398.500                                    23970409.234   125965264.548 7
  98154779.29144        42.400          24.700
  22006597.289                                    22006605.387   115645500.707 7
  90113429.96645        46.300          31.600
 14  1  6 12 48  9.0000000  0  9G31G10G17G20G23G04G01G32G13
  23634755.109                    23634764.441    23634764.496   124201466.847 7
  96780361.692 7        44.300          42.300
  23274108.031                                    23274117.711   122306248.159 6
  95303616.43043        40.600          20.600
  22526799.930                    22526807.797    22526808.496   118379113.333 7
  92243495.603 7        45.800          43.100
  20817342.039                                    20817349.082   109395863.343 8
  85243558.51946        49.600          38.400
  20759842.656                                    20759848.234   109093733.652 8
  85008135.35646        52.600          39.900
  21181053.336                                    21181061.609   111307190.448 8
  86732928.47345        49.400          34.600
  23796321.508                    23796335.996                   125050468.253 6
  97441959.598 7        41.700          42.800
  23989013.641                                    23989024.082   126063088.925 7
  98231006.00344        42.000          24.600
  21988746.570                                    21988754.785   115551695.168 7
  90040334.78145        47.000          32.000
 14  1  6 12 48 39.0000000  0  9G31G10G17G20G23G04G01G32G13
  23642819.594                    23642828.281    23642828.688   124243844.197 7
  96813382.955 7        43.400          42.000
  23254464.094                                    23254473.891   122203018.565 6
  95223177.91043        40.600          19.000
  22540705.695                    22540714.324    22540714.789   118452191.529 7
  92300439.616 7        45.400          43.400
  20828685.258                                    20828692.945   109455473.382 8
  85290007.88246        48.400          39.100
  20754233.516                                    20754238.977   109064257.302 8
  84985166.79546        51.600          40.000
  21169691.180                                    21169700.039   111247483.734 8
  86686403.78845        49.700          35.500
  23817145.938                    23817159.898                   125159898.748 7
  97527230.002 7        42.100          42.600
  24007661.453                                    24007671.543   126161080.104 7
  98307362.70143        42.200          22.900
  21970979.297                                    21970987.277   115458327.242 7
  89967580.58745        47.100          31.900
 14  1  6 12 49  9.0000000  0  9G31G10G17G20G23G04G01G32G13
  23650974.086                    23650983.535    23650983.180   124286695.324 7
  96846773.402 7        43.700          42.500
  23234838.531                                    23234847.508   122099883.451 6
  95142813.03843        40.600          20.600
  22554679.109                    22554687.328    22554687.617   118525619.431 7
  92357656.125 7        45.100          43.200
  20840082.656                                    20840090.109   109515366.237 8
  85336677.62046        49.200          38.600
  20748707.945                                    20748712.996   109035221.228 8
  84962541.30146        51.000          39.900
  21158404.766                                    21158412.805   111188171.207 8
  86640186.26645        49.300          35.200
  23837984.227                    23837997.602                   125269401.655 6
  97612556.825 7        41.600          43.000
  24026308.781                                    24026319.691   126259074.347 7
  98383721.78043        42.100          22.500
  21953264.383                                    21953272.480   115365236.736 7
  89895042.55945        47.200          32.100
 14  1  6 12 49 39.0000000  0  9G31G10G17G20G23G04G01G32G13
  23659232.781                    23659242.523    23659242.461   124330097.786 7
  96880593.449 7        43.800          42.400
  23215245.352                                    23215254.621   121996923.352 6
  95062584.49143        40.200          19.900
  22568733.156                    22568741.258    22568741.371   118599474.113 7
  92415205.196 7        45.400          43.000
  20851548.555                                    20851555.598   109575619.607 8
  85383628.29246        48.800          38.400
  20743281.789                                    20743287.191   109006705.486 8
  84940321.26946        51.100          40.900
  21147208.367                                    21147216.230   111129334.487 8
  86594339.49345        49.000          35.400
  23858849.797                    23858864.227                   125379054.710 6
  97698000.656 7        41.300          42.900
  24044972.172                                    24044982.555   126357149.903 7
  98460144.19843        42.200          21.500
  21935618.328                                    21935626.660   115272505.191 7
  89822784.24645        46.900          32.100
 14  1  6 12 50  9.0000000  0  9G31G10G17G20G23G04G01G32G13
  23667612.695                    23667621.793    23667621.906   124374133.040 7
  96914906.596 7        43.400          42.500
  23195702.180                                    23195710.746   121894222.530 6
  94982557.98843        40.000          19.900
  22582883.609                    22582891.945    22582892.000   118673835.581 7
  92473149.160 7        45.400          43.800
  20863098.453                                    20863106.082   109636315.629 8
  85430923.87846        48.800          38.000
  20737970.250                                    20737976.180   108978793.201 8
  84918571.45546        52.000          40.400
  21136118.867                                    21136126.965   111071058.346 8
  86548929.53746        49.600          36.100
  23879760.117                    23879774.781                   125488938.818 6
  97783624.519 7        41.500          43.000
  24063666.414                                    24063676.621   126455388.438 7
  98536693.62043        42.600          22.200
  21918056.703                                    21918064.684   115180217.449 7
  89750871.76645        47.700          32.100
 14  1  6 12 50 39.0000000  0  9G31G10G17G20G23G04G01G32G13
  23676082.383                    23676091.363    23676091.711   124418639.443 7
  96949586.874 7        43.700          42.300
  23176177.781                                    23176186.992   121791622.589 6
  94902610.13043        39.800          20.100
  22597099.508                    22597108.840    22597108.777   118748541.670 7
  92531361.657 7        45.100          43.400
  20874702.555                                    20874709.949   109697292.867 7
  85478438.59746        47.200          38.300
  20732743.055                                    20732748.633   108951325.151 8
  84897167.79346        51.500          40.300
  21125105.898                                    21125114.172   111013184.749 8
  86503833.24345        48.500          35.800
  23900684.266                    23900698.168                   125598892.400 6
  97869302.525 7        40.600          42.400
  24082361.320                                    24082371.527   126553628.983 7
  98613244.60543        42.500          22.300
  21900549.641                                    21900557.855   115088215.770 7
  89679182.17745        47.500          33.100
 14  1  6 12 51  9.0000000  0  9G31G10G17G20G23G04G01G32G13
  23684655.703                    23684664.859    23684664.621   124463693.145 7
  96984693.639 7        44.300          42.100
  23156688.016                                    23156697.051   121689202.298 6
  94822802.23743        39.900          19.600
  22611395.281                    22611404.555    22611404.844   118823666.945 7
  92589900.790 7        45.000          43.100
  20886374.117                                    20886381.336   109758627.702 7
  85526231.96146        47.000          38.300
  20727615.469                                    20727620.988   108924379.305 8
  84876171.05246        51.000          40.700
  21114184.516                                    21114193.258   110955793.352 8
  86459112.69645        50.000          35.400
  23921634.969                    23921649.398                   125708991.069 6
  97955093.587 6        40.500          41.700
  24101070.008                                    24101080.742   126651947.849 7
  98689856.62943        43.000          22.600
  21883112.016                                    21883119.820   114996579.713 7
  89607777.50245        47.300          32.800
 14  1  6 12 51 39.0000000  0  9G31G10G17G20G23G04G01G32G13
  23693348.359                    23693357.809    23693357.922   124509372.755 7
  97020288.129 7        44.100          42.100
  23137247.492                                    23137256.469   121587043.489 6
  94743198.07643        40.000          22.000
  22625786.164                    22625794.852    22625795.023   118899288.892 7
  92648826.935 7        45.100          43.000
  20898128.367                                    20898136.641   109820399.078 7
  85574365.48646        47.000          37.900
  20722602.250                                    20722607.770   108898035.963 8
  84855643.79346        50.200          40.400
  21103370.641                                    21103379.324   110898966.111 8
  86414831.74545        48.900          35.200
  23942628.859                    23942643.406                   125819313.370 6
  98041058.905 7        40.500          42.000
  24119810.266                                    24119820.238   126750424.106 7
  98766591.28143        42.200          22.800
  21865759.039                                    21865766.668   114905391.864 7
  89536722.08245        47.400          32.600
 14  1  6 12 52  9.0000000  0  9G31G10G17G20G23G04G01G32G13
  23702130.234                    23702138.512    23702138.918   124555519.915 7
  97056246.960 6        44.100          41.700
  23117826.875                                    23117836.496   121484990.738 6
  94663676.53743        40.900          21.500
  22640240.586                    22640249.859    22640249.973   118975248.517 7
  92708016.206 7        45.500          43.100
  20909936.398                                    20909944.262   109882449.250 7
  85622716.26246        46.400          37.800
  20717674.773                                    20717680.000   108872139.301 8
  84835464.58746        50.900          40.500
  21092634.648                                    21092643.215   110842548.618 8
  86370870.07646        48.400          36.000
  23963635.172                    23963649.484                   125929700.726 6
  98127074.917 6        39.400          41.600
  24138549.930                                    24138559.785   126848900.046 7
  98843325.67543        42.200          22.800
  21848462.469                                    21848470.449   114814497.535 7
  89465895.38145        47.300          32.700
 14  1  6 12 52 39.0000000  0  9G31G10G17G20G23G04G01G32G13
  23711014.219                    23711023.141    23711023.254   124602207.870 7
  97092627.198 6        44.700          41.600
  23098442.141                                    23098450.648   121383120.353 6
  94584297.15143        40.800          19.600
  22654773.633                    22654781.793    22654781.789   119051617.887 7
  92767524.761 7        45.100          43.000
  20921811.219                                    20921818.613   109944851.540 7
  85671341.41146        47.000          37.300
  20712845.602                                    20712851.121   108846764.152 8
  84815691.75746        50.900          40.800
  21081991.492                                    21082000.234   110786617.450 8
  86327287.35745        48.700          35.900
  23984667.148                    23984681.227                   126040226.175 6
  98213198.517 6        39.400          41.400
  24157303.023                                    24157313.113   126947449.309 6
  98920117.21043        40.900          22.900
  21831235.578                                    21831243.793   114723973.630 7
  89395357.32445        47.300          32.300
 14  1  6 12 53  9.0000000  0  9G31G10G17G20G23G04G01G32G13
  23720017.719                    23720026.055    23720026.285   124649517.923 7
  97129492.196 6        44.300          41.600
  23079107.758                                    23079116.617   121281516.640 6
  94505125.49943        40.500          21.700
  22669399.039                    22669407.844    22669407.898   119128477.124 7
  92827415.030 7        45.100          43.200
  20933768.328                                    20933776.133   110007687.778 7
  85720304.70446        46.500          38.100
  20708131.445                                    20708137.316   108821993.632 8
  84796390.07146        51.400          39.900
  21071456.805                                    21071464.961   110731257.398 7
  86284149.66745        47.500          35.800
  24005741.531                    24005755.609                   126150970.769 6
  98299492.889 6        39.700          41.700
  24176085.938                                    24176095.910   127046153.624 6
  98997029.56443        40.000          21.700
  21814096.563                                    21814104.895   114633905.126 7
  89325174.13745        47.700          32.800
 14  1  6 12 53 39.0000000  0  9G31G10G17G20G23G04G01G32G13
  23729107.953                    23729116.699    23729116.754   124697290.397 7
  97166717.526 6        44.400          41.300
  23059794.180                                    23059802.863   121180023.012 6
  94426039.65143        41.700          21.300
  22684087.734                    22684096.598    22684096.594   119205665.763 7
  92887561.979 7        44.800          43.200
  20945778.250                                    20945785.469   110070798.858 7
  85769482.16246        47.400          37.900
  20703503.523                                    20703508.926   108797670.433 8
  84777436.94346        51.600          40.500
  21061001.141                                    21061009.297   110676312.608 8
  86241335.55446        48.800          36.600
  24026826.844                    24026840.980                   126261774.855 6
  98385833.621 6        39.900          41.600
  24194867.375                                    24194878.344   127144854.031 6
  99073938.88343        39.700          20.900
  21797014.164                                    21797021.910   114544136.404 8
  89255224.54745        48.800          32.100
 14  1  6 12 54  9.0000000  0  9G31G10G17G20G23G04G01G32G13
  23738301.164                    23738309.441    23738309.438   124745600.056 7
  97204361.439 6        44.100          41.000
  23040516.023                                    23040525.059   121078717.204 6
  94347100.17143        41.400          22.000
  22698853.516                    22698862.145    22698861.848   119283257.573 7
  92948023.080 7        45.100          43.500
  20957854.000                                    20957861.863   110134259.626 7
  85818932.10346        46.700          37.600
  20698975.023                                    20698980.309   108773871.208 8
  84758892.11046        50.500          40.200
  21050639.570                                    21050647.844   110621861.557 8
  86198906.18546        48.600          36.000
  24047937.742                    24047952.699                   126372713.119 6
  98472278.908 7        39.200          42.000
  24213663.391                                    24213673.598   127243625.840 6
  99150903.83543        39.700          20.100
  21780003.633                                    21780011.555   114454745.635 8
  89185569.47345        48.100          32.800
 14  1  6 12 54 39.0000000  0  9G31G10G17G20G23G04G01G32G13
  23747611.117                    23747620.039    23747620.152   124794526.465 7
  97242485.927 6        43.500          40.700
  23021289.648                                    23021298.566   120977681.928 7
  94268371.45943        42.300          23.200
  22713709.852                    22713718.598    22713718.594   119361330.997 7
  93008859.475 7        44.900          43.200
  20970012.258                                    20970019.770   110198150.200 7
  85868716.94646        47.600          37.600
  20694561.188                                    20694566.121   108750677.331 8
  84740818.97946        50.800          41.300
  21040387.336                                    21040396.488   110567986.999 8
  86156926.02345        48.600          35.800
  24069089.156                    24069103.645                   126483864.783 6
  98558890.478 6        39.800          41.700
  24232488.344                                    24232498.375   127342549.020 6
  99227986.73143        39.600          21.100
  21763080.922                                    21763089.020   114365816.301 8
  89116273.95545        48.100          33.000
 14  1  6 12 55  9.0000000  0 10G31G10G02G17G20G23G04G01G32G13
  23757008.836                    23757017.289    23757017.402   124843909.588 7
  97280966.290 6        43.100          39.900
  23002084.516                                    23002093.902   120876760.517 7
  94189731.50643        42.800          21.800
  24920809.766                                                   130959735.715 5
                        32.000
  22728628.031                    22728636.836    22728637.066   119439724.997 7
  93069945.661 7        44.300          43.000
  20982221.945                                    20982229.340   110262311.291 7
  85918712.59046        47.000          37.600
  20690232.336                                    20690237.680   108727930.896 8
  84723094.49946        51.100          41.300
  21030215.602                                    21030224.168   110514532.977 8
  86115273.56246        49.200          36.100
  24090250.898                    24090265.797                   126595069.874 6
  98645543.676 6        39.600          41.700
  24251311.773                                    24251321.629   127441464.312 6
  99305063.50843        38.800          20.100
  21746216.258                                    21746224.238   114277192.187 7
  89047216.27945        47.500          33.400
 14  1  6 12 55 39.0000000  0 10G31G10G02G17G20G23G04G01G32G13
  23766507.344                    23766515.680    23766515.500   124893825.562 7
  97319861.874 6        42.900          40.000
  22982917.203                                    22982925.945   120776032.349 7
  94111242.09143        42.100          22.200
  24900625.859                                                   130853665.641 5
                        31.200
  22743621.156                    22743630.254    22743630.133   119518514.838 7
  93131340.297 7        44.900          43.000
  20994497.375                                    20994504.887   110326819.635 8
  85968978.81546        48.600          37.200
  20686004.188                                    20686009.531   108705710.183 8
  84705779.67146        51.500          41.100
  21020138.734                                    21020147.184   110461578.982 8
  86074010.72246        49.400          36.700
  24111437.531                    24111451.844                   126706404.567 6
  98732297.869 6        38.100          41.700
  24270147.227                                    24270157.023   127540448.639 6
  99382194.04843        40.300          20.400
  21729424.992                                    21729432.445   114188953.377 8
  88978458.84545        48.300          32.700
 14  1  6 12 56  9.0000000  0 10G31G10G02G17G20G23G04G01G32G13
  23776121.758                    23776130.563    23776130.676   124944351.471 7
  97359232.721 6        42.500          40.100
  22963800.680                                    22963809.656   120675577.219 7
  94032965.43743        42.200          22.200
  24880469.828                                                   130747742.578 5
                        31.900
  22758704.508                    22758712.434    22758712.723   119597776.560 7
  93193102.627 7        44.900          43.700
  21006853.891                                    21006861.285   110391752.252 7
  86019575.64546        47.300          37.700
  20681890.836                                    20681895.945   108684094.361 8
  84688936.19346        51.700          41.100
  21010171.750                                    21010180.375   110409205.739 8
  86033200.42546        49.100          36.400
  24132662.742                    24132677.641                   126817945.586 6
  98819212.825 6        38.000          41.600
  24289010.875                                    24289021.551   127639579.443 6
  99459438.74743        40.900          21.100
  21712722.039                                    21712729.902   114101180.207 7
  88910064.23845        47.900          33.200
 14  1  6 12 56 39.0000000  0 10G31G10G02G17G20G23G04G01G32G13
  23785822.813                    23785831.910    23785831.496   124995330.841 7
  97398956.895 6        42.900          40.900
  22944707.844                                    22944716.352   120575242.105 6
  93954782.30443        41.700          22.300
  24860312.094                                                   130641814.283 5
                        31.600
  22773847.242                    22773855.871    22773855.574   119677352.714 7
  93255109.968 7        45.000          43.600
  21019261.445                                    21019268.605   110456953.462 8
  86070381.76846        48.600          37.100
  20677863.219                                    20677868.680   108662928.793 8
  84672443.56146        52.100          41.600
  21000287.688                                    21000296.020   110357260.338 8
  85992723.50746        49.100          36.300
  24153898.258                    24153912.805                   126929536.618 6
  98906166.763 6        39.000          41.200
  24307873.078                                    24307883.813   127738701.055 6
  99536676.29543        40.600          19.600
  21696079.375                                    21696086.945   114013720.240 8
  88841913.68945        49.100          33.300
 14  1  6 12 57  9.0000000  0 10G31G10G02G17G20G23G04G01G32G13
  23795624.055                    23795633.387    23795633.383   125046837.214 7
  97439091.721 6        43.600          40.500
  22925651.844                                    22925661.289   120475103.694 7
  93876752.43343        42.400          22.300
  24840166.867                                                   130535957.345 5
                        30.500
  22789064.070                    22789072.348    22789072.285   119757315.648 7
  93317418.698 7        44.700          43.300
  21031733.680                                    21031741.426   110522497.496 8
  86121455.02046        48.200          37.300
  20673935.336                                    20673940.738   108642288.668 8
  84656360.36346        51.900          40.800
  20990498.383                                    20990506.891   110305820.034 8
  85952640.17346        48.800          36.100
  24175156.656                    24175171.613                   127041250.987 6
  98993216.802 6        39.600          40.900
  24326747.586                                    24326758.848   127837887.572 6
  99613964.38743        41.300          20.100
  21679510.180                                    21679518.219   113926651.028 8
  88774067.62145        48.500          32.800
 14  1  6 12 57 39.0000000  0 10G31G10G02G17G20G23G04G01G32G13
  23805540.922                    23805549.844    23805549.898   125098948.858 7
  97479698.185 6        43.300          41.100
  22906649.063                                    22906657.688   120375243.783 7
  93798939.57843        42.600          22.800
  24820055.109                                                   130430254.337 5
                        31.000
  22804368.500                    22804376.777    22804376.598   119837742.932 7
  93380089.259 7        44.400          43.200
  21044286.859                                    21044294.254   110588462.905 8
  86172856.61646        48.300          37.800
  20670123.359                                    20670128.410   108622254.897 8
  84640749.65046        51.900          41.500
  20980821.578                                    20980830.027   110254966.867 8
  85913014.33746        49.400          36.300
  24196453.523                    24196468.305                   127153167.292 6
  99080424.191 6        39.000          41.400
  24345650.008                                    24345660.801   127937218.344 6
  99691364.90343        39.300          20.400
  21663031.266                                    21663039.598   113840054.776 8
  88706590.10445        48.400          33.700
 14  1  6 12 58  9.0000000  0 10G31G10G02G17G20G23G04G01G32G13
  23815542.750                    23815551.320    23815551.258   125151507.488 7
  97520652.948 6        43.900          40.800
  22887670.398                                    22887679.199   120275507.467 7
  93721223.01243        42.300          23.800
  24799939.797                                                   130324550.324 5
                        30.100
  22819731.508                    22819740.430    22819740.484   119918475.670 7
  93442997.838 7        44.100          42.700
  21056889.664                                    21056896.766   110654692.030 8
  86224463.70246        48.300          36.400
  20666396.320                                    20666401.664   108602671.016 8
  84625489.49846        52.000          40.800
  20971226.836                                    20971235.285   110204546.306 8
  85873725.60046        49.600          36.500
  24217758.883                    24217773.898                   127265127.118 6
  99167665.493 6        37.900          41.500
  24364549.922                                    24364560.422   128036535.758 6
  99768755.00043        37.400          19.300
  21646613.266                                    21646621.422   113753777.006 8
  88639360.75045        48.000          33.500
 14  1  6 12 58 39.0000000  0 10G31G10G02G17G20G23G04G01G32G13
  23825643.773                    23825652.578    23825652.633   125204587.551 7
  97562014.016 6        44.500          41.600
  22868728.531                                    22868737.449   120175971.828 6
  93643662.82443        41.900          22.500
  24779838.305                                                   130218923.577 4
                        29.400
  22835166.414                    22835174.691    22835175.215   119999586.849 7
  93506201.309 7        44.700          42.900
  21069557.320                                    21069565.008   110721260.087 8
  86276334.89746        49.100          37.900
  20662769.391                                    20662774.969   108583613.234 8
  84610639.29046        51.900          40.700
  20961729.234                                    20961737.918   110154636.229 8
  85834834.63546        48.900          36.900
  24239086.844                    24239101.684                   127377204.911 6
  99254998.718 6        38.000          41.000
  24383460.648                                    24383470.973   128135914.850 6
  99846193.15443        38.600          20.600
  21630270.813                                    21630278.031   113667895.837 7
  88572440.42645        47.900          33.800
 14  1  6 12 59  9.0000000  0 10G31G10G02G17G20G23G04G01G32G13
  23835858.273                    23835866.961    23835866.957   125258266.412 7
  97603841.678 6        44.200          41.200
  22849841.766                                    22849851.035   120076717.623 7
  93566321.93743        42.500          22.900
  24759769.180                                                   130113455.052 4
                        29.100
  22850688.156                    22850696.785    22850696.430   120081153.044 7
  93569759.333 7        44.200          43.000
  21082303.602                                    21082311.172   110788244.806 8
  86328530.76246        48.500          37.500
  20659258.453                                    20659263.855   108565161.053 8
  84596260.98646        52.500          41.000
  20952344.367                                    20952352.641   110105317.633 8
  85796404.56946        48.800          36.500
  24260451.789                    24260467.102                   127489477.778 6
  99342483.946 6        39.000          41.100
  24402398.609                                    24402409.168   128235433.685 6
  99923740.21443        37.800          20.400
  21614018.805                                    21614026.668   113582492.016 8
  88505892.05545        48.500          34.000
 14  1  6 12 59 39.0000000  0 10G31G10G02G17G20G23G04G01G32G13
  23846157.398                    23846166.320    23846166.199   125312388.531 7
  97646014.732 6        44.500          41.400
  22830978.266                                    22830987.711   119977592.976 7
  93489081.99644        42.200          25.000
  24739700.367                                                   130007993.502 4
                        28.300
  22866266.195                    22866274.766    22866274.762   120163018.000 7
  93633550.164 7        44.600          43.200
  21095100.656                                    21095108.109   110855491.644 7
  86380930.87746        47.800          36.600
  20655833.445                                    20655838.379   108547161.258 8
  84582235.18346        52.000          41.500
  20943042.602                                    20943051.578   110056439.011 8
  85758317.33946        48.900          36.500
  24281825.023                    24281839.746                   127601790.771 6
  99430000.437 6        38.300          41.000
  24421333.961                                    24421344.461   128334937.887 6
 100001275.87243        37.000          19.600
  21597829.133                                    21597836.703   113497414.641 8
  88439598.06645        48.300          33.900
 14  1  6 13  0  9.0000000  4  5
MORP (COGO code)                                            COMMENT
   0.033      (antenna height)                              COMMENT
 +55.21279000 (latitude)                                    COMMENT
  -1.68549700 (longitude)                                   COMMENT
0144.425      (elevation)                                   COMMENT
 14  1  6 13  0  9.0000000  0 10G31G10G02G17G20G23G04G01G32G13
  23856554.844                    23856563.473    23856563.352   125367025.975 7
  97688589.339 6        44.000          41.700
  22812154.305                                    22812163.574   119878673.070 7
  93412001.60444        42.200          26.200
  24719646.500                                                   129902614.405 4
                        28.900
  22881915.070                    22881923.465    22881923.461   120245252.848 7
  93697629.218 7        43.900          43.000
  21107960.516                                    21107968.496   110923072.661 8
  86433591.38846        48.800          37.100
  20652507.961                                    20652513.480   108529687.524 8
  84568619.30246        52.700          41.500
  20933839.711                                    20933848.219   110008075.722 8
  85720631.66646        49.500          37.100
  24303218.680                    24303233.344                   127714215.604 6
  99517604.081 6        38.700          40.900
  24440279.813                                    24440291.016   128434500.040 6
 100078856.69143        38.400          20.400
  21581715.914                                    21581722.957   113412739.408 8
  88373617.44145        48.300          34.000
 14  1  6 13  0 39.0000000  0 10G31G10G02G17G20G23G04G01G32G13
  23867064.844                    23867073.414    23867073.293   125422257.304 7
  97731626.709 6        43.900          40.900
  22793385.367                                    22793394.695   119780040.002 7
  93335144.72144        42.200          24.700
  24699625.172                                                   129797400.419 4
                        28.900
  22897648.031                    22897657.480    22897657.711   120327934.998 7
  93762056.825 7        43.500          42.700
  21120899.516                                    21120907.027   110991067.552 8
  86486574.39346        48.600          37.100
  20649298.414                                    20649303.582   108512820.552 8
  84555476.22446        51.900          41.400
  20924750.367                                    20924758.816   109960310.283 8
  85683411.85246        49.100          37.200
  24324648.563                    24324662.992                   127826831.236 6
  99605356.393 6        38.700          40.600
  24459252.742                                    24459262.949   128534199.769 6
 100156544.71943        38.100          20.400
  21565694.703                                    21565702.918   113328548.970 7
  88308014.57445        47.900          34.400
 14  1  6 13  1  9.0000000  0 10G31G10G02G17G20G23G04G01G32G13
  23877658.609                    23877667.063    23877667.352   125477926.156 7
  97775005.003 6        44.100          40.800
  22774641.867                                    22774650.609   119681540.830 7
  93258392.18043        42.100          23.900
  24679605.711                                                   129692199.13714
                        29.600
  22913437.945                    22913447.043    22913446.980   120410907.276 7
  93826710.499 7        43.600          42.900
  21133887.672                                    21133895.184   111059320.552 7
  86539758.52746        47.900          36.500
  20646174.570                                    20646180.148   108496406.194 8
  84542685.82546        52.100          41.300
  20915745.461                                    20915754.145   109912990.002 8
  85646538.90646        49.500          36.500
  24346084.234                    24346099.840                   127939481.311 6
  99693135.540 6        37.800          40.700
  24478221.141                                    24478232.402   128633881.645 6
 100234218.81343        39.100          19.900
  21549736.977                                    21549744.957   113244690.614 7
  88242670.47845        47.600          34.000
 14  1  6 13  1 39.0000000  0 10G31G10G02G17G20G23G04G01G32G13
  23888348.391                    23888357.020    23888357.133   125534104.524 7
  97818780.334 6        43.100          41.100
  22755937.258                                    22755946.527   119583250.831 7
  93181802.61644        42.100          26.100
  24659602.977                                                   129587086.299 5
                        30.300
  22929295.969                    22929305.008    22929305.121   120494241.122 7
  93891645.916 7        43.600          43.200
  21146938.852                                    21146946.305   111127904.012 8
  86593200.16246        49.500          36.900
  20643151.438                                    20643156.898   108480518.135 8
  84530305.53346        52.400          40.900
  20906839.828                                    20906848.512   109866190.312 8
  85610071.61846        50.300          36.600
  24367542.273                    24367556.762                   128052237.812 6
  99780997.610 6        38.200          40.000
  24497200.773                                    24497211.684   128733618.293 6
 100311935.61943        38.300          19.900
  21533856.836                                    21533864.348   113161240.259 8
  88177644.30445        49.200          33.600
 14  1  6 13  2  9.0000000  0  9G31G10G17G20G23G04G01G32G13
  23899150.125                    23899159.398    23899159.219   125590868.116 7
  97863011.670 6        42.800          40.700
  22737288.008                                    22737297.688   119485248.763 7
  93105437.42544        42.400          24.500
  22945237.477                    22945245.637    22945245.691   120578010.948 7
  93956921.053 7        43.900          42.700
  21160067.242                                    21160075.047   111196894.206 8
  86646958.73046        48.300          36.500
  20640242.930                                    20640248.098   108465234.155 8
  84518395.94546        51.800          41.100
  20898048.023                                    20898056.648   109819990.670 8
  85574071.89846        49.400          37.100
  24389033.188                    24389048.734                   128165176.433 6
  99869001.586 6        38.100          40.300
  24516204.391                                    24516216.238   128833486.308 6
 100389754.79043        38.600          20.400
  21518069.906                                    21518077.242   113078276.895 8
  88112997.60845        49.200          35.200
 14  1  6 13  2 39.0000000  0 10G31G10G02G17G20G23G04G01G32G13
  23910034.039                    23910043.195    23910043.133   125648062.959 7
  97907579.053 6        43.400          41.100
  22718665.172                                    22718673.855   119387384.334 7
  93029179.46544        42.400          25.000
  24619665.789                                                   129377216.99215
                        32.500
  22961231.219                    22961240.434    22961240.547   120662061.999 7
  94022415.334 7        44.100          42.800
  21173243.813                                    21173251.207   111266138.313 8
  86700915.15246        48.900          36.900
  20637420.219                                    20637425.445   108450402.355 8
  84506838.70846        52.100          41.500
  20889342.367                                    20889350.934   109774241.064 8
  85538422.85446        49.700          36.700
  24410530.828                    24410546.258                   128278143.720 6
  99957027.896 6        38.300          40.000
  24535205.094                                    24535216.473   128933332.840 6
 100467557.17343        39.200          19.900
  21502346.102                                    21502353.555   112995651.253 8
  88048614.06845        48.300          34.400
 14  1  6 13  3  9.0000000  0 10G31G10G02G17G20G23G04G01G32G13
  23921013.836                    23921022.055    23921022.168   125705762.585 7
  97952539.775 6        42.900          40.200
  22700083.055                                    22700091.680   119289734.153 7
  92953088.46344        42.900          25.300
  24599716.734                                                   129272384.528 5
                        33.200
  22977293.508                    22977302.020    22977301.840   120746466.498 7
  94088185.027 7        43.900          43.000
  21186483.031                                    21186490.719   111335710.256 8
  86755127.03046        49.100          36.300
  20634698.367                                    20634703.828   108436097.911 8
  84495692.39746        51.900          41.800
  20880737.266                                    20880744.719   109729018.158 8
  85503184.22946        49.200          37.500
  24432048.016                    24432062.035                   128391212.872 6
 100045133.573 6        38.100          38.900
  24554215.023                                    24554227.281   129033232.143 6
 100545400.71643        39.000          19.300
  21486702.141                                    21486709.770   112913440.377 8
  87984553.73545        48.700          34.600
 14  1  6 13  3 39.0000000  0 10G31G10G02G17G20G23G04G01G32G13
  23932105.008                    23932113.813    23932113.984   125764046.864 6
  97997956.067 6        41.700          40.500
  22681557.664                                    22681566.465   119192381.996 7
  92877229.68444        42.500          24.400
  24579801.484                                                   129167732.514 5
                        33.100
  22993437.109                    22993445.855    22993445.969   120831304.124 7
  94154292.210 7        43.200          42.800
  21199800.227                                    21199807.855   111405690.837 8
  86809657.32446        48.600          37.200
  20632092.555                                    20632097.664   108422403.269 8
  84485021.25547        52.800          42.100
  20872247.289                                    20872255.797   109684405.948 8
  85468421.46646        50.000          37.600
  24453598.828                    24453613.258                   128504464.373 6
 100133381.338 6        38.300          39.000
  24573251.453                                    24573262.480   129133265.114 6
 100623348.39543        39.300          19.900
  21471152.625                                    21471160.313   112831728.176 8
  87920881.97245        48.700          34.700
 14  1  6 13  4  9.0000000  0 10G31G10G02G17G20G23G04G01G32G13
  23943276.789                    23943286.121    23943286.059   125822755.256 7
  98043702.852 6        42.500          40.500
  22663059.219                                    22663068.137   119095170.737 7
  92801480.69044        43.100          25.100
  24559891.211                                                   129063103.759 5
                        33.100
  23009633.203                    23009642.008    23009641.887   120916413.437 7
  94220611.106 7        43.800          43.000
  21213164.609                                    21213171.828   111475920.110 8
  86864381.40446        48.900          36.500
  20629572.188                                    20629578.000   108409159.805 8
  84474701.68146        52.400          41.600
  20863844.484                                    20863852.641   109640247.965 8
  85434012.64846        50.200          37.300
  24475154.383                    24475168.520                   128617737.815 6
 100221646.204 6        38.300          38.800
  24592282.172                                    24592293.316   129233272.436 6
 100701276.09043        38.900          20.100
  21455668.023                                    21455676.004   112750357.872 8
  87857476.62645        48.900          34.800
 14  1  6 13  4 39.0000000  0 10G31G10G02G17G20G23G04G01G32G13
  23954543.797                    23954552.895    23954552.832   125881961.302 7
  98089837.423 6        42.500          39.800
  22644601.281                                    22644610.668   118998177.125 7
  92725901.28143        43.100          23.500
  24540001.250                                                   128958575.366 5
                        32.000
  23025894.922                    23025903.492    23025903.664   121001867.130 7
  94287198.340 7        43.900          42.700
  21226590.156                                    21226597.434   111546472.374 8
  86919357.16446        48.400          36.000
  20627152.336                                    20627157.387   108396442.852 8
  84464792.37246        52.200          41.800
  20855542.383                                    20855551.008   109596620.821 8
  85400017.47846        49.800          37.700
  24496727.313                    24496742.035                   128731106.918 6
 100309985.601 6        38.800          37.900
  24611322.445                                    24611333.941   129333328.608 6
 100779241.87543        39.200          20.400
  21440263.844                                    21440271.766   112669407.314 8
  87794398.35545        48.300          34.900
 14  1  6 13  5  9.0000000  0 10G31G10G02G17G20G23G04G01G32G13
  23965919.148                    23965928.246    23965928.418   125941743.016 6
  98136420.579 6        41.700          39.200
  22626200.922                                    22626209.898   118901482.643 7
  92650554.97444        43.100          26.700
  24520144.266                                                   128854229.377 5
                        32.500
  23042235.766                    23042244.863    23042244.684   121087742.003 7
  94354113.763 6        43.600          41.800
  21240091.953                                    21240099.875   111617426.403 8
  86974645.99546        48.800          36.100
  20624847.844                                    20624853.246   108384332.510 8
  84455355.74046        52.100          41.100
  20847356.875                                    20847366.203   109553606.427 8
  85366499.77646        50.100          37.500
  24518335.055                    24518348.547                   128844649.783 6
 100398460.389 6        37.900          38.300
  24630386.508                                    24630397.887   129433512.636 6
 100857307.23442        39.000          17.800
  21424954.758                                    21424962.445   112588957.966 8
  87731710.62745        49.200          35.000
 14  1  6 13  5 39.0000000  0 10G31G10G02G17G20G23G04G01G32G13
  23977375.344                    23977384.266    23977384.203   126001944.506 7
  98183330.839 6        42.200          40.300
  22607828.172                                    22607837.676   118804935.306 7
  92575323.33444        43.200          25.500
  24500294.188                                                   128749914.419 5
                        32.300
  23058627.453                    23058636.316    23058636.605   121173881.740 7
  94421235.574 7        43.300          42.200
  21253641.008                                    21253648.871   111688627.239 8
  87030127.14745        48.500          35.700
  20622629.367                                    20622634.652   108372675.013 8
  84446271.98346        52.300          41.700
  20839259.344                                    20839267.500   109511053.008 8
  85333341.26746        50.200          37.000
  24539944.141                    24539958.863                   128958211.056 6
 100486949.522 6        37.800          37.700
  24649445.523                                    24649456.785   129533669.775 6
 100935351.71843        39.000          18.300
  21409712.211                                    21409720.074   112508858.188 8
  87669295.29145        49.300          34.500
 14  1  6 13  6  9.0000000  0 10G31G10G02G17G20G23G04G01G32G13
  23988925.273                    23988933.961    23988933.957   126062637.645 6
  98230624.203 6        41.800          40.200
  22589499.133                                    22589507.875   118708610.332 7
  92500264.92544        43.300          26.100
  24480463.906                                                   128645705.651 5
                        32.400
  23075083.555                    23075092.535    23075092.473   121260357.014 7
  94488618.841 6        44.200          41.800
  21267250.555                                    21267258.418   111760147.448 8
  87085857.15545        48.700          35.000
  20620511.484                                    20620516.477   108361543.897 8
  84437598.38446        52.800          41.800
  20831263.703                                    20831272.152   109469035.701 8
  85300600.50146        50.400          37.600
  24561571.406                    24561586.246                   129071862.515 6
 100575508.934 6        37.300          37.800
  24668513.945                                    24668525.148   129633872.737 6
 101013431.88943        39.100          18.600
  21394550.375                                    21394558.707   112429183.436 8
  87607211.14745        48.800          35.300
 14  1  6 13  6 39.0000000  0 10G31G10G02G17G20G23G04G01G32G13
  24000582.758                    24000591.270    24000591.324   126123899.777 6
  98278360.945 6        41.700          39.700
  22571226.273                                    22571234.957   118612588.458 7
  92425442.72744        43.000          24.700
  24460669.211                                                   128541684.916 5
                        33.200
  23091617.648                    23091625.750    23091626.273   121347244.305 7
  94556323.169 7        43.600          42.200
  21280936.258                                    21280943.945   111832064.996 8
  87141896.77745        49.000          35.800
  20618508.539                                    20618513.590   108351018.470 8
  84429396.76046        52.200          41.600
  20823385.797                                    20823394.188   109427635.452 8
  85268340.56946        50.400          37.900
  24583230.211                    24583244.992                   129185681.692 6
 100664199.034 6        37.300          37.100
  24687605.031                                    24687617.113   129734199.823 6
 101091608.75343        38.000          19.000
  21379485.297                                    21379493.043   112350015.249 8
  87545521.72145        48.900          35.200
 14  1  6 13  7  9.0000000  0 10G31G10G02G17G20G23G04G01G32G13
  24012319.266                    24012328.305    24012328.359   126185574.900 6
  98326419.511 6        41.600          40.200
  22552982.328                                    22552991.598   118516717.475 7
  92350738.12044        43.300          26.900
  24440881.391                                                   128437700.697 5
                        34.600
  23108200.484                    23108209.641    23108209.637   121434387.269 7
  94624226.718 7        44.100          42.300
  21294667.945                                    21294675.223   111904224.802 8
  87198125.17045        48.700          35.700
  20616591.602                                    20616596.770   108340945.123 8
  84421547.39947        52.300          42.700
  20815595.953                                    20815604.285   109386700.299 8
  85236443.05646        50.700          37.600
  24604892.000                    24604906.840                   129299513.249 5
 100752898.783 6        35.900          36.700
  24706692.375                                    24706702.758   129834496.387 6
 101169761.86943        37.000          19.000
  21364487.305                                    21364495.109   112271201.548 8
  87484108.51245        49.600          35.800
 14  1  6 13  7 39.0000000  0 10G31G10G02G17G20G23G04G01G32G13
  24024147.867                    24024157.727    24024157.547   126247735.375 6
  98374856.265 6        41.800          40.200
  22534781.969                                    22534791.180   118421073.245 7
  92276210.19244        42.700          25.000
  24421116.039                                    24421123.023   128333829.851 5
 100000414.09742        34.800          14.800
  23124845.719                    23124854.406    23124854.285   121521858.042 7
  94692385.699 7        43.800          42.100
  21308460.125                                    21308466.875   111976700.465 8
  87254599.68746        48.800          36.000
  20614775.031                                    20614779.906   108331398.178 8
  84414108.21946        52.000          41.700
  20807909.234                                    20807917.742   109346306.362 8
  85204967.26546        49.500          38.200
  24626569.500                    24626584.578                   129413429.837 5
 100841664.813 6        35.800          36.900
  24725786.305                                    24725796.453   129934836.092 6
 101247948.55843        37.900          18.600
  21349571.531                                    21349579.277   112192818.818 8
  87423031.12045        49.300          35.200
 14  1  6 13  8  9.0000000  0 10G31G10G02G17G20G23G04G01G32G13
  24036084.195                    24036092.941    24036092.586   126310459.642 6
  98423732.342 6        41.700          39.900
  22516640.328                                    22516649.129   118325737.812 7
  92201922.90044        43.100          27.200
  24401386.578                                    24401394.031   128230154.249 5
  99919627.93942        34.600          16.900
  23141567.781                    23141576.645    23141576.875   121609733.272 7
  94760859.852 7        43.000          42.500
  21322326.594                                    21322333.754   112049570.604 8
  87311381.59545        48.700          35.800
  20613073.672                                    20613078.723   108322457.903 8
  84407141.77146        51.900          41.700
  20800341.055                                    20800349.445   109306535.455 8
  85173976.95446        49.700          37.900
  24648278.172                    24648293.129                   129527509.886 5
 100930558.204 6        35.000          36.300
  24744902.914                                    24744913.766   130035298.197 6
 101326230.65342        37.400          17.800
  21334753.430                                    21334761.117   112114949.072 8
  87362353.45345        49.900          35.500
 14  1  6 13  8 39.0000000  0 10G31G10G02G17G20G23G04G01G32G13
  24048097.164                    24048106.730    24048106.609   126373591.002 6
  98472925.648 6        41.400          40.200
  22498528.297                                    22498536.629   118230558.103 7
  92127756.95044        42.700          26.300
  24381666.063                                    24381673.574   128126521.650 5
  99838875.27942        34.800          15.600
  23158336.703                    23158345.742    23158345.914   121697855.459 7
  94829526.431 7        43.600          42.600
  21336238.242                                    21336246.281   112122679.503 8
  87368349.53245        49.100          35.700
  20611458.273                                    20611463.090   108313969.467 8
  84400527.40747        52.500          42.100
  20792862.273                                    20792870.840   109267234.821 8
  85143353.08346        50.200          37.500
  24669988.367                    24670003.680                   129641597.207 5
 101019457.276 6        35.000          36.300
  24764014.859                                    24764024.891   130135727.283 6
 101404486.99942        37.600          17.400
  21320003.992                                    21320011.563   112037440.046 8
  87301956.85745        49.800          35.400
 14  1  6 13  9  9.0000000  0 10G31G10G02G17G20G23G04G01G32G13
  24060202.594                    24060211.223    24060211.395   126437202.990 6
  98522493.464 6        41.300          40.400
  22480459.969                                    22480468.652   118135610.854 6
  92053772.13944        41.000          27.000
  24361968.266                                    24361975.895   128023009.421 5
  99758216.42642        35.600          16.900
  23175166.609                    23175176.410    23175175.996   121786297.173 7
  94898441.998 7        43.500          42.400
  21350210.219                                    21350218.316   112196101.623 8
  87425561.55045        48.500          35.700
  20609943.070                                    20609948.414   108306008.225 8
  84394323.84146        51.700          41.700
  20785487.500                                    20785495.949   109228481.191 8
  85113155.45746        49.900          38.500
  24691714.625                    24691728.645                   129755765.276 5
 101108419.268 6        34.600          36.200
  24783133.234                                    24783144.496   130236197.794 6
 101482775.64842        36.900          17.400
  21305337.813                                    21305345.559   111960368.568 8
  87241901.20446        50.300          36.000
 14  1  6 13  9 39.0000000  0 10G31G10G02G17G20G23G04G01G32G13
  24072397.758                    24072406.738    24072406.500   126501290.878 6
  98572432.104 6        41.000          39.800
  22462436.625                                    22462444.898   118040895.401 7
  91979967.94344        42.800          26.400
  24342293.383                                    24342300.484   127919617.687 5
  99677651.46942        35.200          16.300
  23192057.063                    23192065.574    23192065.512   121875053.477 7
  94967602.697 7        43.900          42.400
  21364241.602                                    21364248.645   112269833.453 8
  87483014.89945        49.400          35.700
  20608528.117                                    20608533.109   108298572.166 8
  84388529.50747        52.700          42.000
  20778217.500                                    20778225.480   109190274.279 8
  85083383.84246        50.000          37.600
  24713454.727                    24713469.742                   129870010.248 5
 101197441.194 6        33.700          36.000
  24802259.133                                    24802270.336   130336706.669 6
 101561094.19342        37.300          16.300
  21290754.922                                    21290762.434   111883734.403 8
  87182186.30646        50.400          36.300
 14  1  6 13 10  9.0000000  0 10G31G10G02G17G20G23G04G01G32G13
  24084699.570                    24084708.492    24084708.254   126565936.449 6
  98622805.301 6        41.300          39.900
  22444473.656                                    22444481.813   117946497.495 7
  91906411.19344        42.300          26.200
  24322659.008                                    24322665.523   127816432.820 5
  99597247.69642        35.400          16.900
  23209022.406                    23209030.859    23209031.266   121964205.626 7
  95037071.845 7        43.600          42.600
  21378346.438                                    21378354.066   112343957.893 8
  87540774.17246        49.200          36.000
  20607228.828                                    20607234.465   108291744.991 8
  84383209.62846        52.200          41.400
  20771066.992                                    20771075.090   109152699.748 8
  85054105.00446        50.300          38.300
  24735224.664                    24735240.211                   129984414.46615
 101286587.23115        34.600          35.800
  24821408.719                                    24821419.805   130437337.088 6
 101639507.39642        37.100          16.300
  21276271.500                                    21276278.895   111807623.335 8
  87122879.02346        50.300          36.400
 14  1  6 13 10 39.0000000  0 10G31G10G02G17G20G23G04G01G32G13
  24097076.242                    24097085.047    24097084.926   126630976.956 6
  98673486.223 6        40.900          39.500
  22426539.797                                    22426547.777   117852257.459 7
  91832977.44644        42.400          27.500
  24303032.703                                    24303038.633   127713295.761 5
  99516881.20242        35.500          16.900
  23226030.664                    23226040.582    23226040.227   122053589.840 7
  95106721.818 7        43.900          42.300
  21392495.969                                    21392503.598   112418312.362 8
  87598712.69745        49.500          35.000
  20606015.234                                    20606020.227   108285365.253 8
  84378238.39346        52.800          41.700
  20764006.750                                    20764015.375   109115597.995 8
  85025194.55346        49.900          38.300
  24756994.461                    24757010.066                   130098815.199 5
 101375730.577 5        33.600          34.900
  24840550.625                                    24840561.242   130537927.056 6
 101717889.08242        37.200          15.600
  21261856.813                                    21261864.559   111731876.208 8
  87063855.31145        50.900          35.500
 14  1  6 13 11  9.0000000  0 10G31G10G02G17G20G23G04G01G32G13
  24109542.516                    24109551.145    24109551.082   126696486.474 6
  98724532.599 6        40.800          39.600
  22408651.063                                    22408659.336   117758252.900 7
  91759727.19544        42.600          26.800
  24283429.742                                    24283435.789   127610284.759 5
  99436612.88242        33.300          16.300
  23243098.820                    23243107.273    23243107.211   122143279.273 7
  95176609.622 7        44.000          42.600
  21406703.125                                    21406711.223   112492971.862 8
  87656888.89845        49.500          35.500
  20604900.953                                    20604905.945   108279509.102 8
  84373675.16046        52.900          41.700
  20757051.055                                    20757059.445   109079046.771 8
  84996713.07746        50.400          37.900
  24778778.297                    24778792.961                   130213286.629 5
 101464929.018 5        34.400          35.500
  24859699.492                                    24859709.582   130638551.813 6
 101796297.97142        36.600          15.600
  21247527.211                                    21247534.430   111656571.121 8
  87005176.05646        50.500          36.400
 14  1  6 13 11 39.0000000  0 10G31G10G02G17G20G23G04G01G32G13
  24122114.031                    24122122.016    24122121.953   126762548.200 6
  98776009.262 6        41.000          39.100
  22390824.266                                    22390832.129   117664571.358 7
  91686728.63544        42.600          27.400
  24263867.094                                    24263874.605   127507487.639 5
  99356511.26242        34.700          16.300
  23260239.602                    23260248.758    23260248.461   122233356.661 7
  95246799.723 7        43.800          42.300
  21420984.477                                    21420991.813   112568021.087 8
  87715368.79145        49.900          35.500
  20603902.305                                    20603906.887   108274262.118 8
  84369586.59747        52.000          42.100
  20750217.734                                    20750225.539   109043133.436 8
  84968728.66846        50.200          38.300
  24800590.484                    24800606.031                   130327912.882 5
 101554248.069 5        35.200          34.900
  24878870.188                                    24878880.746   130739296.117 6
 101874799.89642        36.300          14.800
  21233297.586                                    21233305.625   111581795.363 8
  86946909.24646        51.300          36.400
 14  1  6 13 12  9.0000000  0 10G31G10G02G17G20G23G04G01G32G13
  24134758.766                    24134767.512    24134767.273   126828998.921 6
  98827789.039 6        40.500          39.500
  22373028.633                                    22373037.316   117571052.855 7
  91613857.10044        42.600          27.400
  24244316.398                                    24244323.090   127404745.720 5
  99276452.70842        35.500          17.400
  23277423.805                    23277433.078    23277433.191   122323657.893 7
  95317164.261 7        44.100          42.300
  21435309.344                                    21435316.797   112643297.055 8
  87774025.36245        49.500          35.000
  20602988.969                                    20602994.020   108269462.868 8
  84365846.92147        51.500          42.000
  20743473.781                                    20743482.582   109007697.793 8
  84941116.47446        49.800          37.900
  24822401.430                    24822417.035                   130442530.60815
 101643560.51815        32.600          34.800
  24898033.922                                    24898043.602   130839997.775 6
 101953268.64342        36.100          16.300
  21219138.953                                    21219146.582   111507389.777 8
  86888930.88246        51.300          36.600
 14  1  6 13 12 39.0000000  0 10G31G10G02G17G20G23G04G01G32G13
  24147491.594                    24147500.105    24147500.570   126895911.751 6
  98879928.899 6        41.200          38.600
  22355278.023                                    22355286.824   117477774.067 7
  91541172.36544        42.600          27.500
  24224791.516                                    24224797.387   127302135.871 6
  99196497.01242        36.300          17.800
  23294663.617                    23294672.656    23294672.770   122414255.297 7
  95387759.567 7        43.900          42.500
  21449691.148                                    21449698.074   112718874.080 8
  87832916.52045        49.700          35.600
  20602174.727                                    20602180.539   108265186.336 8
  84362514.54646        52.500          41.800
  20736836.594                                    20736844.984   108972817.206 8
  84913936.80246        50.000          38.100
  24844225.219                    24844241.176                   130557213.592 5
 101732923.804 5        32.400          35.200
  24917201.336                                    24917213.008   130940731.238 6
 102031762.17942        36.400          16.300
  21205065.078                                    21205072.121   111433431.078 8
  86831300.74546        50.600          36.600
 14  1  6 13 13  9.0000000  0 10G31G10G02G17G20G23G04G01G32G13
  24160328.445                    24160337.895    24160337.832   126963370.396 6
  98932494.058 6        40.800          38.600
  22337589.445                                    22337598.656   117384822.689 7
  91468742.76244        43.600          27.600
  24205307.039                                    24205313.438   127199746.642 6
  99116713.22743        36.200          18.300
  23311975.641                    23311985.090    23311985.320   122505231.942 7
  95458650.398 6        43.300          41.900
  21464146.258                                    21464153.887   112794837.047 8
  87892108.41445        49.400          35.100
  20601477.117                                    20601482.051   108261518.193 8
  84359656.25246        52.200          41.600
  20730321.094                                    20730329.191   108938578.780 8
  84887257.51246        49.500          38.400
  24866077.836                    24866092.500                   130672045.971 5
 101822403.497 5        31.600          34.700
  24936392.656                                    24936403.977   131041581.601 6
 102110346.75542        36.200          14.800
  21191092.617                                    21191099.953   111360007.405 8
  86774087.50746        50.700          36.900
 14  1  6 13 13 39.0000000  0 10G31G10G02G17G20G23G04G01G32G13
  24173238.102                    24173247.082    24173247.020   127031209.077 6
  98985355.345 6        41.200          38.900
  22319934.000                                    22319942.273   117292036.649 7
  91396441.97544        43.300          28.500
  24185834.008                                    24185841.285   127097416.497 6
  99036975.52242        37.000          16.900
  23329328.281                    23329337.496    23329337.668   122596421.547 7
  95529707.169 6        43.200          41.800
  21478643.844                                    21478651.414   112871021.118 8
  87951472.60145        49.400          34.900
  20600863.305                                    20600868.707   108258294.717 8
  84357144.44846        51.900          41.600
  20723897.031                                    20723905.480   108904820.426 8
  84860952.30946        50.200          37.500
  24887925.641                    24887941.480                   130786862.318 5
 101911870.730 5        32.000          35.100
  24955574.414                                    24955586.438   131142384.411 6
 102188894.37242        36.000          14.800
  21177191.219                                    21177199.492   111286956.587 8
  86717164.79646        50.400          36.800
 14  1  6 13 14  9.0000000  0 10G31G10G02G17G20G23G04G01G32G13
  24186235.055                    24186243.039    24186242.801   127099505.965 6
  99038573.704 6        41.000          37.900
  22302323.078                                    22302332.406   117199498.258 7
  91324334.16544        43.600          27.500
  24166387.203                                    24166395.184   126995228.478 6
  98957348.52842        37.500          17.800
  23346736.852                    23346745.598    23346746.004   122687901.585 7
  95600990.249 7        43.000          42.500
  21493197.836                                    21493206.051   112947505.356 8
  88011070.68145        49.000          34.800
  20600350.188                                    20600356.234   108255595.987 8
  84355041.53946        51.900          41.600
  20717580.297                                    20717588.512   108871624.371 8
  84835085.25246        50.300          38.100
  24909786.594                    24909802.258                   130901741.518 5
 102001386.905 5        31.000          35.500
  24974762.555                                    24974775.281   131243219.411 6
 102267466.95842        36.200          12.600
  21163377.242                                    21163384.695   111214361.019 8
  86660596.83146        50.500          37.000
 14  1  6 13 14 39.0000000  0 10G31G10G02G17G20G23G04G01G32G13
  24199333.797                    24199342.309    24199342.070   127168341.579 6
  99092211.842 6        40.900          37.300
  22284777.336                                    22284786.078   117107291.345 7
  91252484.66144        43.700          28.100
  24146985.742                                    24146992.551   126893266.728 6
  98877897.86643        37.500          19.600
  23364215.680                    23364224.895    23364225.477   122779751.454 7
  95672561.501 6        42.000          41.800
  21507825.000                                    21507832.453   113024370.929 8
  88070965.90445        48.300          34.700
  20599952.023                                    20599957.660   108253504.474 8
  84353411.78146        51.900          41.300
  20711386.070                                    20711394.461   108839074.230 8
  84809721.51446        49.900          38.400
  24931674.867                    24931690.238                   131016764.055 5
 102091014.777 5        30.500          35.400
  24993972.484                                    24993984.859   131344168.019 5
 102346128.15542        35.500          15.600
  21149665.430                                    21149672.531   111142304.824 8
  86604449.14946        50.000          37.900
